{"schema_version":"1.3","generated_at":"2025-11-02T15:02:16.613124Z","rows":[{"station_id":"1002059045","name":"Pont Neuf - Rivoli","lat":48.860089892617,"lon":2.344057559967,"bikes":2,"docks_avail":25,"is_penury":0,"is_saturation":0},{"station_id":"100227241","name":"Guynemer - Jardin du Luxembourg","lat":48.8466127,"lon":2.3325478,"bikes":10,"docks_avail":26,"is_penury":0,"is_saturation":0},{"station_id":"1002738770","name":"Lavandieres Sainte Opportune - Rivoli","lat":48.859279702476,"lon":2.3466217517853,"bikes":2,"docks_avail":25,"is_penury":0,"is_saturation":0},{"station_id":"100759356","name":"Montmartre - Etienne Marcel","lat":48.86502194581,"lon":2.3450684401448,"bikes":7,"docks_avail":9,"is_penury":0,"is_saturation":0},{"station_id":"100760396","name":"Turbigo - Réaumur","lat":48.865574047531,"lon":2.3564198613167,"bikes":17,"docks_avail":14,"is_penury":0,"is_saturation":0},{"station_id":"100767550","name":"Mairie du 4ème","lat":48.855949910497,"lon":2.3563823103905,"bikes":5,"docks_avail":39,"is_penury":0,"is_saturation":0},{"station_id":"100769544","name":"Harpe - Saint-Germain","lat":48.851518815017,"lon":2.3436703160405,"bikes":25,"docks_avail":20,"is_penury":0,"is_saturation":0},{"station_id":"100770878","name":"Poissy - Saint-Germain","lat":48.84969649427,"lon":2.3529685288668,"bikes":23,"docks_avail":2,"is_penury":0,"is_saturation":0},{"station_id":"100783424","name":"Censier - Santeuil","lat":48.840658921385234,"lon":2.3537524044513702,"bikes":35,"docks_avail":34,"is_penury":0,"is_saturation":0},{"station_id":"100790494","name":"Bréa - Raspail","lat":48.842738478258,"lon":2.3297942217634,"bikes":2,"docks_avail":22,"is_penury":0,"is_saturation":0},{"station_id":"100798076","name":"Danton - Serpente","lat":48.852297362582,"lon":2.3414132371545,"bikes":14,"docks_avail":22,"is_penury":0,"is_saturation":0},{"station_id":"100855693","name":"Sabot - Rennes","lat":48.852575112948415,"lon":2.331552766263485,"bikes":15,"docks_avail":11,"is_penury":0,"is_saturation":0},{"station_id":"100859941","name":"Raspail - Bac","lat":48.855628721101,"lon":2.3256602883339,"bikes":21,"docks_avail":31,"is_penury":0,"is_saturation":0},{"station_id":"100863462","name":"Musée d'Orsay","lat":48.859726157909,"lon":2.3258604481816,"bikes":17,"docks_avail":48,"is_penury":0,"is_saturation":0},{"station_id":"100868590","name":"Cité Vaneau","lat":48.8542210666207,"lon":2.319614924490452,"bikes":9,"docks_avail":17,"is_penury":0,"is_saturation":0},{"station_id":"100872260","name":"Duroc - Place de Breteuil","lat":48.847460641142,"lon":2.3126140236855,"bikes":8,"docks_avail":34,"is_penury":0,"is_saturation":0},{"station_id":"100893610","name":"Bourdonnais - Tour Eiffel","lat":48.860897797941,"lon":2.295599598447,"bikes":27,"docks_avail":33,"is_penury":0,"is_saturation":0},{"station_id":"100902274","name":"Roquépine - Malesherbes","lat":48.873450733908,"lon":2.3204044997692,"bikes":26,"docks_avail":27,"is_penury":0,"is_saturation":0},{"station_id":"100906707","name":"Boulets - Faubourg Saint-Antoine","lat":48.849259262115,"lon":2.3917546141943,"bikes":9,"docks_avail":34,"is_penury":0,"is_saturation":0},{"station_id":"100910836","name":"Parmentier - Fontaine au Roi","lat":48.86787670551736,"lon":2.372705978671471,"bikes":17,"docks_avail":31,"is_penury":0,"is_saturation":0},{"station_id":"100918666","name":"Place Pasdeloup","lat":48.862654215631,"lon":2.3670325062844,"bikes":11,"docks_avail":10,"is_penury":0,"is_saturation":0},{"station_id":"100921894","name":"Léon Frot - Charonne","lat":48.854963800335,"lon":2.387217085372,"bikes":35,"docks_avail":3,"is_penury":0,"is_saturation":0},{"station_id":"100923502","name":"Crozatier - Faubourg Saint-Antoine","lat":48.850440013405,"lon":2.378901366211,"bikes":30,"docks_avail":12,"is_penury":0,"is_saturation":0},{"station_id":"100925033","name":"Gare de Lyon - Chalon","lat":48.845666194202,"lon":2.3741452395916,"bikes":34,"docks_avail":11,"is_penury":0,"is_saturation":0},{"station_id":"100933541","name":"Vivaldi - Antoine-Julien Hénard","lat":48.841923663276546,"lon":2.389728979467376,"bikes":15,"docks_avail":12,"is_penury":0,"is_saturation":0},{"station_id":"100934967","name":"Madagascar - Meuniers","lat":48.83460464474706,"lon":2.3970650508999825,"bikes":20,"docks_avail":27,"is_penury":0,"is_saturation":0},{"station_id":"100967498","name":"Stalingrad - Rigollots","lat":48.84997403844251,"lon":2.45557576417923,"bikes":14,"docks_avail":37,"is_penury":0,"is_saturation":0},{"station_id":"101008598","name":"Reuilly - Place Felix Eboue","lat":48.84030274499962,"lon":2.394630398715453,"bikes":12,"docks_avail":30,"is_penury":0,"is_saturation":0},{"station_id":"101010226","name":"Porte de Charenton","lat":48.831240105856,"lon":2.3989107459784,"bikes":10,"docks_avail":57,"is_penury":0,"is_saturation":0},{"station_id":"101011685","name":"Charenton - Prague","lat":48.848175129981,"lon":2.3763584494312,"bikes":21,"docks_avail":5,"is_penury":0,"is_saturation":0},{"station_id":"101013666","name":"Bercy - Villot","lat":48.841795009027,"lon":2.3767850184816,"bikes":25,"docks_avail":8,"is_penury":0,"is_saturation":0},{"station_id":"101015227","name":"Chevaleret - Louise Weiss","lat":48.832586513351,"lon":2.37121138812,"bikes":20,"docks_avail":15,"is_penury":0,"is_saturation":0},{"station_id":"101022698","name":"Olympiades","lat":48.826764665199,"lon":2.3650860786438,"bikes":6,"docks_avail":30,"is_penury":0,"is_saturation":0},{"station_id":"101024234","name":"Quai Panhard et Levassor","lat":48.828374828097,"lon":2.3842737458056,"bikes":37,"docks_avail":20,"is_penury":0,"is_saturation":0},{"station_id":"101488317","name":"René Coty - Place Denfert-Rochereau","lat":48.833056477316,"lon":2.3329411447048,"bikes":1,"docks_avail":35,"is_penury":0,"is_saturation":0},{"station_id":"101490103","name":"Saint-Jacques - Tombe Issoire","lat":48.833206330538864,"lon":2.3369108140468597,"bikes":2,"docks_avail":21,"is_penury":0,"is_saturation":0},{"station_id":"101491821","name":"Jean Moulin - Place Victor et Hélène Basch","lat":48.82764910241,"lon":2.3261967301369,"bikes":4,"docks_avail":37,"is_penury":0,"is_saturation":0},{"station_id":"1015246367","name":"Champs-Elysees - Bassano","lat":48.871811807816,"lon":2.300238981843,"bikes":0,"docks_avail":25,"is_penury":1,"is_saturation":0},{"station_id":"101738550","name":"Didot - Place de Moro-Giafferi","lat":48.8337,"lon":2.3215,"bikes":17,"docks_avail":5,"is_penury":0,"is_saturation":0},{"station_id":"101740379","name":"Boulard - Daguerre","lat":48.83446472680611,"lon":2.3293386027216907,"bikes":3,"docks_avail":42,"is_penury":0,"is_saturation":0},{"station_id":"101742129","name":"Cherche-Midi - Hôpital Necker","lat":48.84461063309956,"lon":2.317914068698883,"bikes":13,"docks_avail":25,"is_penury":0,"is_saturation":0},{"station_id":"101743895","name":"Joseph Liouville - Croix Nivert","lat":48.844835471244416,"lon":2.297508493065834,"bikes":19,"docks_avail":45,"is_penury":0,"is_saturation":0},{"station_id":"101746493","name":"Théâtre - Lourmel","lat":48.8482070397636,"lon":2.2898658737540245,"bikes":47,"docks_avail":6,"is_penury":0,"is_saturation":0},{"station_id":"101748685","name":"Place Etienne Pernet","lat":48.84243457133779,"lon":2.2921819612383847,"bikes":29,"docks_avail":14,"is_penury":0,"is_saturation":0},{"station_id":"101751231","name":"Saint-Amand - Labrouste","lat":48.834097274832295,"lon":2.3087677359581,"bikes":11,"docks_avail":25,"is_penury":0,"is_saturation":0},{"station_id":"101753100","name":"Henry Farman","lat":48.83372430280548,"lon":2.2713854536414146,"bikes":10,"docks_avail":6,"is_penury":0,"is_saturation":0},{"station_id":"101756482","name":"Convention - Vaugirard","lat":48.837676822332,"lon":2.2955869260203,"bikes":29,"docks_avail":33,"is_penury":0,"is_saturation":0},{"station_id":"101759167","name":"Lecourbe - Convention","lat":48.83923319241899,"lon":2.2915197908878326,"bikes":22,"docks_avail":24,"is_penury":0,"is_saturation":0},{"station_id":"101761298","name":"Place du Moulin de Javel","lat":48.84021670922,"lon":2.2716060653329,"bikes":34,"docks_avail":11,"is_penury":0,"is_saturation":0},{"station_id":"101763163","name":"Desaix - Edgar Faure","lat":48.852804604940296,"lon":2.293077029857222,"bikes":9,"docks_avail":3,"is_penury":0,"is_saturation":0},{"station_id":"1020700136","name":"Neuve Saint-Pierre - Beautreillis","lat":48.85355351439652,"lon":2.3639122769236565,"bikes":9,"docks_avail":11,"is_penury":0,"is_saturation":0},{"station_id":"1021176825","name":"Billancourt - Général Leclerc ","lat":48.8322649,"lon":2.2380413,"bikes":15,"docks_avail":7,"is_penury":0,"is_saturation":0},{"station_id":"1021553839","name":"Faubourg Poissonniere - Delta","lat":48.882555807626765,"lon":2.3497482016682625,"bikes":3,"docks_avail":33,"is_penury":0,"is_saturation":0},{"station_id":"102287315","name":"Félix Faure - Convention","lat":48.841249336041,"lon":2.2883866008495,"bikes":42,"docks_avail":2,"is_penury":0,"is_saturation":0},{"station_id":"102289046","name":"Lourmel - Marie Skobtsov","lat":48.844974,"lon":2.287283,"bikes":17,"docks_avail":5,"is_penury":0,"is_saturation":0},{"station_id":"102304517","name":"Pereire - Place de Wagram","lat":48.887070607581215,"lon":2.304111124531457,"bikes":6,"docks_avail":40,"is_penury":0,"is_saturation":0},{"station_id":"102307005","name":"Villiers - Batignolles","lat":48.881252538461,"lon":2.3165384307504,"bikes":13,"docks_avail":10,"is_penury":0,"is_saturation":0},{"station_id":"1023083417","name":"Station Paris Basketball - Ney - Charles Hermite","lat":48.898748039775,"lon":2.3645754531026,"bikes":13,"docks_avail":7,"is_penury":0,"is_saturation":0},{"station_id":"102309973","name":"Cimetière de Montmartre","lat":48.886472466142,"lon":2.3328901827335,"bikes":1,"docks_avail":42,"is_penury":0,"is_saturation":0},{"station_id":"102311820","name":"Clignancourt - Ordener","lat":48.891457726153774,"lon":2.348636478060487,"bikes":3,"docks_avail":32,"is_penury":0,"is_saturation":0},{"station_id":"102313219","name":"Belliard - Damrémont","lat":48.89669238777841,"lon":2.338023450388167,"bikes":10,"docks_avail":24,"is_penury":0,"is_saturation":0},{"station_id":"102314792","name":"Etienne Jodelle - Saint Ouen","lat":48.88794016394694,"lon":2.326124420314341,"bikes":13,"docks_avail":20,"is_penury":0,"is_saturation":0},{"station_id":"102323152","name":"Manin - Carrières d'Amérique","lat":48.884672142095,"lon":2.3919698596001,"bikes":2,"docks_avail":18,"is_penury":0,"is_saturation":0},{"station_id":"102324803","name":"Pyrénées - Emmery","lat":48.87202880542,"lon":2.3918598091484,"bikes":6,"docks_avail":34,"is_penury":0,"is_saturation":0},{"station_id":"102326776","name":"Jardin de l'Hospice Debrousse","lat":48.861451061938,"lon":2.40568600595,"bikes":0,"docks_avail":23,"is_penury":1,"is_saturation":0},{"station_id":"102328355","name":"Place Denfert-Rochereau","lat":48.843252536286684,"lon":2.245987951755524,"bikes":4,"docks_avail":16,"is_penury":0,"is_saturation":0},{"station_id":"102329800","name":"Marcelin Berthelot","lat":48.8415473058801,"lon":2.233161628246308,"bikes":22,"docks_avail":5,"is_penury":0,"is_saturation":0},{"station_id":"102331767","name":"Victor Hugo - Galliéni","lat":48.838020154411,"lon":2.2460845112801,"bikes":16,"docks_avail":18,"is_penury":0,"is_saturation":0},{"station_id":"102333275","name":"Saint-Vincent - Verdun","lat":48.819211549234495,"lon":2.254007756710053,"bikes":30,"docks_avail":4,"is_penury":0,"is_saturation":0},{"station_id":"102335085","name":"Aristide Briand - Place de la Résistance","lat":48.82124248401006,"lon":2.2511002421379094,"bikes":11,"docks_avail":14,"is_penury":0,"is_saturation":0},{"station_id":"102336814","name":"Kléber - Gouverneur Général Eboué","lat":48.826885843069796,"lon":2.2723413258790965,"bikes":23,"docks_avail":1,"is_penury":0,"is_saturation":0},{"station_id":"102338493","name":"Larmeroux - Baudelaire","lat":48.816939911292,"lon":2.2809894804846,"bikes":15,"docks_avail":14,"is_penury":0,"is_saturation":0},{"station_id":"102339791","name":"Place du Maréchal de Lattre de Tassigny","lat":48.821707715257055,"lon":2.2853431485432423,"bikes":23,"docks_avail":4,"is_penury":0,"is_saturation":0},{"station_id":"102341385","name":"Château - Bineau","lat":48.890404028589806,"lon":2.270106375217438,"bikes":9,"docks_avail":14,"is_penury":0,"is_saturation":0},{"station_id":"102343591","name":"Louis Pasteur - Albert Petit","lat":48.796261,"lon":2.317289,"bikes":5,"docks_avail":26,"is_penury":0,"is_saturation":0},{"station_id":"1025995767","name":"Hôtel de Ville de Champigny sur Marne","lat":48.813810628405,"lon":2.5096759200096,"bikes":15,"docks_avail":6,"is_penury":0,"is_saturation":0},{"station_id":"102722579","name":"Voltaire - Anatole France","lat":48.891999360256904,"lon":2.284262739121914,"bikes":23,"docks_avail":4,"is_penury":0,"is_saturation":0},{"station_id":"102724418","name":"Général Leclerc - Bièvre","lat":48.782414428747316,"lon":2.3166695237159733,"bikes":6,"docks_avail":19,"is_penury":0,"is_saturation":0},{"station_id":"102743096","name":"Sadi Carnot - François Mitterrand ","lat":48.87532687671517,"lon":2.4241617321968083,"bikes":9,"docks_avail":18,"is_penury":0,"is_saturation":0},{"station_id":"102745622","name":"Raspail - Albert Schweitzer","lat":48.81031545,"lon":2.34395871,"bikes":23,"docks_avail":5,"is_penury":0,"is_saturation":0},{"station_id":"102747146","name":"Lagny - Victor Basch","lat":48.84884147189881,"lon":2.426325418925233,"bikes":11,"docks_avail":15,"is_penury":0,"is_saturation":0},{"station_id":"102748267","name":"Montreuil - République","lat":48.85026349463687,"lon":2.4345204234123234,"bikes":12,"docks_avail":13,"is_penury":0,"is_saturation":0},{"station_id":"102749572","name":"Gare RER de Vincennes","lat":48.847563015126106,"lon":2.433383166790009,"bikes":13,"docks_avail":38,"is_penury":0,"is_saturation":0},{"station_id":"102751453","name":"Hôtel de Ville de Vincennes","lat":48.84827609706963,"lon":2.4398955702781677,"bikes":4,"docks_avail":23,"is_penury":0,"is_saturation":0},{"station_id":"102752610","name":"Mairie de Bagnolet","lat":48.868421318555,"lon":2.4179587885737,"bikes":15,"docks_avail":13,"is_penury":0,"is_saturation":0},{"station_id":"1034242363","name":"Place François Mitterand","lat":48.86492782016328,"lon":2.442958317697048,"bikes":13,"docks_avail":21,"is_penury":0,"is_saturation":0},{"station_id":"1034247348","name":"Place des Larris","lat":48.8568363,"lon":2.4780236,"bikes":7,"docks_avail":27,"is_penury":0,"is_saturation":0},{"station_id":"1035816937","name":"Poissonniers - Nord","lat":48.892511213520656,"lon":2.3522228747606277,"bikes":4,"docks_avail":24,"is_penury":0,"is_saturation":0},{"station_id":"1036199130","name":"Les Juilliottes","lat":48.8043072,"lon":2.4437362,"bikes":7,"docks_avail":14,"is_penury":0,"is_saturation":0},{"station_id":"1055541632","name":"Place Tony de Graaff","lat":48.8181645,"lon":2.2458109,"bikes":32,"docks_avail":10,"is_penury":0,"is_saturation":0},{"station_id":"1055553396","name":"Mornay - Sully","lat":48.84970399548416,"lon":2.364460788667202,"bikes":13,"docks_avail":2,"is_penury":0,"is_saturation":0},{"station_id":"1056715831","name":"Marché Saint-Germain","lat":48.85165625855281,"lon":2.335500307381153,"bikes":12,"docks_avail":9,"is_penury":0,"is_saturation":0},{"station_id":"1056947780","name":"Faubourg Poissonnière - Dunkerque","lat":48.880883445404436,"lon":2.349934279918671,"bikes":4,"docks_avail":26,"is_penury":0,"is_saturation":0},{"station_id":"1056959071","name":"Place Mireille Havet","lat":48.850533,"lon":2.383756,"bikes":35,"docks_avail":8,"is_penury":0,"is_saturation":0},{"station_id":"1056965116","name":"Lac Daumesnil - Saint-Maurice","lat":48.82774555743318,"lon":2.4183654785156246,"bikes":4,"docks_avail":46,"is_penury":0,"is_saturation":0},{"station_id":"1056972307","name":"Pyramide - Parc Floral","lat":48.837442,"lon":2.440452,"bikes":17,"docks_avail":33,"is_penury":0,"is_saturation":0},{"station_id":"1056979685","name":"Bastille - Quai de la Rapée","lat":48.84682410855,"lon":2.3669364675879,"bikes":10,"docks_avail":17,"is_penury":0,"is_saturation":0},{"station_id":"1056986761","name":"Terroirs de France - Lheureux","lat":48.83212027074841,"lon":2.388618104159832,"bikes":22,"docks_avail":33,"is_penury":0,"is_saturation":0},{"station_id":"1056995858","name":"Gergovie - Vercingétorix","lat":48.83453413883994,"lon":2.313154547426182,"bikes":7,"docks_avail":22,"is_penury":0,"is_saturation":0},{"station_id":"1057003116","name":"Charles Lecocq - Lecourbe","lat":48.84044,"lon":2.294867,"bikes":18,"docks_avail":30,"is_penury":0,"is_saturation":0},{"station_id":"1057009034","name":"Henri Chevreau - Couronnes","lat":48.87033205312931,"lon":2.388777695596218,"bikes":6,"docks_avail":21,"is_penury":0,"is_saturation":0},{"station_id":"1057039016","name":"Fessart - Château","lat":48.84245,"lon":2.23989,"bikes":17,"docks_avail":3,"is_penury":0,"is_saturation":0},{"station_id":"1057045129","name":"Cimetière de Boulogne-Billancourt","lat":48.830764,"lon":2.252024,"bikes":25,"docks_avail":15,"is_penury":0,"is_saturation":0},{"station_id":"1057061349","name":"Chancé Milly - Cimetière Communal Sud","lat":48.89687189382465,"lon":2.303922325372696,"bikes":6,"docks_avail":26,"is_penury":0,"is_saturation":0},{"station_id":"1057072168","name":"Jules Guesdes - Général de Gaulle","lat":48.81930581291959,"lon":2.278934195637703,"bikes":9,"docks_avail":15,"is_penury":0,"is_saturation":0},{"station_id":"1057081237","name":"Cimetière d'Issy-les-Moulineaux","lat":48.817699773925,"lon":2.2609312087297,"bikes":3,"docks_avail":21,"is_penury":0,"is_saturation":0},{"station_id":"1057091571","name":"Esplanade du Foncet - Camille Desmoulins","lat":48.827090233495,"lon":2.2606857866049,"bikes":24,"docks_avail":4,"is_penury":0,"is_saturation":0},{"station_id":"1057149522","name":"Rond-point du Dr Albert Schweitzer","lat":48.78980918988166,"lon":2.3143940046429634,"bikes":14,"docks_avail":8,"is_penury":0,"is_saturation":0},{"station_id":"1057179405","name":"Résistance - Hoche","lat":48.864273423741956,"lon":2.435784414410591,"bikes":4,"docks_avail":25,"is_penury":0,"is_saturation":0},{"station_id":"1057184567","name":"Paul Signac - Aristide Briand","lat":48.86950262156371,"lon":2.4502260982990265,"bikes":7,"docks_avail":28,"is_penury":0,"is_saturation":0},{"station_id":"1057203651","name":"Stade de France - Francis de Pressensé","lat":48.919141953558,"lon":2.3620655760169,"bikes":13,"docks_avail":31,"is_penury":0,"is_saturation":0},{"station_id":"1057207064","name":"Saint-Denis - Université","lat":48.94563430946964,"lon":2.3638297989964485,"bikes":9,"docks_avail":15,"is_penury":0,"is_saturation":0},{"station_id":"1057210479","name":"Jules Guesdes - Carnot","lat":48.93828169931872,"lon":2.3508992046117783,"bikes":5,"docks_avail":11,"is_penury":0,"is_saturation":0},{"station_id":"1057221951","name":"Balzac - Olympes de Gouges","lat":48.778503324868,"lon":2.4006786569953,"bikes":18,"docks_avail":10,"is_penury":0,"is_saturation":0},{"station_id":"1057228658","name":"Youri Gagarine - Karl Marx","lat":48.78448485079149,"lon":2.35908430069685,"bikes":14,"docks_avail":8,"is_penury":0,"is_saturation":0},{"station_id":"1057234527","name":"Gare d'Argenteuil","lat":48.947022436806705,"lon":2.256898172199726,"bikes":0,"docks_avail":40,"is_penury":1,"is_saturation":0},{"station_id":"1057290902","name":"Cours de Vincennes - Soult","lat":48.846918761569,"lon":2.4105220288038,"bikes":6,"docks_avail":39,"is_penury":0,"is_saturation":0},{"station_id":"1057296253","name":"Regnault - Patay","lat":48.82435782216384,"lon":2.377065159380436,"bikes":57,"docks_avail":6,"is_penury":0,"is_saturation":0},{"station_id":"1057302263","name":"Place Nationale - Château-des-Rentiers","lat":48.829268,"lon":2.365212,"bikes":8,"docks_avail":10,"is_penury":0,"is_saturation":0},{"station_id":"1057319366","name":"Quai de la Gare - Pont de Bercy","lat":48.83730787972,"lon":2.3740861260598,"bikes":20,"docks_avail":10,"is_penury":0,"is_saturation":0},{"station_id":"1057324291","name":"Cimetière de Montrouge","lat":48.821466904768,"lon":2.3215785772007,"bikes":7,"docks_avail":51,"is_penury":0,"is_saturation":0},{"station_id":"1057335613","name":"Quai du Président Roosevelt - Pont Aval","lat":48.834388367639,"lon":2.2656820714474,"bikes":13,"docks_avail":17,"is_penury":0,"is_saturation":0},{"station_id":"1057354004","name":"Chemin de Bretagne","lat":48.824753068884,"lon":2.2588385956052,"bikes":27,"docks_avail":2,"is_penury":0,"is_saturation":0},{"station_id":"1057360420","name":"Place Aimé Césaire","lat":48.783194713067815,"lon":2.2429127991199493,"bikes":14,"docks_avail":13,"is_penury":0,"is_saturation":0},{"station_id":"1057366813","name":"Hôtel de Ville de Sèvres","lat":48.824363561289,"lon":2.2131047397852,"bikes":16,"docks_avail":16,"is_penury":0,"is_saturation":0},{"station_id":"1057373549","name":"Gare RER les Grésillons","lat":48.919898633572764,"lon":2.31458459136273,"bikes":14,"docks_avail":8,"is_penury":0,"is_saturation":0},{"station_id":"1057378487","name":"Fort d'Aubervilliers","lat":48.91502382370325,"lon":2.4035281687974925,"bikes":5,"docks_avail":17,"is_penury":0,"is_saturation":0},{"station_id":"1057387136","name":"8 Mai 1945 - 10 Juillet 1940","lat":48.784567029674,"lon":2.3979035764933,"bikes":16,"docks_avail":14,"is_penury":0,"is_saturation":0},{"station_id":"1057392676","name":"Rouget de Lisle","lat":48.764615483395254,"lon":2.4071189761161804,"bikes":28,"docks_avail":7,"is_penury":0,"is_saturation":0},{"station_id":"1057399900","name":"Placette Grégoire Collas","lat":48.94342014002797,"lon":2.2487476095557213,"bikes":14,"docks_avail":11,"is_penury":0,"is_saturation":0},{"station_id":"1057405802","name":"Place Nelson Mandela","lat":48.897874318180556,"lon":2.2182820737361912,"bikes":17,"docks_avail":13,"is_penury":0,"is_saturation":0},{"station_id":"1057730786","name":"Halles - Bourdonnais","lat":48.860448992575,"lon":2.3460162431002,"bikes":3,"docks_avail":17,"is_penury":0,"is_saturation":0},{"station_id":"1057737444","name":"Place Ginette Hamelin","lat":48.837853,"lon":2.382064,"bikes":4,"docks_avail":47,"is_penury":0,"is_saturation":0},{"station_id":"1057748427","name":"Rottembourg - Général Michel Bizot","lat":48.83787825992554,"lon":2.4044052511453633,"bikes":37,"docks_avail":6,"is_penury":0,"is_saturation":0},{"station_id":"1057753858","name":"Place Charles Michels","lat":48.846401,"lon":2.28502,"bikes":32,"docks_avail":5,"is_penury":0,"is_saturation":0},{"station_id":"1057758764","name":"Cadix - Hameau","lat":48.8340107632249,"lon":2.289516180753708,"bikes":6,"docks_avail":31,"is_penury":0,"is_saturation":0},{"station_id":"1057765913","name":"Hôpital Necker","lat":48.846043490118454,"lon":2.313245013356209,"bikes":18,"docks_avail":22,"is_penury":0,"is_saturation":0},{"station_id":"1057769632","name":"Porte de Saint-Ouen - Henri Huchard","lat":48.898708366365064,"lon":2.3295360803604126,"bikes":7,"docks_avail":19,"is_penury":0,"is_saturation":0},{"station_id":"1057774603","name":"Marie-Georges Picquart - Pereire","lat":48.88863669349711,"lon":2.3111706599593163,"bikes":2,"docks_avail":30,"is_penury":0,"is_saturation":0},{"station_id":"1062162270","name":"Théâtre de La Garenne","lat":48.905658361454,"lon":2.2345951981176,"bikes":4,"docks_avail":16,"is_penury":0,"is_saturation":0},{"station_id":"1062179194","name":"18 juin 1940 - Buzenval","lat":48.868807,"lon":2.185428,"bikes":4,"docks_avail":21,"is_penury":0,"is_saturation":0},{"station_id":"1062192012","name":"Gare Rosny-Bois-Perrier","lat":48.88115023337061,"lon":2.480436824262142,"bikes":18,"docks_avail":17,"is_penury":0,"is_saturation":0},{"station_id":"1062206433","name":"Chemin Vert - Fraternité","lat":48.877141208359035,"lon":2.4461565166711807,"bikes":3,"docks_avail":17,"is_penury":0,"is_saturation":0},{"station_id":"1062223873","name":"Ancien Canal - Hélène Brion","lat":48.89484799296163,"lon":2.4188338592648506,"bikes":7,"docks_avail":16,"is_penury":0,"is_saturation":0},{"station_id":"1062238429","name":"Place de l'Europe - Quai de Bercy","lat":48.82529858840266,"lon":2.3945679143071175,"bikes":15,"docks_avail":2,"is_penury":0,"is_saturation":0},{"station_id":"1062245074","name":"Roger Salengro - Général de Gaulle","lat":48.820029010376956,"lon":2.4846760556101803,"bikes":19,"docks_avail":8,"is_penury":0,"is_saturation":0},{"station_id":"1062250686","name":"11 Novembre 1918 - 8 Mai 1945","lat":48.80889533774377,"lon":2.5382421165704727,"bikes":10,"docks_avail":26,"is_penury":0,"is_saturation":0},{"station_id":"1062256852","name":"Maxime Gorki - Louis Aragon","lat":48.78909814728443,"lon":2.368387877941132,"bikes":5,"docks_avail":15,"is_penury":0,"is_saturation":0},{"station_id":"1062671597","name":"Cossonnerie - Sébastopol","lat":48.86132665908402,"lon":2.349419631063938,"bikes":0,"docks_avail":24,"is_penury":1,"is_saturation":0},{"station_id":"1062704564","name":"Bourg l'Abbé - Saint-Martin","lat":48.863933319493,"lon":2.352406270802,"bikes":20,"docks_avail":41,"is_penury":0,"is_saturation":0},{"station_id":"1062742831","name":"Place Joffre - Frédéric le Play","lat":48.853754486938,"lon":2.3044242337346,"bikes":30,"docks_avail":8,"is_penury":0,"is_saturation":0},{"station_id":"1062783107","name":"Buffon - Jardin des Plantes","lat":48.842668466104875,"lon":2.3618587106466293,"bikes":9,"docks_avail":21,"is_penury":0,"is_saturation":0},{"station_id":"1062797394","name":"Place de la Madeleine - Royale","lat":48.869228052648,"lon":2.324421107769,"bikes":21,"docks_avail":22,"is_penury":0,"is_saturation":0},{"station_id":"1062802530","name":"Niger - Soult","lat":48.84369906369085,"lon":2.410361237220498,"bikes":8,"docks_avail":16,"is_penury":0,"is_saturation":0},{"station_id":"1062807847","name":"BNF - Bibliothèque Nationale de France","lat":48.8350268238,"lon":2.3760157451034,"bikes":32,"docks_avail":10,"is_penury":0,"is_saturation":0},{"station_id":"1062812659","name":"Auguste Blanqui - Glacière","lat":48.831151602964,"lon":2.343822196126,"bikes":19,"docks_avail":41,"is_penury":0,"is_saturation":0},{"station_id":"1062827573","name":"Bézout - Général Leclerc","lat":48.82884804502439,"lon":2.3285973072052,"bikes":2,"docks_avail":28,"is_penury":0,"is_saturation":0},{"station_id":"1062833975","name":"Froidevaux - Boulard","lat":48.835147319625,"lon":2.3294411972165,"bikes":31,"docks_avail":4,"is_penury":0,"is_saturation":0},{"station_id":"1062874070","name":"Jourdan - Cité Universitaire","lat":48.819897343156676,"lon":2.3397007964124366,"bikes":16,"docks_avail":23,"is_penury":0,"is_saturation":0},{"station_id":"1062882947","name":"Bargue -  Dutot","lat":48.837884,"lon":2.308876,"bikes":8,"docks_avail":13,"is_penury":0,"is_saturation":0},{"station_id":"1062982815","name":"Gare de Bellevue","lat":48.8192404685572,"lon":2.2295309230685234,"bikes":7,"docks_avail":13,"is_penury":0,"is_saturation":0},{"station_id":"1063000561","name":"Gardenat-Lapostol - Velettes","lat":48.87387,"lon":2.224185,"bikes":12,"docks_avail":8,"is_penury":0,"is_saturation":0},{"station_id":"1063012692","name":"Kléber - National","lat":48.906333898712234,"lon":2.2393910586833954,"bikes":9,"docks_avail":11,"is_penury":0,"is_saturation":0},{"station_id":"1063017616","name":"Mairie de La Garenne Colombes","lat":48.90663823468682,"lon":2.24679596722126,"bikes":16,"docks_avail":6,"is_penury":0,"is_saturation":0},{"station_id":"1063027377","name":"Grande Rue - Europe","lat":48.8218104687602,"lon":2.205879874527455,"bikes":5,"docks_avail":20,"is_penury":0,"is_saturation":0},{"station_id":"1063035479","name":"Parvis Robert Schuman - Roger Salengro","lat":48.812657470558754,"lon":2.1921751275658607,"bikes":13,"docks_avail":11,"is_penury":0,"is_saturation":0},{"station_id":"1063044618","name":"Bas - Gabriel Péri","lat":48.91585580539625,"lon":2.2948095202445984,"bikes":12,"docks_avail":18,"is_penury":0,"is_saturation":0},{"station_id":"1063053136","name":"Square Victor Basch","lat":48.914304862261,"lon":2.2289156913757,"bikes":17,"docks_avail":3,"is_penury":0,"is_saturation":0},{"station_id":"1063061372","name":"Résistance - Parmentier","lat":48.85965138131299,"lon":2.436705082654953,"bikes":7,"docks_avail":28,"is_penury":0,"is_saturation":0},{"station_id":"1063404053","name":"République - Danton","lat":48.85249172181667,"lon":2.462034523487091,"bikes":9,"docks_avail":11,"is_penury":0,"is_saturation":0},{"station_id":"1063410400","name":"Alouettes - Maréchal de Lattre de Tassigny","lat":48.85511009293948,"lon":2.4930700287222862,"bikes":3,"docks_avail":19,"is_penury":0,"is_saturation":0},{"station_id":"1063421211","name":"Barbès - Monique Maunoury","lat":48.81552718820216,"lon":2.3687169334905405,"bikes":11,"docks_avail":29,"is_penury":0,"is_saturation":0},{"station_id":"1063429705","name":"Eugène Varlin - Place de la Paix","lat":48.792862,"lon":2.363093,"bikes":0,"docks_avail":23,"is_penury":1,"is_saturation":0},{"station_id":"1063971944","name":"Saint-Michel - Luxembourg","lat":48.84501507626,"lon":2.3394941166043,"bikes":7,"docks_avail":22,"is_penury":0,"is_saturation":0},{"station_id":"1063984816","name":"Gare du Nord - La Chapelle","lat":48.884178287286,"lon":2.3561057075858,"bikes":8,"docks_avail":10,"is_penury":0,"is_saturation":0},{"station_id":"1064000778","name":"Gare d'Austerlitz - Pont Charles de Gaulle","lat":48.842319830109,"lon":2.3670300096273,"bikes":8,"docks_avail":67,"is_penury":0,"is_saturation":0},{"station_id":"10647548670","name":"Nungesser - Santé","lat":48.852335,"lon":2.448967,"bikes":20,"docks_avail":2,"is_penury":0,"is_saturation":0},{"station_id":"10647608657","name":"Dora Maar - Nadia Guendouz","lat":48.905452421305,"lon":2.3220406472683,"bikes":9,"docks_avail":21,"is_penury":0,"is_saturation":0},{"station_id":"1074060095","name":"Lally-Tollendal - Armand Carrel","lat":48.88270066221072,"lon":2.374717555940151,"bikes":4,"docks_avail":24,"is_penury":0,"is_saturation":0},{"station_id":"1074095810","name":"Maurice Payret-Dortail","lat":48.87811957063342,"lon":2.2233625128865246,"bikes":5,"docks_avail":17,"is_penury":0,"is_saturation":0},{"station_id":"1074142878","name":"Hôtel de Ville de Chaville","lat":48.80887149094033,"lon":2.188134044408798,"bikes":5,"docks_avail":15,"is_penury":0,"is_saturation":0},{"station_id":"1074187051","name":"Hôtel de Ville d'Asnières sur Seine","lat":48.90999330025577,"lon":2.288238108158112,"bikes":28,"docks_avail":2,"is_penury":0,"is_saturation":0},{"station_id":"1074204954","name":"Quai Jules Guesde - Saint-Simon","lat":48.80391487219,"lon":2.4089661620274,"bikes":21,"docks_avail":9,"is_penury":0,"is_saturation":0},{"station_id":"1074333296","name":"Hippodrome Paris-Vincennes","lat":48.82048387758518,"lon":2.446271181106568,"bikes":9,"docks_avail":33,"is_penury":0,"is_saturation":0},{"station_id":"1074339090","name":"Stade Pershing","lat":48.829107826857,"lon":2.4583535268903,"bikes":12,"docks_avail":14,"is_penury":0,"is_saturation":0},{"station_id":"1074347188","name":"Champs de Manoeuvre - Cartoucherie","lat":48.835261,"lon":2.447974,"bikes":24,"docks_avail":11,"is_penury":0,"is_saturation":0},{"station_id":"1074352578","name":"Parc Floral du Bel Air","lat":48.839285711865735,"lon":2.438560165464878,"bikes":8,"docks_avail":17,"is_penury":0,"is_saturation":0},{"station_id":"1074390359","name":"Youri Gagarine - Commune de Paris","lat":48.782427463041,"lon":2.3939734697342,"bikes":27,"docks_avail":6,"is_penury":0,"is_saturation":0},{"station_id":"1074398925","name":"République - Louis Loucheur","lat":48.823549261189,"lon":2.5101865455508,"bikes":24,"docks_avail":13,"is_penury":0,"is_saturation":0},{"station_id":"1074410417","name":"Verdun - Carnot","lat":48.808439376064946,"lon":2.373795211315155,"bikes":10,"docks_avail":18,"is_penury":0,"is_saturation":0},{"station_id":"1074428106","name":"André Theuriet - Blagis","lat":48.77977325745441,"lon":2.3130525648593903,"bikes":3,"docks_avail":27,"is_penury":0,"is_saturation":0},{"station_id":"10773448319","name":"Clef des Champs - Albert Dhalenne","lat":48.914938,"lon":2.330665,"bikes":8,"docks_avail":20,"is_penury":0,"is_saturation":0},{"station_id":"109609241","name":"Colmar - Victor Hugo","lat":48.88652251096166,"lon":2.173960916697979,"bikes":14,"docks_avail":18,"is_penury":0,"is_saturation":0},{"station_id":"10968855","name":"Colonel Monteil - Brune","lat":48.82650293311,"lon":2.3092747998272,"bikes":2,"docks_avail":17,"is_penury":0,"is_saturation":0},{"station_id":"11004671601","name":"Capitaine Glarner - Gabriel Péri","lat":48.902449900418745,"lon":2.3304807533425724,"bikes":27,"docks_avail":0,"is_penury":0,"is_saturation":1},{"station_id":"11004720021","name":"Garibaldi - Gabriel Péri","lat":48.905741911394,"lon":2.3316044208059,"bikes":22,"docks_avail":8,"is_penury":0,"is_saturation":0},{"station_id":"11063317380","name":"Sèvres - Maréchal Juin","lat":48.8324305,"lon":2.2292812,"bikes":12,"docks_avail":6,"is_penury":0,"is_saturation":0},{"station_id":"1109534105","name":"Demi-Lune - Aristide Briand","lat":48.87626381919953,"lon":2.4562818557024,"bikes":8,"docks_avail":12,"is_penury":0,"is_saturation":0},{"station_id":"11146696292","name":"Victor Hugo - Paul Eluard","lat":48.819602554907,"lon":2.4114319673051,"bikes":12,"docks_avail":20,"is_penury":0,"is_saturation":0},{"station_id":"11146714746","name":"Blanqui - Docteur Bauer","lat":48.907735489085,"lon":2.3407192814591,"bikes":13,"docks_avail":15,"is_penury":0,"is_saturation":0},{"station_id":"11218473640","name":"Bons Raisins - Voltaire","lat":48.87282451461399,"lon":2.1947155570850896,"bikes":6,"docks_avail":18,"is_penury":0,"is_saturation":0},{"station_id":"11218807773","name":"Hôtel de Ville de Saint-Ouen","lat":48.911380185786,"lon":2.3340076807601,"bikes":20,"docks_avail":28,"is_penury":0,"is_saturation":0},{"station_id":"11266280626","name":"Cartier Bresson - Denis Papin","lat":48.902616,"lon":2.397814,"bikes":7,"docks_avail":24,"is_penury":0,"is_saturation":0},{"station_id":"11375742","name":"Arsonval - Falguière","lat":48.84040040365445,"lon":2.313117867297474,"bikes":11,"docks_avail":14,"is_penury":0,"is_saturation":0},{"station_id":"11437651826","name":"Adrien Lesesne - Docteur Bauer","lat":48.90263867304635,"lon":2.348248063431511,"bikes":27,"docks_avail":3,"is_penury":0,"is_saturation":0},{"station_id":"11437706131","name":"Bateliers - Quai de Seine","lat":48.915817585516,"lon":2.3239533298594,"bikes":9,"docks_avail":17,"is_penury":0,"is_saturation":0},{"station_id":"11437761399","name":"Henri Barbusse - Bourguignons","lat":48.91301722799713,"lon":2.2734212270774417,"bikes":7,"docks_avail":27,"is_penury":0,"is_saturation":0},{"station_id":"11437961617","name":"Marceau Delorme - Pierre Brossolette","lat":48.91206062860357,"lon":2.295897423568745,"bikes":27,"docks_avail":1,"is_penury":0,"is_saturation":0},{"station_id":"11438049493","name":"Hélène et François Missoffe - Emile Borel","lat":48.89990653843488,"lon":2.321543991674844,"bikes":21,"docks_avail":11,"is_penury":0,"is_saturation":0},{"station_id":"11438116799","name":"Porte de Clichy - Place des Nations Unies","lat":48.896737263309504,"lon":2.310542999196392,"bikes":26,"docks_avail":14,"is_penury":0,"is_saturation":0},{"station_id":"11438171152","name":"Place Charles de Gaulle","lat":48.826073335699,"lon":2.1894485725692,"bikes":4,"docks_avail":20,"is_penury":0,"is_saturation":0},{"station_id":"11580442","name":"Geoffroy-Saint-Hilaire - Saint-Marcel","lat":48.83907826424974,"lon":2.356877340669728,"bikes":16,"docks_avail":1,"is_penury":0,"is_saturation":0},{"station_id":"117480156","name":"Enfants du Paradis - Peupliers","lat":48.833122686454,"lon":2.2571459412575,"bikes":14,"docks_avail":26,"is_penury":0,"is_saturation":0},{"station_id":"11851012506","name":"Jean Jaurès - Place du Dr Roux","lat":48.927567032796,"lon":2.2947337017374,"bikes":27,"docks_avail":8,"is_penury":0,"is_saturation":0},{"station_id":"11851037297","name":"Sèvres Rive Gauche","lat":48.821443218278,"lon":2.2150785306885,"bikes":16,"docks_avail":17,"is_penury":0,"is_saturation":0},{"station_id":"11851103861","name":"Division Leclerc - Kléber","lat":48.798666226364,"lon":2.2833752789972,"bikes":8,"docks_avail":17,"is_penury":0,"is_saturation":0},{"station_id":"11851327865","name":"Docteur Calmette - Martre","lat":48.898969358483,"lon":2.3086513252383,"bikes":14,"docks_avail":16,"is_penury":0,"is_saturation":0},{"station_id":"11874261013","name":"Place du 17 Octobre","lat":48.91962690034779,"lon":2.2978286134199792,"bikes":20,"docks_avail":0,"is_penury":0,"is_saturation":1},{"station_id":"1190800638","name":"Ranelagh - Maison de la Radio","lat":48.85293603169479,"lon":2.280449643731117,"bikes":19,"docks_avail":3,"is_penury":0,"is_saturation":0},{"station_id":"11908488283","name":"Georges Pompidou - Verdun","lat":48.875481,"lon":2.232443,"bikes":24,"docks_avail":2,"is_penury":0,"is_saturation":0},{"station_id":"11908496227","name":"Gardenat Lapostol - Franklin Roosevelt","lat":48.871839,"lon":2.222505,"bikes":17,"docks_avail":7,"is_penury":0,"is_saturation":0},{"station_id":"11908510683","name":"Séminaire de Conflans - Liberté","lat":48.823194,"lon":2.404179,"bikes":4,"docks_avail":22,"is_penury":0,"is_saturation":0},{"station_id":"120564786","name":"Filles Saint-Thomas - Place de la Bourse","lat":48.868899890853,"lon":2.3397543845203,"bikes":4,"docks_avail":54,"is_penury":0,"is_saturation":0},{"station_id":"120827885","name":"Messine - Place Du Pérou","lat":48.875448033960744,"lon":2.315508019010038,"bikes":5,"docks_avail":7,"is_penury":0,"is_saturation":0},{"station_id":"121025345","name":"Chabrol - d'Hauteville","lat":48.877018388033,"lon":2.3513179644942,"bikes":5,"docks_avail":6,"is_penury":0,"is_saturation":0},{"station_id":"121086415","name":"Colisée - Champs-Elysées","lat":48.870475399387,"lon":2.3076190799475,"bikes":3,"docks_avail":21,"is_penury":0,"is_saturation":0},{"station_id":"121160813","name":"Place Tristan Bernard","lat":48.8794936,"lon":2.2915423,"bikes":6,"docks_avail":22,"is_penury":0,"is_saturation":0},{"station_id":"12196660096","name":"Bichat - Grange aux Belles","lat":48.873688,"lon":2.365015,"bikes":9,"docks_avail":21,"is_penury":0,"is_saturation":0},{"station_id":"12225158518","name":"Henri Barbusse - Gabriel Péri","lat":48.801773795836,"lon":2.2874166362216,"bikes":0,"docks_avail":27,"is_penury":1,"is_saturation":0},{"station_id":"12225289563","name":"Béranger - Félix Faure","lat":48.80404828621485,"lon":2.2848263373723436,"bikes":8,"docks_avail":20,"is_penury":0,"is_saturation":0},{"station_id":"1227051850","name":"Glacière - Soeur Catherine Marie","lat":48.829522989420596,"lon":2.343570403754711,"bikes":20,"docks_avail":20,"is_penury":0,"is_saturation":0},{"station_id":"123095125","name":"Alibert - Jemmapes","lat":48.871044051984,"lon":2.3661044619878,"bikes":19,"docks_avail":41,"is_penury":0,"is_saturation":0},{"station_id":"1237624420","name":"Maurice d'Ocagne - General Maudhuy","lat":48.82414282524159,"lon":2.3158789426088333,"bikes":9,"docks_avail":21,"is_penury":0,"is_saturation":0},{"station_id":"124167835","name":"Lavoisier - Missak Manouchian","lat":48.86286468896063,"lon":2.495676465332508,"bikes":15,"docks_avail":3,"is_penury":0,"is_saturation":0},{"station_id":"124183944","name":"Hector Malot - Daumesnil","lat":48.84693552991762,"lon":2.3770876228809357,"bikes":49,"docks_avail":5,"is_penury":0,"is_saturation":0},{"station_id":"124390478","name":"Commandant l'Herminier - Gallieni","lat":48.847040552603,"lon":2.4160453677177,"bikes":6,"docks_avail":11,"is_penury":0,"is_saturation":0},{"station_id":"124402232","name":"Belleville - Télégraphe","lat":48.8756045,"lon":2.3995549,"bikes":3,"docks_avail":38,"is_penury":0,"is_saturation":0},{"station_id":"124622630","name":"Pelée - Alphonse Baudin","lat":48.8600265,"lon":2.3710541,"bikes":29,"docks_avail":9,"is_penury":0,"is_saturation":0},{"station_id":"125370566","name":"Manin - Secrétan","lat":48.8791665,"lon":2.3787959,"bikes":3,"docks_avail":17,"is_penury":0,"is_saturation":0},{"station_id":"125469898","name":"Square Léon","lat":48.88667396788626,"lon":2.353205569088459,"bikes":11,"docks_avail":22,"is_penury":0,"is_saturation":0},{"station_id":"125542925","name":"Louis Blanc - Aqueduc","lat":48.882030182599,"lon":2.363561578095,"bikes":34,"docks_avail":3,"is_penury":0,"is_saturation":0},{"station_id":"125623876","name":"Phalsbourg - Villiers","lat":48.88242307900951,"lon":2.3090453445911407,"bikes":3,"docks_avail":17,"is_penury":0,"is_saturation":0},{"station_id":"125811629","name":"Leredde - Tolbiac","lat":48.82887629664,"lon":2.3744382709265,"bikes":14,"docks_avail":30,"is_penury":0,"is_saturation":0},{"station_id":"125881065","name":"Metz - Marne","lat":48.891163,"lon":2.3865705,"bikes":21,"docks_avail":12,"is_penury":0,"is_saturation":0},{"station_id":"125918662","name":"Marcadet - Ramey","lat":48.890875,"lon":2.3449019,"bikes":3,"docks_avail":36,"is_penury":0,"is_saturation":0},{"station_id":"126050442","name":"Pereire - Rennequin","lat":48.88364782887555,"lon":2.2952447086572647,"bikes":10,"docks_avail":13,"is_penury":0,"is_saturation":0},{"station_id":"126175087","name":"Gabrielle Josserand - Edouard Vaillant","lat":48.90271566255436,"lon":2.3933270573616032,"bikes":18,"docks_avail":7,"is_penury":0,"is_saturation":0},{"station_id":"126354477","name":"Clichy - Place Blanche","lat":48.883601088297,"lon":2.3332237824798,"bikes":8,"docks_avail":12,"is_penury":0,"is_saturation":0},{"station_id":"12806084887","name":"Avenir","lat":48.8103438,"lon":2.3003776,"bikes":5,"docks_avail":40,"is_penury":0,"is_saturation":0},{"station_id":"128834707","name":"Jean-Jacques Rousseau - Deux Ecus","lat":48.86297805972131,"lon":2.3414635285735126,"bikes":9,"docks_avail":13,"is_penury":0,"is_saturation":0},{"station_id":"128841079","name":"Cambon - Rivoli","lat":48.866143390992,"lon":2.3251800647137,"bikes":17,"docks_avail":23,"is_penury":0,"is_saturation":0},{"station_id":"128843085","name":"Place du Lieutenant Henri Karcher","lat":48.863490871724466,"lon":2.3400671035051346,"bikes":19,"docks_avail":11,"is_penury":0,"is_saturation":0},{"station_id":"128874528","name":"Temple - Haudriettes","lat":48.861636880212,"lon":2.3566960206458,"bikes":10,"docks_avail":9,"is_penury":0,"is_saturation":0},{"station_id":"128878135","name":"Village Saint-Paul","lat":48.852639866625,"lon":2.3607301712036,"bikes":15,"docks_avail":13,"is_penury":0,"is_saturation":0},{"station_id":"128880156","name":"Archives - Rivoli","lat":48.857346707443,"lon":2.3539767041802,"bikes":5,"docks_avail":20,"is_penury":0,"is_saturation":0},{"station_id":"128882438","name":"Institut du Monde Arabe - Saint-Germain","lat":48.849063299501,"lon":2.3558086529374,"bikes":30,"docks_avail":10,"is_penury":0,"is_saturation":0},{"station_id":"128884445","name":"Constantine - Université","lat":48.860680473738,"lon":2.3148481955842,"bikes":3,"docks_avail":62,"is_penury":0,"is_saturation":0},{"station_id":"128887067","name":"Ségur - d'Estrées","lat":48.851419978983,"lon":2.3097044974566,"bikes":4,"docks_avail":15,"is_penury":0,"is_saturation":0},{"station_id":"128889359","name":"Champ de Mars - Cler","lat":48.856691550115315,"lon":2.306646779179573,"bikes":31,"docks_avail":9,"is_penury":0,"is_saturation":0},{"station_id":"128890772","name":"Bosquet - Saint-Dominique","lat":48.858651709526,"lon":2.3037165802346,"bikes":20,"docks_avail":8,"is_penury":0,"is_saturation":0},{"station_id":"128915891","name":"Octave Gréard - Tour Eiffel","lat":48.856502977696,"lon":2.2931787543289,"bikes":24,"docks_avail":9,"is_penury":0,"is_saturation":0},{"station_id":"128920403","name":"Gare Saint-Lazare - Isly","lat":48.874777677621296,"lon":2.326515804784655,"bikes":18,"docks_avail":9,"is_penury":0,"is_saturation":0},{"station_id":"128928526","name":"Clapeyron - Moscou","lat":48.88078819514121,"lon":2.324815057218075,"bikes":4,"docks_avail":11,"is_penury":0,"is_saturation":0},{"station_id":"128930462","name":"Square Louis XVI","lat":48.87320440102894,"lon":2.323658830743138,"bikes":18,"docks_avail":11,"is_penury":0,"is_saturation":0},{"station_id":"128932790","name":"Arsène Houssaye - Champs-Elysées","lat":48.873409276267,"lon":2.2977904602885,"bikes":16,"docks_avail":36,"is_penury":0,"is_saturation":0},{"station_id":"128940135","name":"Marceau - Chaillot","lat":48.868834023334,"lon":2.2986030816809,"bikes":4,"docks_avail":17,"is_penury":0,"is_saturation":0},{"station_id":"128986726","name":"Boétie - Ponthieu","lat":48.871417284355,"lon":2.3076787590981,"bikes":6,"docks_avail":39,"is_penury":0,"is_saturation":0},{"station_id":"128989986","name":"Place Georges Guillaumin","lat":48.874750203957,"lon":2.301771435326,"bikes":3,"docks_avail":26,"is_penury":0,"is_saturation":0},{"station_id":"129001431","name":"Courcelles - Place des Ternes","lat":48.878199928923124,"lon":2.2992860188665043,"bikes":9,"docks_avail":22,"is_penury":0,"is_saturation":0},{"station_id":"129004826","name":"Bellefond - Poissonnière","lat":48.87759897050706,"lon":2.348463758826256,"bikes":12,"docks_avail":5,"is_penury":0,"is_saturation":0},{"station_id":"129011497","name":"Rochechouart lamartine","lat":48.876719895109,"lon":2.344393021854,"bikes":16,"docks_avail":8,"is_penury":0,"is_saturation":0},{"station_id":"129014600","name":"Rossini - Laffitte","lat":48.87334627510507,"lon":2.337980867701675,"bikes":10,"docks_avail":23,"is_penury":0,"is_saturation":0},{"station_id":"129016495","name":"Taitbout - La Fayette","lat":48.8733298892,"lon":2.3352625966072,"bikes":15,"docks_avail":38,"is_penury":0,"is_saturation":0},{"station_id":"129021753","name":"Moncey - Blanche","lat":48.88006587474148,"lon":2.3310810327529907,"bikes":4,"docks_avail":13,"is_penury":0,"is_saturation":0},{"station_id":"129023855","name":"Parme - Clichy","lat":48.881266424227,"lon":2.3281970934506,"bikes":7,"docks_avail":17,"is_penury":0,"is_saturation":0},{"station_id":"129025451","name":"Douai - Bruxelles","lat":48.88320784122797,"lon":2.3308449949028507,"bikes":4,"docks_avail":23,"is_penury":0,"is_saturation":0},{"station_id":"129026597","name":"Caumartin - Provence","lat":48.874422773426545,"lon":2.3284685611724854,"bikes":10,"docks_avail":12,"is_penury":0,"is_saturation":0},{"station_id":"129029327","name":"Victoire - Laffitte","lat":48.87514373494672,"lon":2.338118505144376,"bikes":5,"docks_avail":15,"is_penury":0,"is_saturation":0},{"station_id":"129032910","name":"Marseille - Beaurepaire","lat":48.871624306962985,"lon":2.3639265082738348,"bikes":34,"docks_avail":21,"is_penury":0,"is_saturation":0},{"station_id":"129034587","name":"Récollets - Square Villemin","lat":48.875034655883944,"lon":2.359801238597928,"bikes":3,"docks_avail":14,"is_penury":0,"is_saturation":0},{"station_id":"129036192","name":"Gare de l'Est - Verdun","lat":48.876156054271,"lon":2.3609149083206,"bikes":6,"docks_avail":8,"is_penury":0,"is_saturation":0},{"station_id":"129038848","name":"Enghien - Faubourg Poissonnière","lat":48.872420063053,"lon":2.3483952362828,"bikes":27,"docks_avail":6,"is_penury":0,"is_saturation":0},{"station_id":"129042700","name":"Granges aux Belles - Hôpital Saint-Louis","lat":48.874794994841,"lon":2.366669436985,"bikes":6,"docks_avail":54,"is_penury":0,"is_saturation":0},{"station_id":"129043651","name":"Roquette - Thiéré","lat":48.85507930579506,"lon":2.3733686318721463,"bikes":17,"docks_avail":6,"is_penury":0,"is_saturation":0},{"station_id":"129048000","name":"Saint-Maur - Roquette","lat":48.858688774062955,"lon":2.383553994571467,"bikes":30,"docks_avail":16,"is_penury":0,"is_saturation":0},{"station_id":"129050965","name":"Place de la République - Voltaire","lat":48.866830968942,"lon":2.3654810339212,"bikes":8,"docks_avail":11,"is_penury":0,"is_saturation":0},{"station_id":"129059516","name":"Picpus - Louis Braille","lat":48.839988788912,"lon":2.4005256685521,"bikes":18,"docks_avail":40,"is_penury":0,"is_saturation":0},{"station_id":"129060764","name":"Victor Hugo - Jeanne Jugan","lat":48.843949064031825,"lon":2.415081394834419,"bikes":11,"docks_avail":17,"is_penury":0,"is_saturation":0},{"station_id":"129061615","name":"Primo Levi - Frigos","lat":48.83094844846017,"lon":2.37965351592796,"bikes":26,"docks_avail":8,"is_penury":0,"is_saturation":0},{"station_id":"129067920","name":"Mouton Duvernet - Général Leclerc","lat":48.831632518293,"lon":2.3293121159077,"bikes":5,"docks_avail":23,"is_penury":0,"is_saturation":0},{"station_id":"129069108","name":"Paul Barruel - Vaugirard","lat":48.84014918546239,"lon":2.3044332861900334,"bikes":24,"docks_avail":15,"is_penury":0,"is_saturation":0},{"station_id":"129077035","name":"Emeriau - Place de Brazzaville","lat":48.850785261674964,"lon":2.2871585190296173,"bikes":42,"docks_avail":9,"is_penury":0,"is_saturation":0},{"station_id":"129078200","name":"Parc Georges Brassens - Brancion","lat":48.83227829269761,"lon":2.3022570088505745,"bikes":7,"docks_avail":22,"is_penury":0,"is_saturation":0},{"station_id":"129079313","name":"Commerce - Letellier","lat":48.84797660373612,"lon":2.2966245196598805,"bikes":39,"docks_avail":5,"is_penury":0,"is_saturation":0},{"station_id":"129080400","name":"Belles Feuilles - Place de Mexico","lat":48.865804746474,"lon":2.2829206287861,"bikes":3,"docks_avail":20,"is_penury":0,"is_saturation":0},{"station_id":"129081441","name":"Vignes - Boulainvilliers","lat":48.856399483950504,"lon":2.275240458548069,"bikes":6,"docks_avail":15,"is_penury":0,"is_saturation":0},{"station_id":"129083553","name":"Porte de Saint Cloud - Parc des Princes","lat":48.838662757066,"lon":2.2525164484978,"bikes":7,"docks_avail":25,"is_penury":0,"is_saturation":0},{"station_id":"129086648","name":"Ceinture du Lac Inferieure - Saint-Cloud","lat":48.86218070933143,"lon":2.2617871686816216,"bikes":1,"docks_avail":41,"is_penury":0,"is_saturation":0},{"station_id":"129087587","name":"Legendre - Clichy","lat":48.88896161855884,"lon":2.322528975094376,"bikes":3,"docks_avail":37,"is_penury":0,"is_saturation":0},{"station_id":"129088667","name":"Jonquière - Docteur Paul Brousse","lat":48.894799816683985,"lon":2.318705212173216,"bikes":18,"docks_avail":36,"is_penury":0,"is_saturation":0},{"station_id":"129089749","name":"Brochant - Square des Batignolles ","lat":48.88818698581028,"lon":2.316861143151153,"bikes":10,"docks_avail":21,"is_penury":0,"is_saturation":0},{"station_id":"129091653","name":"Gare de Pont-Cardinet","lat":48.88713901475306,"lon":2.314494143994255,"bikes":10,"docks_avail":24,"is_penury":0,"is_saturation":0},{"station_id":"129094535","name":"Porte de Saint-Ouen - Bessières","lat":48.89792240854517,"lon":2.32851451022192,"bikes":8,"docks_avail":34,"is_penury":0,"is_saturation":0},{"station_id":"129095489","name":"Batignolles - Abel Truchet","lat":48.883103904582,"lon":2.3238347490884,"bikes":3,"docks_avail":25,"is_penury":0,"is_saturation":0},{"station_id":"129096696","name":"Léon - Doudeauville","lat":48.888324218452,"lon":2.3535733726386,"bikes":5,"docks_avail":8,"is_penury":0,"is_saturation":0},{"station_id":"129101773","name":"Caulaincourt - Place Constantin Pecqueur","lat":48.889677905028,"lon":2.3381787144261,"bikes":20,"docks_avail":24,"is_penury":0,"is_saturation":0},{"station_id":"129103849","name":"Francoeur - Marcadet","lat":48.89104123261663,"lon":2.340014585442034,"bikes":2,"docks_avail":18,"is_penury":0,"is_saturation":0},{"station_id":"129106450","name":"Joseph Dijon - Ornano","lat":48.89374453351521,"lon":2.3476678133010864,"bikes":13,"docks_avail":24,"is_penury":0,"is_saturation":0},{"station_id":"129107656","name":"Félix Ziem - Armand Gauthier","lat":48.88949630486821,"lon":2.333393658804396,"bikes":2,"docks_avail":23,"is_penury":0,"is_saturation":0},{"station_id":"129114993","name":"Belleville - Porte des Lilas","lat":48.87660391892763,"lon":2.404769691129476,"bikes":3,"docks_avail":29,"is_penury":0,"is_saturation":0},{"station_id":"129116697","name":"Tanger - Place du Maroc","lat":48.8862524447104,"lon":2.3689296841621403,"bikes":11,"docks_avail":8,"is_penury":0,"is_saturation":0},{"station_id":"129119449","name":"Ménilmontant - Pelleport","lat":48.870682633845,"lon":2.3989596023316,"bikes":2,"docks_avail":30,"is_penury":0,"is_saturation":0},{"station_id":"129121741","name":"Belleville - Couronnes","lat":48.868831082877,"lon":2.3809862136841,"bikes":7,"docks_avail":43,"is_penury":0,"is_saturation":0},{"station_id":"129125489","name":"Piat - Parc de Belleville","lat":48.87195626635528,"lon":2.384981390278095,"bikes":3,"docks_avail":18,"is_penury":0,"is_saturation":0},{"station_id":"129130397","name":"Pierre Grenier - Pont de Billancourt","lat":48.8258020742942,"lon":2.2487989068031315,"bikes":9,"docks_avail":12,"is_penury":0,"is_saturation":0},{"station_id":"129132870","name":"Nationale - Place Jules Guesde","lat":48.82753962462998,"lon":2.2416052222251897,"bikes":10,"docks_avail":13,"is_penury":0,"is_saturation":0},{"station_id":"129134084","name":"Morice - Général Leclerc","lat":48.90245471981591,"lon":2.3128929734230046,"bikes":15,"docks_avail":10,"is_penury":0,"is_saturation":0},{"station_id":"129135654","name":"Victor Cresson - Telles de la Poterie","lat":48.822698842979,"lon":2.2686498274964,"bikes":29,"docks_avail":2,"is_penury":0,"is_saturation":0},{"station_id":"129136818","name":"Square du Carrefour de l'Insurrection","lat":48.820864559770676,"lon":2.291113436222077,"bikes":14,"docks_avail":9,"is_penury":0,"is_saturation":0},{"station_id":"129142199","name":"Marcel Yol - Jullien","lat":48.82537611802588,"lon":2.287235018058929,"bikes":3,"docks_avail":27,"is_penury":0,"is_saturation":0},{"station_id":"129143598","name":"Pierret - Madrid","lat":48.882976576876565,"lon":2.260125767248034,"bikes":14,"docks_avail":14,"is_penury":0,"is_saturation":0},{"station_id":"129144878","name":"Paris - Emile Zola","lat":48.854898095789295,"lon":2.4186685681343083,"bikes":24,"docks_avail":6,"is_penury":0,"is_saturation":0},{"station_id":"129145892","name":"Paris - Désiré Préaux","lat":48.85742876694898,"lon":2.4323049187660217,"bikes":14,"docks_avail":35,"is_penury":0,"is_saturation":0},{"station_id":"129151834","name":"Stalingrad - Désiré Chevalier","lat":48.85670169739857,"lon":2.445072233676911,"bikes":3,"docks_avail":39,"is_penury":0,"is_saturation":0},{"station_id":"129152818","name":"Place de la Fraternité","lat":48.85716405838368,"lon":2.422847449779511,"bikes":6,"docks_avail":16,"is_penury":0,"is_saturation":0},{"station_id":"129161858","name":"République - Henri Barbusse","lat":48.90661553626751,"lon":2.389432489871979,"bikes":7,"docks_avail":25,"is_penury":0,"is_saturation":0},{"station_id":"129164969","name":"Place Jean-Spire-Lemaître","lat":48.8468428626593,"lon":2.452062070369721,"bikes":39,"docks_avail":11,"is_penury":0,"is_saturation":0},{"station_id":"12943772652","name":"Place Henri Dunant - Gare RER","lat":48.788093281931,"lon":2.2909234046643,"bikes":10,"docks_avail":21,"is_penury":0,"is_saturation":0},{"station_id":"12948189248","name":"Guy Môquet - Jean Moulin","lat":48.940931521020836,"lon":2.363948999931771,"bikes":11,"docks_avail":19,"is_penury":0,"is_saturation":0},{"station_id":"12959947458","name":"Parc des Pierrettes","lat":48.7973062,"lon":2.2909969,"bikes":2,"docks_avail":21,"is_penury":0,"is_saturation":0},{"station_id":"13105968","name":"Le Brix et Mesmin - Jourdan","lat":48.82234096593411,"lon":2.327861653302471,"bikes":11,"docks_avail":10,"is_penury":0,"is_saturation":0},{"station_id":"131094294","name":"Charles Tillon - Cimetière Communal","lat":48.91844023641836,"lon":2.3935630917549138,"bikes":21,"docks_avail":9,"is_penury":0,"is_saturation":0},{"station_id":"1314450240","name":"Gare du Stade","lat":48.9312676,"lon":2.2603778,"bikes":6,"docks_avail":14,"is_penury":0,"is_saturation":0},{"station_id":"131908132","name":"Parc Eli Lotar","lat":48.91844993053703,"lon":2.3727085813879967,"bikes":19,"docks_avail":1,"is_penury":0,"is_saturation":0},{"station_id":"13191324","name":"Assas - Luxembourg","lat":48.843734468779,"lon":2.3334283818759,"bikes":3,"docks_avail":30,"is_penury":0,"is_saturation":0},{"station_id":"13242682","name":"Alexander Fleming - Belvédère","lat":48.88179064200294,"lon":2.4030599377642674,"bikes":8,"docks_avail":23,"is_penury":0,"is_saturation":0},{"station_id":"13248144","name":"Volontaires - Vaugirard","lat":48.84132050184004,"lon":2.30808901725357,"bikes":13,"docks_avail":21,"is_penury":0,"is_saturation":0},{"station_id":"13283986","name":"Keller - La Roquette","lat":48.8555508,"lon":2.3752778,"bikes":23,"docks_avail":11,"is_penury":0,"is_saturation":0},{"station_id":"1333959209","name":"Génie - Mozart","lat":48.794902381218904,"lon":2.3734183609485626,"bikes":3,"docks_avail":16,"is_penury":0,"is_saturation":0},{"station_id":"13341879803","name":"Châteaudun - Place de la Liberté","lat":48.90970830301211,"lon":2.2454486480600626,"bikes":8,"docks_avail":18,"is_penury":0,"is_saturation":0},{"station_id":"13356269","name":"Assas - Rennes","lat":48.8492084999386,"lon":2.32851454623001,"bikes":12,"docks_avail":20,"is_penury":0,"is_saturation":0},{"station_id":"13372702","name":"Saint-Fargeau - Mortier","lat":48.87266656122256,"lon":2.407912909984589,"bikes":3,"docks_avail":28,"is_penury":0,"is_saturation":0},{"station_id":"13373712848","name":"Place de la Paix - Abbé Saint-Pierre","lat":48.86462724459225,"lon":2.2047570338469806,"bikes":5,"docks_avail":19,"is_penury":0,"is_saturation":0},{"station_id":"13373758036","name":"Roland Garros - Jean Bouin","lat":48.809460857173,"lon":2.2853198638301,"bikes":3,"docks_avail":25,"is_penury":0,"is_saturation":0},{"station_id":"13373801574","name":"Gare RER","lat":48.896280181078,"lon":2.4581568985227,"bikes":23,"docks_avail":7,"is_penury":0,"is_saturation":0},{"station_id":"13373848216","name":"Simone Signoret - Paris","lat":48.903600624712865,"lon":2.465406596265139,"bikes":16,"docks_avail":12,"is_penury":0,"is_saturation":0},{"station_id":"13497763","name":"Ouest - Château ","lat":48.83617286014242,"lon":2.319392143923804,"bikes":14,"docks_avail":9,"is_penury":0,"is_saturation":0},{"station_id":"13568870765","name":"Place des Arts - Jean Mermoz","lat":48.880391139734,"lon":2.1832160452221,"bikes":13,"docks_avail":7,"is_penury":0,"is_saturation":0},{"station_id":"135806005","name":"Mairie de Romainville","lat":48.885109,"lon":2.435679,"bikes":4,"docks_avail":13,"is_penury":0,"is_saturation":0},{"station_id":"13718041","name":"Square Simon Bolivar","lat":48.875089888322,"lon":2.3826304078102,"bikes":2,"docks_avail":22,"is_penury":0,"is_saturation":0},{"station_id":"13912564","name":"Bruant - Vincent Auriol","lat":48.834848452929,"lon":2.3668264996271,"bikes":8,"docks_avail":17,"is_penury":0,"is_saturation":0},{"station_id":"1396728955","name":"Bastille - Beaumarchais","lat":48.853833463852,"lon":2.3685702681541,"bikes":17,"docks_avail":6,"is_penury":0,"is_saturation":0},{"station_id":"14623073464","name":"Marcel Monge - Marcel Dassault","lat":48.86096384533371,"lon":2.2246733296048142,"bikes":32,"docks_avail":14,"is_penury":0,"is_saturation":0},{"station_id":"14813797734","name":"Raspail Barbès","lat":48.8529945,"lon":2.4247387,"bikes":7,"docks_avail":21,"is_penury":0,"is_saturation":0},{"station_id":"15066765479","name":"Gare RER - Général de Gaulle","lat":48.933548439566,"lon":2.3064726536317,"bikes":9,"docks_avail":32,"is_penury":0,"is_saturation":0},{"station_id":"15153595","name":"Nationale - Vincent Auriol","lat":48.83252708397293,"lon":2.362354410392119,"bikes":4,"docks_avail":29,"is_penury":0,"is_saturation":0},{"station_id":"15163771","name":"George Sand - Jean de La Fontaine","lat":48.84986918764119,"lon":2.268257387525699,"bikes":10,"docks_avail":19,"is_penury":0,"is_saturation":0},{"station_id":"15187848239","name":"Place Jean Mermoz","lat":48.9220937,"lon":2.2718348,"bikes":4,"docks_avail":26,"is_penury":0,"is_saturation":0},{"station_id":"15189890802","name":"Fontaine du Tertre - Calvaire","lat":48.8702539,"lon":2.2187778,"bikes":3,"docks_avail":21,"is_penury":0,"is_saturation":0},{"station_id":"15212034","name":"Gérando - Rochechouart","lat":48.88294340845,"lon":2.3464846238494,"bikes":9,"docks_avail":12,"is_penury":0,"is_saturation":0},{"station_id":"15290700","name":"Aboukir - Alexandrie","lat":48.86868344444473,"lon":2.3502043269474897,"bikes":14,"docks_avail":7,"is_penury":0,"is_saturation":0},{"station_id":"15291968","name":"Place de Passy","lat":48.85780291711202,"lon":2.277500546942199,"bikes":5,"docks_avail":10,"is_penury":0,"is_saturation":0},{"station_id":"15298647","name":"Temple - Jean-Pierre Timbaud","lat":48.86446597201,"lon":2.3660597205162,"bikes":24,"docks_avail":12,"is_penury":0,"is_saturation":0},{"station_id":"15299574","name":"Charles Delescluze","lat":48.85242200848887,"lon":2.380632497370243,"bikes":43,"docks_avail":6,"is_penury":0,"is_saturation":0},{"station_id":"15308712","name":"Jules Vallès - Charonne","lat":48.854284379935,"lon":2.3847674578428,"bikes":21,"docks_avail":2,"is_penury":0,"is_saturation":0},{"station_id":"15308782","name":"Sommerard - Saint-Jacques","lat":48.850310432924,"lon":2.3450158352986,"bikes":16,"docks_avail":18,"is_penury":0,"is_saturation":0},{"station_id":"15309045","name":"Marché Saint-Quentin","lat":48.877356057652,"lon":2.3545114456374,"bikes":5,"docks_avail":10,"is_penury":0,"is_saturation":0},{"station_id":"15309674","name":"Square Montholon","lat":48.876620377545024,"lon":2.3457641154527664,"bikes":3,"docks_avail":18,"is_penury":0,"is_saturation":0},{"station_id":"15310509","name":"Choron - Martyrs","lat":48.877851443503,"lon":2.3396701365709,"bikes":5,"docks_avail":12,"is_penury":0,"is_saturation":0},{"station_id":"15377776","name":"Paul Valery - Victor Hugo","lat":48.87137406080164,"lon":2.2887128591537476,"bikes":5,"docks_avail":30,"is_penury":0,"is_saturation":0},{"station_id":"15383032","name":"Place du Canada","lat":48.865346269363,"lon":2.3101937879648,"bikes":7,"docks_avail":51,"is_penury":0,"is_saturation":0},{"station_id":"15387809","name":"Mozart - Jasmin","lat":48.85286124871689,"lon":2.268483570651513,"bikes":25,"docks_avail":37,"is_penury":0,"is_saturation":0},{"station_id":"15397468","name":"Maison de Radio - France","lat":48.85132886434057,"lon":2.277785539627075,"bikes":35,"docks_avail":12,"is_penury":0,"is_saturation":0},{"station_id":"15401095","name":"Versailles - Claude Terrasse","lat":48.840219338074,"lon":2.263834191153,"bikes":17,"docks_avail":29,"is_penury":0,"is_saturation":0},{"station_id":"15409531","name":"Méchain - Faubourg Saint-Jacques","lat":48.83586772099485,"lon":2.33798034198275,"bikes":2,"docks_avail":14,"is_penury":0,"is_saturation":0},{"station_id":"15411223","name":"Dareau - Broussais","lat":48.8307758,"lon":2.3361804,"bikes":0,"docks_avail":24,"is_penury":1,"is_saturation":0},{"station_id":"15412563","name":"Square Desnouettes","lat":48.83476837934194,"lon":2.284142297394666,"bikes":21,"docks_avail":1,"is_penury":0,"is_saturation":0},{"station_id":"15433394","name":"Custine - Ramey","lat":48.888735896947,"lon":2.3469526693225,"bikes":13,"docks_avail":28,"is_penury":0,"is_saturation":0},{"station_id":"15461933","name":"Parc Monceau","lat":48.881077914129,"lon":2.3095492646098,"bikes":1,"docks_avail":17,"is_penury":0,"is_saturation":0},{"station_id":"15462236","name":"Galilée - Kléber","lat":48.867411865714,"lon":2.2907813801148,"bikes":1,"docks_avail":31,"is_penury":0,"is_saturation":0},{"station_id":"15462861","name":"Crevaux - Bugeaud","lat":48.87080942867,"lon":2.2811490076919,"bikes":7,"docks_avail":24,"is_penury":0,"is_saturation":0},{"station_id":"15463487","name":"Pergolèse - Marbeau","lat":48.873568706869,"lon":2.2815125225299,"bikes":12,"docks_avail":15,"is_penury":0,"is_saturation":0},{"station_id":"15550433574","name":"Martyrs de Châteaubriant - Jean Grandel","lat":48.951432,"lon":2.211214,"bikes":5,"docks_avail":33,"is_penury":0,"is_saturation":0},{"station_id":"1558958733","name":"Arche - Léonard de Vinci","lat":48.89790972494496,"lon":2.2383723043644914,"bikes":5,"docks_avail":23,"is_penury":0,"is_saturation":0},{"station_id":"1559700274","name":"Square Gilbert Thomain","lat":48.90717373809284,"lon":2.2695400938391685,"bikes":9,"docks_avail":11,"is_penury":0,"is_saturation":0},{"station_id":"15826185972","name":"Faubourg St-Antoine - Place de la Nation","lat":48.8487726,"lon":2.393606,"bikes":5,"docks_avail":11,"is_penury":0,"is_saturation":0},{"station_id":"1599896463","name":"Magenta - Chabrol","lat":48.876495350882,"lon":2.3560990020633,"bikes":18,"docks_avail":6,"is_penury":0,"is_saturation":0},{"station_id":"1599921040","name":"Jessaint - Marx Dormoy","lat":48.88484543106364,"lon":2.358930408954621,"bikes":2,"docks_avail":28,"is_penury":0,"is_saturation":0},{"station_id":"1599931563","name":"République - Auguste Perret","lat":48.78695280952244,"lon":2.3518594354391094,"bikes":21,"docks_avail":9,"is_penury":0,"is_saturation":0},{"station_id":"16043228469","name":"Perrault - Place du Louvre","lat":48.860273568996,"lon":2.3412468419093,"bikes":11,"docks_avail":17,"is_penury":0,"is_saturation":0},{"station_id":"16043242148","name":"Charles de Gaulle - Rue de l'Alma","lat":48.896620592993,"lon":2.252313240191,"bikes":9,"docks_avail":19,"is_penury":0,"is_saturation":0},{"station_id":"16043282800","name":"Port - Maurice Chevalier","lat":48.832474421632,"lon":2.490257616467,"bikes":19,"docks_avail":11,"is_penury":0,"is_saturation":0},{"station_id":"16043316164","name":"Résistance - Romain Rolland","lat":48.950873482371,"lon":2.2310190077797,"bikes":20,"docks_avail":8,"is_penury":0,"is_saturation":0},{"station_id":"16134083337","name":"Maréchal Leclerc de Hauteclocque - Marché Buzenval","lat":48.858446,"lon":2.192077,"bikes":0,"docks_avail":30,"is_penury":1,"is_saturation":0},{"station_id":"16134135570","name":"Stalingrad - Général de Gaulle","lat":48.823450589614,"lon":2.4965062363218,"bikes":22,"docks_avail":4,"is_penury":0,"is_saturation":0},{"station_id":"16206691682","name":"Général Leclerc - République","lat":48.915885074177,"lon":2.2682306702811,"bikes":11,"docks_avail":19,"is_penury":0,"is_saturation":0},{"station_id":"16206842336","name":"Moscou - Edouard Vaillant","lat":48.90755810177,"lon":2.4689837335263,"bikes":9,"docks_avail":21,"is_penury":0,"is_saturation":0},{"station_id":"16210188070","name":"Convention - Campus de Bobigny","lat":48.914920058264,"lon":2.4172238067445,"bikes":24,"docks_avail":8,"is_penury":0,"is_saturation":0},{"station_id":"16379269732","name":"Président Roosevelt - Rouget de Lisle","lat":48.83047518749,"lon":2.2616135525345,"bikes":6,"docks_avail":34,"is_penury":0,"is_saturation":0},{"station_id":"16529895896","name":"Gare - Aristide Briand","lat":48.821410564722,"lon":2.2555950104387,"bikes":28,"docks_avail":1,"is_penury":0,"is_saturation":0},{"station_id":"16529911795","name":"Porte de Versailles","lat":48.832324016657,"lon":2.2875617349045,"bikes":24,"docks_avail":4,"is_penury":0,"is_saturation":0},{"station_id":"16560752067","name":"Bracion - Périphérique","lat":48.826103771275,"lon":2.3004549373748,"bikes":5,"docks_avail":25,"is_penury":0,"is_saturation":0},{"station_id":"16659953198","name":"Verger - Colonel Guichard","lat":48.816376985087,"lon":2.2670380088932,"bikes":2,"docks_avail":27,"is_penury":0,"is_saturation":0},{"station_id":"16659964929","name":"Arsène Houssaye - Friedland","lat":48.874510616163,"lon":2.2994716674148,"bikes":2,"docks_avail":27,"is_penury":0,"is_saturation":0},{"station_id":"16816575934","name":"Henri Barbusse - Marcel Cachin","lat":48.93742089281,"lon":2.3720374971659,"bikes":12,"docks_avail":25,"is_penury":0,"is_saturation":0},{"station_id":"16898865154","name":"Stéphanie Bouvard - Gambetta","lat":48.814548138856,"lon":2.4024386957288,"bikes":30,"docks_avail":0,"is_penury":0,"is_saturation":1},{"station_id":"16899499876","name":"Jardin Modèle - Pierre Boudou","lat":48.914866710946,"lon":2.3057010525935,"bikes":5,"docks_avail":13,"is_penury":0,"is_saturation":0},{"station_id":"16899518505","name":"Mariotte - Batignolles","lat":48.884571659595,"lon":2.321469503475,"bikes":11,"docks_avail":9,"is_penury":0,"is_saturation":0},{"station_id":"16930981813","name":"Gabriel Péri - Place de la Libération","lat":48.819828421929,"lon":2.3117361743705,"bikes":4,"docks_avail":14,"is_penury":0,"is_saturation":0},{"station_id":"16931052467","name":"Jean Jaurès - Place de la Libération","lat":48.90617751921,"lon":2.4391458057475,"bikes":15,"docks_avail":14,"is_penury":0,"is_saturation":0},{"station_id":"16965900639","name":"Payenne - Square George Caïn","lat":48.8578329,"lon":2.3622643,"bikes":7,"docks_avail":17,"is_penury":0,"is_saturation":0},{"station_id":"17018170219","name":"Pavé des Gardes - Charles Vaillant","lat":48.81168551728,"lon":2.2111820107205,"bikes":12,"docks_avail":8,"is_penury":0,"is_saturation":0},{"station_id":"17047102542","name":"Ménil - Argenteuil","lat":48.925901818305,"lon":2.2741496502338,"bikes":13,"docks_avail":7,"is_penury":0,"is_saturation":0},{"station_id":"17174675707","name":"Saint Pères - Saint Germain","lat":48.853729675265,"lon":2.3300181032703,"bikes":9,"docks_avail":13,"is_penury":0,"is_saturation":0},{"station_id":"17174681330","name":"Quai du docteur Dervaux","lat":48.910482,"lon":2.297998,"bikes":13,"docks_avail":13,"is_penury":0,"is_saturation":0},{"station_id":"17225721242","name":"Verdun - Henri Barbusse","lat":48.802056061754,"lon":2.3159965061736,"bikes":3,"docks_avail":21,"is_penury":0,"is_saturation":0},{"station_id":"17225742003","name":"Louis Armand - Bernard Palissy","lat":48.916974,"lon":2.313384,"bikes":19,"docks_avail":2,"is_penury":0,"is_saturation":0},{"station_id":"17261310217","name":"Saint-Germain - Verdun","lat":48.882877330093,"lon":2.4331868384644,"bikes":9,"docks_avail":21,"is_penury":0,"is_saturation":0},{"station_id":"17278902806","name":"Rouget de L'isle - Watteau","lat":48.778192750803,"lon":2.3963020229163,"bikes":12,"docks_avail":8,"is_penury":0,"is_saturation":0},{"station_id":"17364417797","name":"Decrès - Alésia","lat":48.832200060759,"lon":2.3139070151575,"bikes":11,"docks_avail":19,"is_penury":0,"is_saturation":0},{"station_id":"17364714962","name":"Marseillaise - Grenade","lat":48.889371092747,"lon":2.3979396821544,"bikes":11,"docks_avail":34,"is_penury":0,"is_saturation":0},{"station_id":"17450286381","name":"Stalingrad - Barbara","lat":48.809223658808,"lon":2.3175904558822,"bikes":2,"docks_avail":18,"is_penury":0,"is_saturation":0},{"station_id":"17451132826","name":"Epi d'Or - Chevilly","lat":48.781109786782,"lon":2.3549050362061,"bikes":4,"docks_avail":16,"is_penury":0,"is_saturation":0},{"station_id":"17451195211","name":"Jean Bouin - Gouverneur Général Eboué","lat":48.824792734266,"lon":2.2651904328524,"bikes":28,"docks_avail":3,"is_penury":0,"is_saturation":0},{"station_id":"17486274358","name":"Jean Rostand - Paul Vaillant Couturier","lat":48.908168131015,"lon":2.4530601033354,"bikes":13,"docks_avail":27,"is_penury":0,"is_saturation":0},{"station_id":"17486828694","name":"Charlot - Stade Gabriel Voisin","lat":48.827228120536,"lon":2.268122527474,"bikes":8,"docks_avail":23,"is_penury":0,"is_saturation":0},{"station_id":"17486876370","name":"Moulin de Pierre - Abbé Grégoire","lat":48.822036188382,"lon":2.2754641655975,"bikes":16,"docks_avail":4,"is_penury":0,"is_saturation":0},{"station_id":"17526921983","name":"Mairie de Sceaux","lat":48.778916905132,"lon":2.2887361764861,"bikes":3,"docks_avail":30,"is_penury":0,"is_saturation":0},{"station_id":"17527065847","name":"Chateau","lat":48.774661399959,"lon":2.3135878035462,"bikes":11,"docks_avail":11,"is_penury":0,"is_saturation":0},{"station_id":"17527110170","name":"Stade Gaston Bouillant","lat":48.939958667023,"lon":2.3279571813836,"bikes":23,"docks_avail":7,"is_penury":0,"is_saturation":0},{"station_id":"17581042048","name":"Place de la Porte de Champeret","lat":48.886062068226,"lon":2.2917001576821,"bikes":18,"docks_avail":10,"is_penury":0,"is_saturation":0},{"station_id":"17638171254","name":"Charles de Gaulle - Louis Philippe","lat":48.881742142181,"lon":2.2710045335353,"bikes":14,"docks_avail":14,"is_penury":0,"is_saturation":0},{"station_id":"1765749389","name":"Karl Marx","lat":48.784527937293184,"lon":2.3646667979455587,"bikes":4,"docks_avail":12,"is_penury":0,"is_saturation":0},{"station_id":"17721073284","name":"Mairie","lat":48.87914304162,"lon":2.4163350908311,"bikes":3,"docks_avail":17,"is_penury":0,"is_saturation":0},{"station_id":"17729456391","name":"Londres - Europe","lat":48.878618556803,"lon":2.3248164693922,"bikes":5,"docks_avail":22,"is_penury":0,"is_saturation":0},{"station_id":"17869323774","name":"Chastenet de Géry - Marcel Paul","lat":48.800123,"lon":2.3567359,"bikes":2,"docks_avail":23,"is_penury":0,"is_saturation":0},{"station_id":"17992442278","name":"Place du 8 Mai 1945","lat":48.871552174017,"lon":2.2025031970585,"bikes":2,"docks_avail":16,"is_penury":0,"is_saturation":0},{"station_id":"18012983979","name":"Gallieni - Lycée Charles Petitet","lat":48.927640283627,"lon":2.3308986340524,"bikes":9,"docks_avail":36,"is_penury":0,"is_saturation":0},{"station_id":"18013073681","name":"Gare de Sèvres - Ville d'Avray","lat":48.826262366227,"lon":2.2001516849313,"bikes":0,"docks_avail":22,"is_penury":1,"is_saturation":0},{"station_id":"18013112116","name":"Porte Dauphine","lat":48.871139344351,"lon":2.2749781616017,"bikes":2,"docks_avail":63,"is_penury":0,"is_saturation":0},{"station_id":"18013122841","name":"Port - Confluence","lat":48.936093926526,"lon":2.3436167797955,"bikes":9,"docks_avail":17,"is_penury":0,"is_saturation":0},{"station_id":"18013132487","name":"Charenton - Wattignies","lat":48.836919119234,"lon":2.3916775206425,"bikes":38,"docks_avail":2,"is_penury":0,"is_saturation":0},{"station_id":"18013135935","name":"Nicolaï - Charenton","lat":48.835478791995,"lon":2.392894725661,"bikes":32,"docks_avail":12,"is_penury":0,"is_saturation":0},{"station_id":"18023659071","name":"Place Farhat Hached","lat":48.825487045602,"lon":2.3816306985827,"bikes":11,"docks_avail":17,"is_penury":0,"is_saturation":0},{"station_id":"1805255023","name":"Sèvres - Général Leclerc","lat":48.830121559055,"lon":2.2314262390137,"bikes":21,"docks_avail":9,"is_penury":0,"is_saturation":0},{"station_id":"1805401614","name":"Sèvres-Gallieni","lat":48.837809408957,"lon":2.2281519323587,"bikes":19,"docks_avail":8,"is_penury":0,"is_saturation":0},{"station_id":"18099679477","name":"Saint-Jacques - Soufflot","lat":48.846280383395,"lon":2.3430785379567,"bikes":2,"docks_avail":14,"is_penury":0,"is_saturation":0},{"station_id":"1810975577","name":"Guy Môquet - Parvis Georges Marchais","lat":48.79518840095975,"lon":2.35943466424942,"bikes":3,"docks_avail":27,"is_penury":0,"is_saturation":0},{"station_id":"18175885970","name":"Porte Maillot - Perreire","lat":48.878021154637,"lon":2.2842371277102,"bikes":4,"docks_avail":47,"is_penury":0,"is_saturation":0},{"station_id":"18206879942","name":"Rampal - Belleville","lat":48.873114661405,"lon":2.3798409114805,"bikes":3,"docks_avail":17,"is_penury":0,"is_saturation":0},{"station_id":"18523627466","name":"Suzanne Masson","lat":48.923306888013,"lon":2.3847292397611,"bikes":34,"docks_avail":3,"is_penury":0,"is_saturation":0},{"station_id":"18523643190","name":"Gabriel Péri - Jules Ferry","lat":48.926182814311,"lon":2.3912295762525,"bikes":20,"docks_avail":5,"is_penury":0,"is_saturation":0},{"station_id":"18656691283","name":"Yves Farges - Route d'Enghien","lat":48.95756799268,"lon":2.2834496977978,"bikes":4,"docks_avail":31,"is_penury":0,"is_saturation":0},{"station_id":"18660653445","name":"Général Delambre - Prebuard","lat":48.93870344444,"lon":2.2234171606307,"bikes":17,"docks_avail":12,"is_penury":0,"is_saturation":0},{"station_id":"18749423187","name":"Jean Jaurès - Gare de Clamart","lat":48.81321981219,"lon":2.2716768079163,"bikes":5,"docks_avail":15,"is_penury":0,"is_saturation":0},{"station_id":"18795043822","name":"Pailleron - Bouret","lat":48.880516995482,"lon":2.3763902374411,"bikes":2,"docks_avail":25,"is_penury":0,"is_saturation":0},{"station_id":"18795078746","name":"Charcot - Benfleet","lat":48.878370277021,"lon":2.440523876268,"bikes":6,"docks_avail":22,"is_penury":0,"is_saturation":0},{"station_id":"18815024485","name":"Charles de Gaulle - Les Sablons","lat":48.880987514929,"lon":2.2715748726513,"bikes":6,"docks_avail":29,"is_penury":0,"is_saturation":0},{"station_id":"18880379814","name":"Leroy des Barres - Médiathèque","lat":48.928253687082,"lon":2.3681719727966,"bikes":19,"docks_avail":7,"is_penury":0,"is_saturation":0},{"station_id":"18890164656","name":"Square de Choisy - Eastman","lat":48.828543456283,"lon":2.3583075090494,"bikes":12,"docks_avail":12,"is_penury":0,"is_saturation":0},{"station_id":"18908512040","name":"Place De Fontenoy - Saxe","lat":48.850270554523,"lon":2.3069813815839,"bikes":6,"docks_avail":12,"is_penury":0,"is_saturation":0},{"station_id":"19006016846","name":"Simon Bolivar - Henri Turot","lat":48.877475489801,"lon":2.3739709492211,"bikes":10,"docks_avail":13,"is_penury":0,"is_saturation":0},{"station_id":"19016646124","name":"Vaugirard - Verrerie","lat":48.820881336842,"lon":2.2367222622987,"bikes":12,"docks_avail":14,"is_penury":0,"is_saturation":0},{"station_id":"19016711237","name":"Place de la Gare","lat":48.838513582184,"lon":2.1866139007512,"bikes":3,"docks_avail":17,"is_penury":0,"is_saturation":0},{"station_id":"19016722230","name":"Raymond Poincaré - Allée de la Marche","lat":48.838634069623,"lon":2.1724102640451,"bikes":4,"docks_avail":19,"is_penury":0,"is_saturation":0},{"station_id":"19091372977","name":"Mauroy - Cheminots","lat":48.897715198403,"lon":2.357895075822,"bikes":9,"docks_avail":23,"is_penury":0,"is_saturation":0},{"station_id":"19130022694","name":"Iles de Loisirs de Créteil","lat":48.780258200618,"lon":2.4455094301232,"bikes":9,"docks_avail":15,"is_penury":0,"is_saturation":0},{"station_id":"19130603957","name":"Créteil Village","lat":48.79122395576,"lon":2.4642198533952,"bikes":8,"docks_avail":17,"is_penury":0,"is_saturation":0},{"station_id":"19161093714","name":"Evariste Galois","lat":48.873341356228,"lon":2.4133544409574,"bikes":5,"docks_avail":16,"is_penury":0,"is_saturation":0},{"station_id":"19179850066","name":"Centre Hospitalier Intercommunal de Créteil","lat":48.797078298909,"lon":2.463801423807,"bikes":1,"docks_avail":16,"is_penury":0,"is_saturation":0},{"station_id":"19179944124","name":"Hôpital Mondor","lat":48.798922410229,"lon":2.4537451531298,"bikes":11,"docks_avail":17,"is_penury":0,"is_saturation":0},{"station_id":"19183755581","name":"Choisy - Pointe d'Ivry","lat":48.822154170359,"lon":2.3633708034878,"bikes":16,"docks_avail":8,"is_penury":0,"is_saturation":0},{"station_id":"19183833298","name":"Albert Kahn - Duhesme","lat":48.895623001056,"lon":2.345815078896,"bikes":7,"docks_avail":31,"is_penury":0,"is_saturation":0},{"station_id":"19183922057","name":"Tolbiac - Boussingault","lat":48.826177754027,"lon":2.3420378552202,"bikes":10,"docks_avail":31,"is_penury":0,"is_saturation":0},{"station_id":"19184128113","name":"Préfecture de Créteil","lat":48.783680285918,"lon":2.4544713672215,"bikes":17,"docks_avail":10,"is_penury":0,"is_saturation":0},{"station_id":"19184196181","name":"Créteil Pointe du Lac","lat":48.769807356177,"lon":2.4623027310281,"bikes":5,"docks_avail":23,"is_penury":0,"is_saturation":0},{"station_id":"19186120360","name":"Haut du Mont-Mesly","lat":48.780191921646,"lon":2.4685737495183,"bikes":9,"docks_avail":12,"is_penury":0,"is_saturation":0},{"station_id":"19186208004","name":"Stade de la Habette","lat":48.774397033806,"lon":2.4668785263921,"bikes":1,"docks_avail":15,"is_penury":0,"is_saturation":0},{"station_id":"19186237098","name":"Hôtel de Ville de Créteil","lat":48.77699496201,"lon":2.4552552404284,"bikes":22,"docks_avail":14,"is_penury":0,"is_saturation":0},{"station_id":"19309244936","name":"Créteil Pompadour","lat":48.773011623355,"lon":2.435166164893,"bikes":10,"docks_avail":34,"is_penury":0,"is_saturation":0},{"station_id":"19331872653","name":"Bleuets - Bordières","lat":48.802117531472,"lon":2.4543687905029,"bikes":9,"docks_avail":10,"is_penury":0,"is_saturation":0},{"station_id":"19331917084","name":"Lycée Saint Exupéry - Juliette Savar","lat":48.783021513972,"lon":2.4637357216879,"bikes":2,"docks_avail":28,"is_penury":0,"is_saturation":0},{"station_id":"19331959862","name":"Bas du Mont-Mesly","lat":48.779035118572,"lon":2.4609763908985,"bikes":21,"docks_avail":6,"is_penury":0,"is_saturation":0},{"station_id":"19331981332","name":"Sarrazins - Saussure","lat":48.769626617432,"lon":2.4717841148376,"bikes":17,"docks_avail":5,"is_penury":0,"is_saturation":0},{"station_id":"19335882998","name":"Michelet - Dr Bauer","lat":48.906125424194,"lon":2.3440374449846,"bikes":15,"docks_avail":17,"is_penury":0,"is_saturation":0},{"station_id":"19495443023","name":"Paul Bodin - Clichy","lat":48.892594758409,"lon":2.3171403311203,"bikes":11,"docks_avail":22,"is_penury":0,"is_saturation":0},{"station_id":"19495456684","name":"Commandant Schloesing - Pétrarque","lat":48.861773096259,"lon":2.2838841134601,"bikes":0,"docks_avail":30,"is_penury":1,"is_saturation":0},{"station_id":"19495480499","name":"Prague - Théophile Roussel","lat":48.850330563516,"lon":2.3758223011125,"bikes":28,"docks_avail":6,"is_penury":0,"is_saturation":0},{"station_id":"1968156458","name":"Ecole Vétérinaire","lat":48.81488859822486,"lon":2.4224362157778994,"bikes":19,"docks_avail":17,"is_penury":0,"is_saturation":0},{"station_id":"19697757271","name":"Conservatoire Marcel Dadi","lat":48.790090379157,"lon":2.4535970427243,"bikes":3,"docks_avail":23,"is_penury":0,"is_saturation":0},{"station_id":"19697809404","name":"Matignon - Faubourg Saint-Honoré","lat":48.871499100264,"lon":2.3138961727427,"bikes":4,"docks_avail":31,"is_penury":0,"is_saturation":0},{"station_id":"19697937136","name":"Charles de Gaulle","lat":48.885368380902,"lon":2.2595618686871,"bikes":0,"docks_avail":18,"is_penury":1,"is_saturation":0},{"station_id":"1981490798","name":"Belfort - Victor Hugo","lat":48.9018492,"lon":2.3172724,"bikes":19,"docks_avail":5,"is_penury":0,"is_saturation":0},{"station_id":"19858721250","name":"Université Paris Est Créteil","lat":48.787714467944,"lon":2.4461909509055,"bikes":10,"docks_avail":33,"is_penury":0,"is_saturation":0},{"station_id":"19867354582","name":"Verdun - Carnot","lat":48.883814948134,"lon":2.4402657783125,"bikes":0,"docks_avail":29,"is_penury":1,"is_saturation":0},{"station_id":"19867919889","name":"De Gaulle - Moulin","lat":48.885816808239,"lon":2.229607694148,"bikes":3,"docks_avail":20,"is_penury":0,"is_saturation":0},{"station_id":"1988517250","name":"Stalingrad - Henri Luisette","lat":48.78363092456589,"lon":2.366935946761926,"bikes":4,"docks_avail":22,"is_penury":0,"is_saturation":0},{"station_id":"19902592897","name":"Les Planètes","lat":48.80929410761,"lon":2.4596271973784,"bikes":19,"docks_avail":2,"is_penury":0,"is_saturation":0},{"station_id":"19941915381","name":"Gare RER - Canadiens","lat":48.819659244971,"lon":2.4644082766769,"bikes":24,"docks_avail":16,"is_penury":0,"is_saturation":0},{"station_id":"19989456853","name":"Sydney Bechet - Jacques Gautier","lat":48.844373437692,"lon":2.1882475733068,"bikes":10,"docks_avail":10,"is_penury":0,"is_saturation":0},{"station_id":"2002864789","name":"Strasbourg - Saint-Denis","lat":48.869601642433,"lon":2.3542908579111,"bikes":9,"docks_avail":7,"is_penury":0,"is_saturation":0},{"station_id":"20033972555","name":"ZAC des Louvresses","lat":48.943681749651,"lon":2.3057864216906,"bikes":14,"docks_avail":18,"is_penury":0,"is_saturation":0},{"station_id":"20084863816","name":"Arbalète - Claude Bernard","lat":48.840008992,"lon":2.347522975107,"bikes":4,"docks_avail":30,"is_penury":0,"is_saturation":0},{"station_id":"201923447","name":"Murat - Porte de Saint-Cloud","lat":48.83750862621299,"lon":2.2577651962637906,"bikes":4,"docks_avail":34,"is_penury":0,"is_saturation":0},{"station_id":"20235746379","name":"Square Bela Bartok","lat":48.850984480382,"lon":2.2844360220351,"bikes":16,"docks_avail":8,"is_penury":0,"is_saturation":0},{"station_id":"20364431108","name":"Place des Marseillais","lat":48.826605522232,"lon":2.4059119927899,"bikes":21,"docks_avail":14,"is_penury":0,"is_saturation":0},{"station_id":"20430917761","name":"Place des Fêtes - Solitaires","lat":48.876644633122,"lon":2.3920327806309,"bikes":0,"docks_avail":29,"is_penury":1,"is_saturation":0},{"station_id":"20431005501","name":"Quai des Célestins - Henri IV","lat":48.851290697625,"lon":2.3624387532495,"bikes":4,"docks_avail":8,"is_penury":0,"is_saturation":0},{"station_id":"20431248994","name":"Charles Robin - Grange aux Belles","lat":48.877376705016,"lon":2.3698456519833,"bikes":0,"docks_avail":23,"is_penury":1,"is_saturation":0},{"station_id":"20431381973","name":"Henri Barbusse","lat":48.932092978246,"lon":2.3982878482409,"bikes":23,"docks_avail":7,"is_penury":0,"is_saturation":0},{"station_id":"20432939844","name":"Labouret - Saint-Denis","lat":48.924066621513,"lon":2.2539156570765,"bikes":12,"docks_avail":12,"is_penury":0,"is_saturation":0},{"station_id":"20454506987","name":"Pavé Grignon - Bretagne","lat":48.757926073227,"lon":2.4036482119581,"bikes":0,"docks_avail":1,"is_penury":1,"is_saturation":0},{"station_id":"20458224375","name":"Vivienne - Petits Champs","lat":48.867331390877,"lon":2.3391437530518,"bikes":0,"docks_avail":30,"is_penury":1,"is_saturation":0},{"station_id":"20458486160","name":"Sérurier - Alphonse Aulard","lat":48.880528901839,"lon":2.398028970957,"bikes":0,"docks_avail":1,"is_penury":1,"is_saturation":0},{"station_id":"20490738387","name":"Constant Coquelin - Invalides","lat":48.848283157236,"lon":2.315749520203,"bikes":2,"docks_avail":29,"is_penury":0,"is_saturation":0},{"station_id":"20497547989","name":"Place du Général Leclerc","lat":48.76529107158,"lon":2.3926565092808,"bikes":0,"docks_avail":1,"is_penury":1,"is_saturation":0},{"station_id":"205047993","name":"Edgar Quinet - Raspail","lat":48.83940266673835,"lon":2.32971478253603,"bikes":3,"docks_avail":43,"is_penury":0,"is_saturation":0},{"station_id":"20512737633","name":"Lieutenant Colonel Prudhon - Repos","lat":48.946800700149,"lon":2.2380727982588,"bikes":0,"docks_avail":1,"is_penury":1,"is_saturation":0},{"station_id":"20523046082","name":"Porte de la Chapelle - Boulevard Ney","lat":48.900097357789,"lon":2.3586005020149,"bikes":16,"docks_avail":36,"is_penury":0,"is_saturation":0},{"station_id":"20531346153","name":"René Boulanger - Lancry","lat":48.868769331741,"lon":2.3598745346052,"bikes":13,"docks_avail":20,"is_penury":0,"is_saturation":0},{"station_id":"205938683","name":"Delphine Seyrig - Général Leclerc","lat":48.893923963057865,"lon":2.39790290594101,"bikes":26,"docks_avail":27,"is_penury":0,"is_saturation":0},{"station_id":"205955605","name":"Bienfaisance - Place de Narvik","lat":48.87660163459077,"lon":2.3129771277308464,"bikes":7,"docks_avail":29,"is_penury":0,"is_saturation":0},{"station_id":"20635651817","name":"Réaumur - Montmartre","lat":48.86791186523,"lon":2.3448715883461,"bikes":0,"docks_avail":1,"is_penury":1,"is_saturation":0},{"station_id":"20636368032","name":"Victor Cousin - Cujas","lat":48.847909849567,"lon":2.3424898070094,"bikes":0,"docks_avail":0,"is_penury":1,"is_saturation":1},{"station_id":"20636444589","name":"Rocher - Laborde","lat":48.876046619457,"lon":2.3228198128915,"bikes":0,"docks_avail":0,"is_penury":1,"is_saturation":1},{"station_id":"20636558756","name":"Dunkerque - Maubeuge","lat":48.880432768947,"lon":2.3528900992907,"bikes":0,"docks_avail":1,"is_penury":1,"is_saturation":0},{"station_id":"20636596293","name":"Buisson Saint-Louis - Saint-Maur","lat":48.872274029222,"lon":2.3733284860819,"bikes":0,"docks_avail":1,"is_penury":1,"is_saturation":0},{"station_id":"20636823021","name":"Tourlaque - Damrémont","lat":48.887912943261,"lon":2.3328311485014,"bikes":0,"docks_avail":0,"is_penury":1,"is_saturation":1},{"station_id":"20636986665","name":"Cloys - Ordener","lat":48.89353865165,"lon":2.3364427977844,"bikes":0,"docks_avail":0,"is_penury":1,"is_saturation":1},{"station_id":"20637036701","name":"Jean Jaurès - Bouret","lat":48.883144703938,"lon":2.3712364995651,"bikes":6,"docks_avail":26,"is_penury":0,"is_saturation":0},{"station_id":"20637420127","name":"Monte Cristo - Bagnolet","lat":48.85656581187,"lon":2.3972699046135,"bikes":0,"docks_avail":0,"is_penury":1,"is_saturation":1},{"station_id":"20637435296","name":"Haxo - Darcy","lat":48.870493041975,"lon":2.404957212224,"bikes":0,"docks_avail":0,"is_penury":1,"is_saturation":1},{"station_id":"20682017769","name":"Pierre-Simon Girard  - Paris","lat":48.901342171637,"lon":2.4560186601176,"bikes":0,"docks_avail":1,"is_penury":1,"is_saturation":0},{"station_id":"20689987843","name":"Vincennes - François Debergue","lat":48.857497590947,"lon":2.4375258284792,"bikes":0,"docks_avail":1,"is_penury":1,"is_saturation":0},{"station_id":"20699530917","name":"Suresnes - Place du Souvenir Français","lat":48.847007898514,"lon":2.1941100043056,"bikes":0,"docks_avail":0,"is_penury":1,"is_saturation":1},{"station_id":"20699589412","name":"Suisses - Colonel de Rochebrune","lat":48.85440659426,"lon":2.1975097137701,"bikes":0,"docks_avail":1,"is_penury":1,"is_saturation":0},{"station_id":"20702544649","name":"Avenue de la Paix - Chaillon","lat":48.935291060802,"lon":2.3260894310459,"bikes":0,"docks_avail":0,"is_penury":1,"is_saturation":1},{"station_id":"20702583198","name":"Hôtel de Ville - Adrienne Bolland","lat":48.905280057722,"lon":2.4455443018674,"bikes":0,"docks_avail":0,"is_penury":1,"is_saturation":1},{"station_id":"20702781391","name":"Louis Dain - Rosiers","lat":48.904676215771,"lon":2.3379541963343,"bikes":0,"docks_avail":0,"is_penury":1,"is_saturation":1},{"station_id":"20702946965","name":"Quai de Seine - Pont de l'île-Saint-Denis","lat":48.935421446598,"lon":2.3408389473018,"bikes":0,"docks_avail":1,"is_penury":1,"is_saturation":0},{"station_id":"207633746","name":"Grande Armée - Brunel","lat":48.876116,"lon":2.288124,"bikes":25,"docks_avail":37,"is_penury":0,"is_saturation":0},{"station_id":"208603342","name":"Coquillière - Louvre","lat":48.863795909662,"lon":2.3425736278296,"bikes":1,"docks_avail":20,"is_penury":0,"is_saturation":0},{"station_id":"208795867","name":"Ambroise Rendu - Porte Brunet","lat":48.883667,"lon":2.395733,"bikes":1,"docks_avail":16,"is_penury":0,"is_saturation":0},{"station_id":"209057581","name":"Gabriel Péri - Francisco Ferrer","lat":48.88633710236977,"lon":2.407338917255402,"bikes":8,"docks_avail":10,"is_penury":0,"is_saturation":0},{"station_id":"209063434","name":"André Karman - République","lat":48.91039875761846,"lon":2.3851355910301213,"bikes":6,"docks_avail":25,"is_penury":0,"is_saturation":0},{"station_id":"210090269","name":"Jean Macé - Faidherbe","lat":48.85337548426,"lon":2.3828620836139,"bikes":78,"docks_avail":0,"is_penury":0,"is_saturation":1},{"station_id":"210328645","name":"Place André Malraux","lat":48.863925158727,"lon":2.3356226831675,"bikes":17,"docks_avail":20,"is_penury":0,"is_saturation":0},{"station_id":"210386007","name":"Alger - Rivoli","lat":48.864773553495,"lon":2.3294493936128,"bikes":2,"docks_avail":19,"is_penury":0,"is_saturation":0},{"station_id":"210387163","name":"Saint-Denis - Réaumur","lat":48.8661116315789,"lon":2.3507790675507594,"bikes":13,"docks_avail":19,"is_penury":0,"is_saturation":0},{"station_id":"210389577","name":"Daunou - Louis le Grand","lat":48.869113,"lon":2.332515,"bikes":9,"docks_avail":23,"is_penury":0,"is_saturation":0},{"station_id":"210394523","name":"Porte Saint-Martin","lat":48.86860172112996,"lon":2.35570102930069,"bikes":15,"docks_avail":19,"is_penury":0,"is_saturation":0},{"station_id":"210395439","name":"Centre Georges Pompidou","lat":48.861419,"lon":2.352581,"bikes":15,"docks_avail":11,"is_penury":0,"is_saturation":0},{"station_id":"210396518","name":"Estrapade - Ulm","lat":48.84512772828,"lon":2.3454568170362,"bikes":5,"docks_avail":11,"is_penury":0,"is_saturation":0},{"station_id":"210397939","name":"Thouin - Cardinal Lemoine","lat":48.845047166615,"lon":2.3494647851273,"bikes":1,"docks_avail":16,"is_penury":0,"is_saturation":0},{"station_id":"210399835","name":"Panthéon - Valette","lat":48.847020571652,"lon":2.3464982619671,"bikes":2,"docks_avail":49,"is_penury":0,"is_saturation":0},{"station_id":"210403080","name":"Lacépède - Monge","lat":48.84389286531899,"lon":2.3519663885235786,"bikes":6,"docks_avail":17,"is_penury":0,"is_saturation":0},{"station_id":"210405211","name":"Beaux-Arts - Bonaparte","lat":48.856451985396,"lon":2.3348518833518,"bikes":3,"docks_avail":17,"is_penury":0,"is_saturation":0},{"station_id":"210408693","name":"Vaugirard - Monsieur le Prince","lat":48.848951441614,"lon":2.3411329463124,"bikes":1,"docks_avail":25,"is_penury":0,"is_saturation":0},{"station_id":"210561800","name":"Saint-Romain - Cherche-Midi","lat":48.84708159081946,"lon":2.321374788880348,"bikes":8,"docks_avail":9,"is_penury":0,"is_saturation":0},{"station_id":"210565680","name":"Vaneau - Sèvres","lat":48.848563233059,"lon":2.3204218259346,"bikes":17,"docks_avail":18,"is_penury":0,"is_saturation":0},{"station_id":"210566542","name":"Square Boucicaut","lat":48.851296433665276,"lon":2.325061820447445,"bikes":23,"docks_avail":37,"is_penury":0,"is_saturation":0},{"station_id":"210567545","name":"Raspail - Varenne","lat":48.853147816545,"lon":2.3263905197382,"bikes":2,"docks_avail":16,"is_penury":0,"is_saturation":0},{"station_id":"210568512","name":"Assemblée Nationale","lat":48.861411014652,"lon":2.3201214185208,"bikes":6,"docks_avail":70,"is_penury":0,"is_saturation":0},{"station_id":"210573120","name":"Hoche - Tilsitt","lat":48.874836457837,"lon":2.2971323132515,"bikes":6,"docks_avail":27,"is_penury":0,"is_saturation":0},{"station_id":"210574471","name":"Abbeville - Faubourg Poissonnière","lat":48.879223,"lon":2.349147,"bikes":5,"docks_avail":9,"is_penury":0,"is_saturation":0},{"station_id":"210580039","name":"Tour d'Auvergne - Rodier","lat":48.879161,"lon":2.343698,"bikes":5,"docks_avail":12,"is_penury":0,"is_saturation":0},{"station_id":"210581084","name":"Gare Saint-Lazare - Place de Budapest","lat":48.877753,"lon":2.327339,"bikes":9,"docks_avail":35,"is_penury":0,"is_saturation":0},{"station_id":"210582231","name":"Londres - Place d'Estienne d'Orves","lat":48.876693805756986,"lon":2.3305362090468407,"bikes":1,"docks_avail":24,"is_penury":0,"is_saturation":0},{"station_id":"210582921","name":"Boudreau - Auber","lat":48.87219,"lon":2.329423,"bikes":2,"docks_avail":26,"is_penury":0,"is_saturation":0},{"station_id":"210583589","name":"Place Jacques Bonsergent","lat":48.870948218595,"lon":2.3612049221992,"bikes":20,"docks_avail":13,"is_penury":0,"is_saturation":0},{"station_id":"210584503","name":"Gare de l'Est - Fidélité","lat":48.874575,"lon":2.356796,"bikes":8,"docks_avail":7,"is_penury":0,"is_saturation":0},{"station_id":"210585225","name":"Dunkerque - Alsace","lat":48.879355,"lon":2.358379,"bikes":6,"docks_avail":14,"is_penury":0,"is_saturation":0},{"station_id":"210586093","name":"Dunkerque - Rocroy","lat":48.880726,"lon":2.351464,"bikes":10,"docks_avail":14,"is_penury":0,"is_saturation":0},{"station_id":"210737808","name":"Aqueduc - Villette","lat":48.883886063895,"lon":2.367198803315,"bikes":11,"docks_avail":17,"is_penury":0,"is_saturation":0},{"station_id":"210738704","name":"Mazagran - Bonne Nouvelle","lat":48.870047123655,"lon":2.3511248454452,"bikes":15,"docks_avail":10,"is_penury":0,"is_saturation":0},{"station_id":"210740080","name":"Gare du Nord - Hôpital Lariboisière","lat":48.881949,"lon":2.352339,"bikes":8,"docks_avail":41,"is_penury":0,"is_saturation":0},{"station_id":"210744286","name":"Chemin Vert - Saint-Maur","lat":48.86112461407359,"lon":2.381299026310444,"bikes":25,"docks_avail":20,"is_penury":0,"is_saturation":0},{"station_id":"210745258","name":"Jean-Pierre Timbaud - Vaucouleurs","lat":48.867937,"lon":2.377885,"bikes":19,"docks_avail":28,"is_penury":0,"is_saturation":0},{"station_id":"210746090","name":"Grand Prieuré - Crussol","lat":48.864660627935,"lon":2.3692265531829,"bikes":29,"docks_avail":20,"is_penury":0,"is_saturation":0},{"station_id":"210747224","name":"Pirogues de Bercy - Libourne","lat":48.832308,"lon":2.38637,"bikes":22,"docks_avail":27,"is_penury":0,"is_saturation":0},{"station_id":"210748575","name":"Gravelle - Route du Bac","lat":48.824407,"lon":2.418455,"bikes":25,"docks_avail":26,"is_penury":0,"is_saturation":0},{"station_id":"210749865","name":"Port-Royal - Hôpital du Val-de-Grâce","lat":48.837668272811,"lon":2.3448138346607,"bikes":7,"docks_avail":11,"is_penury":0,"is_saturation":0},{"station_id":"210751059","name":"Hôpital - Campo-Formio","lat":48.835405,"lon":2.358218,"bikes":2,"docks_avail":9,"is_penury":0,"is_saturation":0},{"station_id":"210754072","name":"Place Jean Delay","lat":48.823316,"lon":2.354336,"bikes":12,"docks_avail":23,"is_penury":0,"is_saturation":0},{"station_id":"213674686","name":"Place Jeanne d'Arc","lat":48.829575,"lon":2.369126,"bikes":9,"docks_avail":27,"is_penury":0,"is_saturation":0},{"station_id":"213675430","name":"Boutroux - Porte de Vitry","lat":48.822632,"lon":2.377738,"bikes":33,"docks_avail":16,"is_penury":0,"is_saturation":0},{"station_id":"213676294","name":"Chevaleret - Tolbiac","lat":48.82941,"lon":2.375934,"bikes":16,"docks_avail":19,"is_penury":0,"is_saturation":0},{"station_id":"213676825","name":"Pitié-Salpêtrière","lat":48.83748810318667,"lon":2.365213818848133,"bikes":18,"docks_avail":33,"is_penury":0,"is_saturation":0},{"station_id":"213677219","name":"Brillat-Savarin - Küss","lat":48.822203,"lon":2.350422,"bikes":20,"docks_avail":1,"is_penury":0,"is_saturation":0},{"station_id":"213679512","name":"Sibelle - Alésia","lat":48.826701758539215,"lon":2.3384983465075493,"bikes":9,"docks_avail":28,"is_penury":0,"is_saturation":0},{"station_id":"213680246","name":"Didot - Mariniers","lat":48.82650543613106,"lon":2.313136198271666,"bikes":8,"docks_avail":27,"is_penury":0,"is_saturation":0},{"station_id":"213680553","name":"Adolphe Pinard - Victor Hugo","lat":48.8236825874564,"lon":2.3077843710780144,"bikes":9,"docks_avail":43,"is_penury":0,"is_saturation":0},{"station_id":"213680917","name":"Abbé Carton - Plantes","lat":48.827673823166,"lon":2.3209181427956,"bikes":3,"docks_avail":22,"is_penury":0,"is_saturation":0},{"station_id":"213681356","name":"David Weill - Parc Montsouris","lat":48.821092374256104,"lon":2.333725690841675,"bikes":7,"docks_avail":15,"is_penury":0,"is_saturation":0},{"station_id":"213682190","name":"Place Jacques et Thérèse Tréfouël","lat":48.842726498317,"lon":2.3125657439232,"bikes":15,"docks_avail":28,"is_penury":0,"is_saturation":0},{"station_id":"213682736","name":"Morillons - Dantzig","lat":48.83310149953933,"lon":2.299380004405976,"bikes":8,"docks_avail":44,"is_penury":0,"is_saturation":0},{"station_id":"213683101","name":"Lecourbe - Jean Maridor","lat":48.83796366147599,"lon":2.2877392172813416,"bikes":18,"docks_avail":1,"is_penury":0,"is_saturation":0},{"station_id":"213683992","name":"Cauchy - Cévennes","lat":48.843372571022,"lon":2.2751328349113,"bikes":7,"docks_avail":44,"is_penury":0,"is_saturation":0},{"station_id":"213684314","name":"Fédération - Suffren","lat":48.852828153442,"lon":2.2978776320815,"bikes":4,"docks_avail":21,"is_penury":0,"is_saturation":0},{"station_id":"213684750","name":"Grenelle - Violet","lat":48.84993035512154,"lon":2.294612042605877,"bikes":30,"docks_avail":5,"is_penury":0,"is_saturation":0},{"station_id":"213685090","name":"Cevennes - Bergers","lat":48.84240765130395,"lon":2.281037718057633,"bikes":26,"docks_avail":3,"is_penury":0,"is_saturation":0},{"station_id":"213685514","name":"Place Robert Guillemard","lat":48.836191728066666,"lon":2.2811267160086417,"bikes":13,"docks_avail":11,"is_penury":0,"is_saturation":0},{"station_id":"213685863","name":"Parc Suzanne Lenglen","lat":48.833250690537874,"lon":2.2765403240919113,"bikes":12,"docks_avail":40,"is_penury":0,"is_saturation":0},{"station_id":"213686196","name":"Lauriston - Copernic","lat":48.86926,"lon":2.289918,"bikes":5,"docks_avail":14,"is_penury":0,"is_saturation":0},