tbin_utc,stationcode,name,nb_velos_bin,nb_bornes_bin,capacity_bin,occ_ratio_bin,lat,lon,hour_utc,temp_C,precip_mm,wind_mps
2025-09-13 17:30:00,10004,Metz - Faubourg Saint-Denis,44,2,48,0.9166666666666666,48.870893,2.353521,2025-09-13 17:00:00,16.8,1.2,13.8
2025-09-13 17:30:00,10006,Petites Ecuries - Faubourg Saint-Denis,18,4,28,0.6428571428571429,48.87287120589831,2.3542150855064397,2025-09-13 17:00:00,16.8,1.2,13.8
2025-09-13 17:30:00,10008,Cité Riverin - Château d'Eau,12,2,18,0.6666666666666666,48.870702423554306,2.358739863900845,2025-09-13 17:00:00,16.8,1.2,13.8
2025-09-13 17:30:00,10010,Place Jacques Bonsergent,26,5,33,0.7878787878787878,48.870948218595,2.3612049221992,2025-09-13 17:00:00,16.8,1.2,13.8
2025-09-13 17:30:00,10011,Bourse du Travail,16,0,17,0.9411764705882353,48.868976638826,2.3623438552022,2025-09-13 17:00:00,16.8,1.2,13.8
2025-09-13 17:30:00,10013,Alibert - Jemmapes,27,27,60,0.45,48.871044051984,2.3661044619878,2025-09-13 17:00:00,16.8,1.2,13.8
2025-09-13 17:30:00,10014,Marseille - Beaurepaire,32,16,55,0.5818181818181818,48.871624306962985,2.3639265082738348,2025-09-13 17:00:00,16.8,1.2,13.8
2025-09-13 17:30:00,10016,Récollets - Square Villemin,3,10,17,0.17647058823529413,48.875034655883944,2.359801238597928,2025-09-13 17:00:00,16.8,1.2,13.8
2025-09-13 17:30:00,10017,Gare de l'Est - Fidélité,13,0,15,0.8666666666666667,48.874575,2.356796,2025-09-13 17:00:00,16.8,1.2,13.8
2025-09-13 17:30:00,10018,Square Alban Satragne,5,19,30,0.16666666666666666,48.875388227727,2.3559567333359,2025-09-13 17:00:00,16.8,1.2,13.8
2025-09-13 17:30:00,10019,Paradis - Hauteville,11,6,31,0.3548387096774194,48.874999954666755,2.3522757401923404,2025-09-13 17:00:00,16.8,1.2,13.8
2025-09-13 17:30:00,10020,Chabrol - d'Hauteville,4,5,11,0.36363636363636365,48.877018388033,2.3513179644942,2025-09-13 17:00:00,16.8,1.2,13.8
2025-09-13 17:30:00,10026,Gare de l'Est - Chateau Landon,10,48,59,0.1694915254237288,48.879305,2.362424,2025-09-13 17:00:00,16.8,1.2,13.8
2025-09-13 17:30:00,10029,Dunkerque - Rocroy,3,16,24,0.125,48.880726,2.351464,2025-09-13 17:00:00,16.8,1.2,13.8
2025-09-13 17:30:00,10032,Claude Vellefaux - Hôpital Saint-Louis,6,25,32,0.1875,48.872859139003,2.3700717069851,2025-09-13 17:00:00,16.8,1.2,13.8
2025-09-13 17:30:00,10033,Gare du Nord - Saint-Vincent de Paul,9,11,24,0.375,48.880955741648,2.3524305148385,2025-09-13 17:00:00,16.8,1.2,13.8
2025-09-13 17:30:00,10034,Louis Blanc - La Chapelle,9,10,21,0.42857142857142855,48.884008964514,2.3599335551262,2025-09-13 17:00:00,16.8,1.2,13.8
2025-09-13 17:30:00,10036,Aqueduc - Villette,7,9,28,0.25,48.883886063895,2.367198803315,2025-09-13 17:00:00,16.8,1.2,13.8
2025-09-13 17:30:00,10037,Quai de Valmy,6,18,26,0.23076923076923078,48.88126951579429,2.368186041712761,2025-09-13 17:00:00,16.8,1.2,13.8
2025-09-13 17:30:00,10039,Sambre et Meuse - Villette,6,18,25,0.24,48.874405666217,2.3738072379951,2025-09-13 17:00:00,16.8,1.2,13.8
2025-09-13 17:30:00,10041,Gare du Nord - La Chapelle,1,15,18,0.05555555555555555,48.884178287286,2.3561057075858,2025-09-13 17:00:00,16.8,1.2,13.8
2025-09-13 17:30:00,10042,Enghien - Faubourg Poissonnière,18,7,33,0.5454545454545454,48.872420063053,2.3483952362828,2025-09-13 17:00:00,16.8,1.2,13.8
2025-09-13 17:30:00,1008,Les Halles - Saint-Eustache,25,7,32,0.78125,48.86362695901683,2.342623919248581,2025-09-13 17:00:00,16.8,1.2,13.8
2025-09-13 17:30:00,10105,Mazagran - Bonne Nouvelle,19,2,25,0.76,48.870047123655,2.3511248454452,2025-09-13 17:00:00,16.8,1.2,13.8
2025-09-13 17:30:00,10107,Gare du Nord - Hôpital Lariboisière,2,44,49,0.04081632653061224,48.881949,2.352339,2025-09-13 17:00:00,16.8,1.2,13.8
2025-09-13 17:30:00,10113,Parmentier - Hôpital Saint-Louis,8,33,43,0.18604651162790697,48.871379874257,2.3698963836667,2025-09-13 17:00:00,16.8,1.2,13.8
2025-09-13 17:30:00,10114,Granges aux Belles - Hôpital Saint-Louis,10,48,60,0.16666666666666666,48.874794994841,2.366669436985,2025-09-13 17:00:00,16.8,1.2,13.8
2025-09-13 17:30:00,10115,Granges aux Belles,5,21,27,0.18518518518518517,48.8761373390584,2.3680844979417,2025-09-13 17:00:00,16.8,1.2,13.8
2025-09-13 17:30:00,1012,Jean-Jacques Rousseau - Deux Ecus,13,5,22,0.5909090909090909,48.86297805972131,2.3414635285735126,2025-09-13 17:00:00,16.8,1.2,13.8
2025-09-13 17:30:00,1013,Place du Palais Royal,61,5,67,0.9104477611940298,48.862382970647,2.3384822532535,2025-09-13 17:00:00,16.8,1.2,13.8
2025-09-13 17:30:00,1014,Rivoli - Musée du Louvre,19,4,24,0.7916666666666666,48.86364636851945,2.33409583568573,2025-09-13 17:00:00,16.8,1.2,13.8
2025-09-13 17:30:00,1015,Place André Malraux,33,4,37,0.8918918918918919,48.863925158727,2.3356226831675,2025-09-13 17:00:00,16.8,1.2,13.8
2025-09-13 17:30:00,10151,Gare du Nord - Faubourg Saint-Denis,18,8,28,0.6428571428571429,48.879612765504,2.3568402975798,2025-09-13 17:00:00,16.8,1.2,13.8
2025-09-13 17:30:00,1016,Thérèse - Opéra,19,4,25,0.76,48.866483514509,2.3344334212238,2025-09-13 17:00:00,16.8,1.2,13.8
2025-09-13 17:30:00,10161,Gare de l'Est - Faubourg-Saint-Martin,9,22,32,0.28125,48.875642647477,2.3594588041306,2025-09-13 17:00:00,16.8,1.2,13.8
2025-09-13 17:30:00,10162,Alexandre Parodi - Quai de Valmy,9,10,24,0.375,48.879359419425,2.3665961623192,2025-09-13 17:00:00,16.8,1.2,13.8
2025-09-13 17:30:00,10163,Gare du Nord - Demarquay,15,11,30,0.5,48.881154,2.358411,2025-09-13 17:00:00,16.8,1.2,13.8
2025-09-13 17:30:00,10164,Claude Vellefaux - Sambre et Meuse,4,29,34,0.11764705882352941,48.875022,2.370478,2025-09-13 17:00:00,16.8,1.2,13.8
2025-09-13 17:30:00,10165,Gare de l'Est - Place du 11 Novembre 1918,5,32,40,0.125,48.876327,2.3585464,2025-09-13 17:00:00,16.8,1.2,13.8
2025-09-13 17:30:00,10166,Strasbourg - Saint-Denis,3,3,16,0.1875,48.869601642433,2.3542908579111,2025-09-13 17:00:00,16.8,1.2,13.8
2025-09-13 17:30:00,1018,Alger - Rivoli,18,2,21,0.8571428571428571,48.864773553495,2.3294493936128,2025-09-13 17:00:00,16.8,1.2,13.8
2025-09-13 17:30:00,1020,Cambon - Rivoli,27,9,40,0.675,48.866143390992,2.3251800647137,2025-09-13 17:00:00,16.8,1.2,13.8
2025-09-13 17:30:00,10201,Magenta - Chabrol,5,7,24,0.20833333333333334,48.876495350882,2.3560990020633,2025-09-13 17:00:00,16.8,1.2,13.8
2025-09-13 17:30:00,10202,Bichat - Grange aux Belles,13,15,30,0.43333333333333335,48.873688,2.365015,2025-09-13 17:00:00,16.8,1.2,13.8
2025-09-13 17:30:00,10206,René Boulanger - Lancry,13,15,34,0.38235294117647056,48.868769331741,2.3598745346052,2025-09-13 17:00:00,16.8,1.2,13.8
2025-09-13 17:30:00,1023,Saint-Honoré - Musée du Louvre,24,6,32,0.75,48.863443132848,2.3348781846405,2025-09-13 17:00:00,16.8,1.2,13.8
2025-09-13 17:30:00,1024,Coquillière - Louvre,18,2,21,0.8571428571428571,48.863795909662,2.3425736278296,2025-09-13 17:00:00,16.8,1.2,13.8
2025-09-13 17:30:00,1025,Oratoire - Rivoli,18,0,18,1.0,48.861342760889,2.3400047421455,2025-09-13 17:00:00,16.8,1.2,13.8
2025-09-13 17:30:00,1026,Place du Lieutenant Henri Karcher,24,5,30,0.8,48.863490871724466,2.3400671035051346,2025-09-13 17:00:00,16.8,1.2,13.8
2025-09-13 17:30:00,11001,Richard Lenoir - Place de la Bastille,48,2,53,0.9056603773584906,48.8538327,2.3697222,2025-09-13 17:00:00,16.8,1.2,13.8
2025-09-13 17:30:00,11002,Roquette - Thiéré,21,2,23,0.9130434782608695,48.85507930579506,2.3733686318721463,2025-09-13 17:00:00,16.8,1.2,13.8
2025-09-13 17:30:00,11003,Keller - La Roquette,25,8,34,0.7352941176470589,48.8555508,2.3752778,2025-09-13 17:00:00,16.8,1.2,13.8
2025-09-13 17:30:00,11004,Charonne - Faubourg Saint-Antoine,32,0,34,0.9411764705882353,48.852191909696,2.3740932717919,2025-09-13 17:00:00,16.8,1.2,13.8
2025-09-13 17:30:00,11006,Ledru-Rollin - Place du Père Chaillet,21,14,37,0.5675675675675675,48.856433706943704,2.379020587761426,2025-09-13 17:00:00,16.8,1.2,13.8
2025-09-13 17:30:00,11007,Jean Macé - Faidherbe,37,38,78,0.47435897435897434,48.85337548426,2.3828620836139,2025-09-13 17:00:00,16.8,1.2,13.8
2025-09-13 17:30:00,11009,Boulets - Voltaire,5,32,38,0.13157894736842105,48.85218705621,2.3890301585197,2025-09-13 17:00:00,16.8,1.2,13.8
2025-09-13 17:30:00,11010,Boulets - Faubourg Saint-Antoine,11,32,43,0.2558139534883721,48.849259262115,2.3917546141943,2025-09-13 17:00:00,16.8,1.2,13.8
2025-09-13 17:30:00,11011,Richard Lenoir - Voltaire,22,2,25,0.88,48.86164273878,2.3727491497993,2025-09-13 17:00:00,16.8,1.2,13.8
2025-09-13 17:30:00,11016,Philippe-Auguste,3,43,48,0.0625,48.851853488265,2.3932945355773,2025-09-13 17:00:00,16.8,1.2,13.8
2025-09-13 17:30:00,11018,Saint-Maur - République,12,35,50,0.24,48.864185861455,2.3783174157143,2025-09-13 17:00:00,16.8,1.2,13.8
2025-09-13 17:30:00,11019,Charonne - Philippe-Auguste,5,27,32,0.15625,48.855603162026,2.39054639062,2025-09-13 17:00:00,16.8,1.2,13.8
2025-09-13 17:30:00,1102,Française - Etienne Marcel,34,1,37,0.918918918918919,48.864053304653766,2.347587011754513,2025-09-13 17:00:00,16.8,1.2,13.8
2025-09-13 17:30:00,11021,Charonne - Pierre Bayle,1,20,23,0.043478260869565216,48.858445054262,2.3903981223891,2025-09-13 17:00:00,16.8,1.2,13.8
2025-09-13 17:30:00,11023,Saint-Maur - Roquette,3,42,46,0.06521739130434782,48.858688774062955,2.383553994571467,2025-09-13 17:00:00,16.8,1.2,13.8
2025-09-13 17:30:00,11024,Mairie du 11ème,17,28,51,0.3333333333333333,48.858925,2.3789759,2025-09-13 17:00:00,16.8,1.2,13.8
2025-09-13 17:30:00,11026,Chemin Vert - Saint-Maur,24,19,45,0.5333333333333333,48.86112461407359,2.381299026310444,2025-09-13 17:00:00,16.8,1.2,13.8
2025-09-13 17:30:00,11027,Saint-Ambroise - Parmentier,11,22,38,0.2894736842105263,48.862147844548,2.3772348091006,2025-09-13 17:00:00,16.8,1.2,13.8
2025-09-13 17:30:00,11028,Guillaume Bertrand - République,5,33,38,0.13157894736842105,48.863825174341,2.380906377155,2025-09-13 17:00:00,16.8,1.2,13.8
2025-09-13 17:30:00,11029,Ménilmontant - Oberkampf,18,21,40,0.45,48.866617658681,2.3830134404158,2025-09-13 17:00:00,16.8,1.2,13.8
2025-09-13 17:30:00,11030,Oberkampf - République,4,20,24,0.16666666666666666,48.86531608707,2.37611478491,2025-09-13 17:00:00,16.8,1.2,13.8
2025-09-13 17:30:00,11031,Jacquard - Ternaux,10,27,39,0.2564102564102564,48.8646605,2.373162,2025-09-13 17:00:00,16.8,1.2,13.8
2025-09-13 17:30:00,11032,Jean-Pierre Timbaud - Vaucouleurs,10,33,47,0.2127659574468085,48.867937,2.377885,2025-09-13 17:00:00,16.8,1.2,13.8
2025-09-13 17:30:00,11034,Parmentier - Fontaine au Roi,10,37,48,0.20833333333333334,48.86787670551736,2.372705978671471,2025-09-13 17:00:00,16.8,1.2,13.8
2025-09-13 17:30:00,11035,Parmentier - Abel Rabaud,17,34,52,0.3269230769230769,48.86921273836114,2.371688821240712,2025-09-13 17:00:00,16.8,1.2,13.8
2025-09-13 17:30:00,11037,Faubourg Du Temple - Republique,36,1,38,0.9473684210526315,48.867872484749,2.3648982158072,2025-09-13 17:00:00,16.8,1.2,13.8
2025-09-13 17:30:00,11038,Temple - Charlot,41,3,45,0.9111111111111111,48.865709343796,2.3652737250724,2025-09-13 17:00:00,16.8,1.2,13.8
2025-09-13 17:30:00,11039,Richard Lenoir - Jean-Pierre Timbaud,25,11,36,0.6944444444444444,48.865804276686,2.3693370749669,2025-09-13 17:00:00,16.8,1.2,13.8
2025-09-13 17:30:00,11040,Temple - Jean-Pierre Timbaud,33,1,36,0.9166666666666666,48.86446597201,2.3660597205162,2025-09-13 17:00:00,16.8,1.2,13.8
2025-09-13 17:30:00,11041,Square Saint-Ambroise,18,22,43,0.4186046511627907,48.860934,2.375841,2025-09-13 17:00:00,16.8,1.2,13.8
2025-09-13 17:30:00,11042,Grand Prieuré - Crussol,38,8,49,0.7755102040816326,48.864660627935,2.3692265531829,2025-09-13 17:00:00,16.8,1.2,13.8
2025-09-13 17:30:00,11043,Place Pasdeloup,17,2,21,0.8095238095238095,48.862654215631,2.3670325062844,2025-09-13 17:00:00,16.8,1.2,13.8
2025-09-13 17:30:00,11044,Square du Bataclan,14,1,20,0.7,48.8633762,2.3711327,2025-09-13 17:00:00,16.8,1.2,13.8
2025-09-13 17:30:00,11047,Amelot - Saint-Sébastien,26,2,30,0.8666666666666667,48.861142162761,2.3677996181077,2025-09-13 17:00:00,16.8,1.2,13.8
2025-09-13 17:30:00,11048,Place Mireille Havet,21,19,43,0.4883720930232558,48.850533,2.383756,2025-09-13 17:00:00,16.8,1.2,13.8
2025-09-13 17:30:00,11102,Alexandre Dumas - Voltaire,6,68,74,0.08108108108108109,48.852888670365,2.3891476408096,2025-09-13 17:00:00,16.8,1.2,13.8
2025-09-13 17:30:00,11103,Pelée - Alphonse Baudin,32,1,38,0.8421052631578947,48.8600265,2.3710541,2025-09-13 17:00:00,16.8,1.2,13.8
2025-09-13 17:30:00,11104,Charonne - Robert et Sonia Delaunay,0,19,20,0.0,48.855907555969,2.3925706744194,2025-09-13 17:00:00,16.8,1.2,13.8
2025-09-13 17:30:00,11105,Parmentier - République,12,12,50,0.24,48.8644954,2.3750124,2025-09-13 17:00:00,16.8,1.2,13.8
2025-09-13 17:30:00,11107,Faidherbe - Dahomey,28,14,44,0.6363636363636364,48.851358329771806,2.383823134795429,2025-09-13 17:00:00,16.8,1.2,13.8
2025-09-13 17:30:00,11110,Roquette - Folie Regnault,6,42,52,0.11538461538461539,48.859246959155485,2.386553623578705,2025-09-13 17:00:00,16.8,1.2,13.8
2025-09-13 17:30:00,11111,Léon Frot - Charonne,7,10,19,0.3684210526315789,48.854963800335234,2.387217085372007,2025-09-13 17:00:00,16.8,1.2,13.8
2025-09-13 17:30:00,11113,Richard Lenoir - Republique,18,35,58,0.3103448275862069,48.8667175,2.3692541,2025-09-13 17:00:00,16.8,1.2,13.8
2025-09-13 17:30:00,11115,Montreuil - Gonnet,8,15,24,0.3333333333333333,48.850500564921,2.3890856287864,2025-09-13 17:00:00,16.8,1.2,13.8
2025-09-13 17:30:00,1117,Pont Neuf - Rivoli,25,0,27,0.9259259259259259,48.860089892617,2.344057559967,2025-09-13 17:00:00,16.8,1.2,13.8
2025-09-13 17:30:00,1119,Cossonnerie - Sébastopol,22,2,24,0.9166666666666666,48.86132665908402,2.349419631063938,2025-09-13 17:00:00,16.8,1.2,13.8
2025-09-13 17:30:00,1120,Lavandieres Sainte Opportune - Rivoli,27,0,27,1.0,48.859279702476,2.3466217517853,2025-09-13 17:00:00,16.8,1.2,13.8
2025-09-13 17:30:00,11201,Faubourg St-Antoine - Place de la Nation,3,12,16,0.1875,48.8487726,2.393606,2025-09-13 17:00:00,16.8,1.2,13.8
2025-09-13 17:30:00,12001,Bastille - Biscornet,40,17,62,0.6451612903225806,48.851355779579,2.369220033288,2025-09-13 17:00:00,16.8,1.2,13.8
2025-09-13 17:30:00,12002,Lacuée - Lyon,15,0,16,0.9375,48.849268481958,2.3704585433006,2025-09-13 17:00:00,16.8,1.2,13.8
2025-09-13 17:30:00,12005,Crozatier - Faubourg Saint-Antoine,36,4,42,0.8571428571428571,48.850440013405,2.378901366211,2025-09-13 17:00:00,16.8,1.2,13.8
2025-09-13 17:30:00,12006,Gare de Lyon - Van Gogh,39,2,41,0.9512195121951219,48.843839785643,2.3704450240357,2025-09-13 17:00:00,16.8,1.2,13.8
2025-09-13 17:30:00,12007,Gare de Lyon - Chalon,36,6,45,0.8,48.845666194202,2.3741452395916,2025-09-13 17:00:00,16.8,1.2,13.8
2025-09-13 17:30:00,12008,Hector Malot - Daumesnil,49,2,54,0.9074074074074074,48.84693552991762,2.3770876228809357,2025-09-13 17:00:00,16.8,1.2,13.8
2025-09-13 17:30:00,12009,Charenton - Diderot,11,2,18,0.6111111111111112,48.846171461187,2.3793068155646,2025-09-13 17:00:00,16.8,1.2,13.8
2025-09-13 17:30:00,12013,Montgallet - Reuilly,4,10,15,0.26666666666666666,48.844291,2.3896481,2025-09-13 17:00:00,16.8,1.2,13.8
2025-09-13 17:30:00,12015,Place de la Nation - Picpus,4,32,36,0.1111111111111111,48.846821681548,2.4001130461693,2025-09-13 17:00:00,16.8,1.2,13.8
2025-09-13 17:30:00,12016,Saint-Mande - Picpus,6,29,35,0.17142857142857143,48.845127728278,2.4015686296482,2025-09-13 17:00:00,16.8,1.2,13.8
2025-09-13 17:30:00,12018,Saint-Mandé - Fabre d'Eglantine,5,27,34,0.14705882352941177,48.8453579,2.3965022,2025-09-13 17:00:00,16.8,1.2,13.8
2025-09-13 17:30:00,12019,Gare de Reuilly - Picpus,6,20,28,0.21428571428571427,48.84267354116789,2.3972943797707558,2025-09-13 17:00:00,16.8,1.2,13.8
2025-09-13 17:30:00,12020,Cours de Vincennes - Soult,14,30,45,0.3111111111111111,48.846918761569,2.4105220288038,2025-09-13 17:00:00,16.8,1.2,13.8
2025-09-13 17:30:00,12022,Sahel - Général Michel Bizot,6,41,47,0.1276595744680851,48.840872964793355,2.4044444784522057,2025-09-13 17:00:00,16.8,1.2,13.8
2025-09-13 17:30:00,12024,Gare de Bercy,32,2,35,0.9142857142857143,48.839794573906,2.3826066032052,2025-09-13 17:00:00,16.8,1.2,13.8
2025-09-13 17:30:00,12026,Place Ginette Hamelin,46,3,51,0.9019607843137255,48.837853,2.382064,2025-09-13 17:00:00,16.8,1.2,13.8
2025-09-13 17:30:00,12027,Montgallet - Charenton,5,10,16,0.3125,48.842647778701,2.3861649278137,2025-09-13 17:00:00,16.8,1.2,13.8
2025-09-13 17:30:00,12028,Vivaldi - Antoine-Julien Hénard,3,23,27,0.1111111111111111,48.841923663276546,2.389728979467376,2025-09-13 17:00:00,16.8,1.2,13.8
2025-09-13 17:30:00,12031,Gabriel Lamé,36,0,36,1.0,48.8351212784276,2.385534569621086,2025-09-13 17:00:00,16.8,1.2,13.8
2025-09-13 17:30:00,12035,Madagascar - Meuniers,6,39,47,0.1276595744680851,48.83460464474706,2.3970650508999825,2025-09-13 17:00:00,16.8,1.2,13.8
2025-09-13 17:30:00,12036,Reuilly - Place Felix Eboue,8,33,42,0.19047619047619047,48.84030274499962,2.394630398715453,2025-09-13 17:00:00,16.8,1.2,13.8
2025-09-13 17:30:00,12039,Général Michel Bizot - Claude Decaen,3,46,50,0.06,48.834812629825,2.4009277881277,2025-09-13 17:00:00,16.8,1.2,13.8
2025-09-13 17:30:00,12040,Porte de Charenton,9,56,67,0.13432835820895522,48.831240105856,2.3989107459784,2025-09-13 17:00:00,16.8,1.2,13.8
2025-09-13 17:30:00,12041,Bois de Vincennes.,7,52,60,0.11666666666666667,48.8338064,2.4132221,2025-09-13 17:00:00,16.8,1.2,13.8
2025-09-13 17:30:00,12043,Daumesnil - Hébrard,19,18,40,0.475,48.8429,2.38474,2025-09-13 17:00:00,16.8,1.2,13.8
2025-09-13 17:30:00,12105,Bercy - Villot,31,5,33,0.9393939393939394,48.841795009027,2.3767850184816,2025-09-13 17:00:00,16.8,1.2,13.8
2025-09-13 17:30:00,12106,Gare de Lyon - Roland Barthes,65,3,68,0.9558823529411765,48.84395729494058,2.3790882155299187,2025-09-13 17:00:00,16.8,1.2,13.8
2025-09-13 17:30:00,12108,Bercy.,56,9,66,0.8484848484848485,48.839966914994,2.3788625746965,2025-09-13 17:00:00,16.8,1.2,13.8
2025-09-13 17:30:00,12109,Mairie du 12ème,9,20,30,0.3,48.840855311763,2.3875549435616,2025-09-13 17:00:00,16.8,1.2,13.8
2025-09-13 17:30:00,12111,Claude Decaen - Cannebière,2,42,45,0.044444444444444446,48.83761417037952,2.397253782195704,2025-09-13 17:00:00,16.8,1.2,13.8
2025-09-13 17:30:00,12114,Victor Hugo - Jeanne Jugan,15,13,28,0.5357142857142857,48.843949064031825,2.415081394834419,2025-09-13 17:00:00,16.8,1.2,13.8
2025-09-13 17:30:00,12115,Porte de Vincennes,12,18,33,0.36363636363636365,48.846454,2.415514,2025-09-13 17:00:00,16.8,1.2,13.8
2025-09-13 17:30:00,12119,Dom-Pérignon - Gravelle,7,43,50,0.14,48.825481574435,2.409880310297,2025-09-13 17:00:00,16.8,1.2,13.8
2025-09-13 17:30:00,12120,Lac Daumesnil - Saint-Maurice,5,42,50,0.1,48.82774555743318,2.4183654785156246,2025-09-13 17:00:00,16.8,1.2,13.8
2025-09-13 17:30:00,12122,Bois de Vincennes - Polygone,14,35,51,0.27450980392156865,48.83544491617421,2.431421081436563,2025-09-13 17:00:00,16.8,1.2,13.8
2025-09-13 17:30:00,12123,Château de Vincennes,30,20,52,0.5769230769230769,48.84423193255657,2.439209537709179,2025-09-13 17:00:00,16.8,1.2,13.8
2025-09-13 17:30:00,12128,Pyramide - Ecole du Breuil,20,13,34,0.5882352941176471,48.82237977153955,2.4586871266365056,2025-09-13 17:00:00,16.8,1.2,13.8
2025-09-13 17:30:00,12129,Bois de Vincennes - Porte Jaune,6,29,35,0.17142857142857143,48.838751246689455,2.4605489149689674,2025-09-13 17:00:00,16.8,1.2,13.8
2025-09-13 17:30:00,12150,Bastille - Quai de la Rapée,24,3,27,0.8888888888888888,48.84682410855,2.3669364675879,2025-09-13 17:00:00,16.8,1.2,13.8
2025-09-13 17:30:00,12151,Gare de Lyon - Place Louis Armand,53,2,60,0.8833333333333333,48.845515089794,2.3726498446286,2025-09-13 17:00:00,16.8,1.2,13.8
2025-09-13 17:30:00,12153,Terroirs de France - Lheureux,51,3,55,0.9272727272727272,48.83212027074841,2.388618104159832,2025-09-13 17:00:00,16.8,1.2,13.8
2025-09-13 17:30:00,12154,Square Georges Melies,10,27,40,0.25,48.84070239213081,2.409667745232582,2025-09-13 17:00:00,16.8,1.2,13.8
2025-09-13 17:30:00,12156,Niger - Soult,4,19,24,0.16666666666666666,48.84369906369085,2.410361237220498,2025-09-13 17:00:00,16.8,1.2,13.8
2025-09-13 17:30:00,12157,Fabre d'Eglantine - Place de la Nation,10,58,68,0.14705882352941177,48.8471116,2.3956204,2025-09-13 17:00:00,16.8,1.2,13.8
2025-09-13 17:30:00,12161,Diderot - Reuilly,22,17,44,0.5,48.847208456061,2.3861273378134,2025-09-13 17:00:00,16.8,1.2,13.8
2025-09-13 17:30:00,12164,Stade Pershing,3,20,26,0.11538461538461539,48.829107826857,2.4583535268903,2025-09-13 17:00:00,16.8,1.2,13.8
2025-09-13 17:30:00,12165,Champs de Manoeuvre - Cartoucherie,26,9,35,0.7428571428571429,48.835261,2.447974,2025-09-13 17:00:00,16.8,1.2,13.8
2025-09-13 17:30:00,12166,Parc Floral du Bel Air,17,4,25,0.68,48.839285711865735,2.438560165464878,2025-09-13 17:00:00,16.8,1.2,13.8
2025-09-13 17:30:00,12201,Dugommier,19,30,53,0.3584905660377358,48.838811048815,2.3896577954292,2025-09-13 17:00:00,16.8,1.2,13.8
2025-09-13 17:30:00,12202,Charenton - Wattignies,12,27,40,0.3,48.836919119234,2.3916775206425,2025-09-13 17:00:00,16.8,1.2,13.8
2025-09-13 17:30:00,12203,Nicolaï - Charenton,7,36,44,0.1590909090909091,48.835478791995,2.392894725661,2025-09-13 17:00:00,16.8,1.2,13.8
2025-09-13 17:30:00,12204,Prague - Théophile Roussel,31,3,34,0.9117647058823529,48.850330563516,2.3758223011125,2025-09-13 17:00:00,16.8,1.2,13.8
2025-09-13 17:30:00,13001,Port-Royal - Hôpital du Val-de-Grâce,2,14,18,0.1111111111111111,48.837668272811,2.3448138346607,2025-09-13 17:00:00,16.8,1.2,13.8
2025-09-13 17:30:00,13002,Arago - Glacière,9,14,27,0.3333333333333333,48.83486054775774,2.3445770524322067,2025-09-13 17:00:00,16.8,1.2,13.8
2025-09-13 17:30:00,13005,Cordelières - Arago,8,52,60,0.13333333333333333,48.83548071896613,2.348572461702221,2025-09-13 17:00:00,16.8,1.2,13.8
2025-09-13 17:30:00,13006,Duméril - Jeanne d'Arc,26,14,40,0.65,48.838151608087,2.3571084495564,2025-09-13 17:00:00,16.8,1.2,13.8
2025-09-13 17:30:00,13007,Le Brun - Gobelins,7,41,48,0.14583333333333334,48.835092787824,2.3534681351338,2025-09-13 17:00:00,16.8,1.2,13.8
2025-09-13 17:30:00,13008,Place d'Italie - Soeur Rosalie,32,18,52,0.6153846153846154,48.831908520394,2.3546943448098,2025-09-13 17:00:00,16.8,1.2,13.8
2025-09-13 17:30:00,13010,Place d'Italie - Vincent Auriol,25,13,40,0.625,48.831481874467,2.3567550292319,2025-09-13 17:00:00,16.8,1.2,13.8
2025-09-13 17:30:00,13011,Hôpital - Campo-Formio,10,1,11,0.9090909090909091,48.835405,2.358218,2025-09-13 17:00:00,16.8,1.2,13.8
2025-09-13 17:30:00,13015,Chevaleret - Louise Weiss,31,3,35,0.8857142857142857,48.832586513351,2.37121138812,2025-09-13 17:00:00,16.8,1.2,13.8
2025-09-13 17:30:00,13018,Bruant - Vincent Auriol,22,2,25,0.88,48.834848452929,2.3668264996271,2025-09-13 17:00:00,16.8,1.2,13.8
2025-09-13 17:30:00,13019,Fernand Braudel - Vincent Auriol,30,4,36,0.8333333333333334,48.83637852318147,2.3723404482007027,2025-09-13 17:00:00,16.8,1.2,13.8
2025-09-13 17:30:00,13020,Paul Klee - Place Augusta Holmes,40,2,43,0.9302325581395349,48.838946417408025,2.3704235663952966,2025-09-13 17:00:00,16.8,1.2,13.8
2025-09-13 17:30:00,13022,Butte aux Cailles - Esperance,5,27,36,0.1388888888888889,48.82758774190948,2.3492151126265526,2025-09-13 17:00:00,16.8,1.2,13.8
2025-09-13 17:30:00,13026,Place Jean Delay,5,29,35,0.14285714285714285,48.823316,2.354336,2025-09-13 17:00:00,16.8,1.2,13.8
2025-09-13 17:30:00,13027,Mazagran - Pierre de Coubertin,2,13,15,0.13333333333333333,48.816218640260445,2.344226874411106,2025-09-13 17:00:00,16.8,1.2,13.8
2025-09-13 17:30:00,13032,Italie - Jardin Joan Miro,10,14,26,0.38461538461538464,48.81990914045756,2.3592948541045193,2025-09-13 17:00:00,16.8,1.2,13.8
2025-09-13 17:30:00,13033,Porte d'Italie,6,6,13,0.46153846153846156,48.817161987718954,2.360236309468746,2025-09-13 17:00:00,16.8,1.2,13.8
2025-09-13 17:30:00,13035,Choisy - Tolbiac,7,13,20,0.35,48.82591155587,2.3602393269539,2025-09-13 17:00:00,16.8,1.2,13.8
2025-09-13 17:30:00,13036,Olympiades,8,26,36,0.2222222222222222,48.826764665199,2.3650860786438,2025-09-13 17:00:00,16.8,1.2,13.8
2025-09-13 17:30:00,13039,Ivry - Simone Weil,6,12,18,0.3333333333333333,48.823283932030755,2.3659095168113713,2025-09-13 17:00:00,16.8,1.2,13.8
2025-09-13 17:30:00,13041,Porte d'Ivry,32,14,50,0.64,48.821768747596,2.3688706755638,2025-09-13 17:00:00,16.8,1.2,13.8
2025-09-13 17:30:00,13043,Dunois - Clisson,34,3,51,0.6666666666666666,48.832294,2.3674523,2025-09-13 17:00:00,16.8,1.2,13.8
2025-09-13 17:30:00,13044,Place Jeanne d'Arc,7,27,36,0.19444444444444445,48.829575,2.369126,2025-09-13 17:00:00,16.8,1.2,13.8
2025-09-13 17:30:00,13046,Eugène Oudiné - Dessous Des Berges,26,17,44,0.5909090909090909,48.8256423,2.3750226,2025-09-13 17:00:00,16.8,1.2,13.8
2025-09-13 17:30:00,13047,Boutroux - Porte de Vitry,23,26,49,0.46938775510204084,48.822632,2.377738,2025-09-13 17:00:00,16.8,1.2,13.8
2025-09-13 17:30:00,13048,Wurtz - Tolbiac,5,22,28,0.17857142857142858,48.82631195621,2.344585955143,2025-09-13 17:00:00,16.8,1.2,13.8
2025-09-13 17:30:00,13049,Vincent Auriol - Louise Weiss,19,2,22,0.8636363636363636,48.834001935501,2.3703888058662,2025-09-13 17:00:00,16.8,1.2,13.8
2025-09-13 17:30:00,13050,Quai Panhard et Levassor,12,42,57,0.21052631578947367,48.828374828097,2.3842737458056,2025-09-13 17:00:00,16.8,1.2,13.8
2025-09-13 17:30:00,13051,Halle Freyssinet - Parvis Alan Turing,15,22,37,0.40540540540540543,48.832846814471,2.3711421713233,2025-09-13 17:00:00,16.8,1.2,13.8
2025-09-13 17:30:00,13052,Leredde - Tolbiac,42,0,44,0.9545454545454546,48.82887629664,2.3744382709265,2025-09-13 17:00:00,16.8,1.2,13.8
2025-09-13 17:30:00,13053,Chevaleret - Tolbiac,19,2,21,0.9047619047619048,48.82941,2.375934,2025-09-13 17:00:00,16.8,1.2,13.8
2025-09-13 17:30:00,13054,Pau Casals - Neuve Tolbiac,72,3,78,0.9230769230769231,48.8311602,2.3774395,2025-09-13 17:00:00,16.8,1.2,13.8
2025-09-13 17:30:00,13055,M.- A. Lagroua Weill-Hallé -  F. Dolto,59,0,60,0.9833333333333333,48.828595283857425,2.380220606266108,2025-09-13 17:00:00,16.8,1.2,13.8
2025-09-13 17:30:00,13103,Hôpital Pitié Salpêtrière,21,26,50,0.42,48.8377016,2.3604946,2025-09-13 17:00:00,16.8,1.2,13.8
2025-09-13 17:30:00,13104,Gare d'Austerlitz - Quai Saint-Bernard,27,0,27,1.0,48.84369030864,2.3657163977623,2025-09-13 17:00:00,16.8,1.2,13.8
2025-09-13 17:30:00,13109,Brillat-Savarin - Küss,3,18,21,0.14285714285714285,48.822203,2.350422,2025-09-13 17:00:00,16.8,1.2,13.8
2025-09-13 17:30:00,13110,Moulin de la Pointe,2,18,22,0.09090909090909091,48.82092946051445,2.3563179373741145,2025-09-13 17:00:00,16.8,1.2,13.8
2025-09-13 17:30:00,13113,Vistule - Choisy,5,27,33,0.15151515151515152,48.82365543660611,2.3615723848342896,2025-09-13 17:00:00,16.8,1.2,13.8
2025-09-13 17:30:00,13114,Nationale - Marcel Duchamp,11,11,23,0.4782608695652174,48.82463749337136,2.3678014799952507,2025-09-13 17:00:00,16.8,1.2,13.8
2025-09-13 17:30:00,13116,Place du Docteur Yersin,5,40,50,0.1,48.82010494991975,2.3725583776831627,2025-09-13 17:00:00,16.8,1.2,13.8
2025-09-13 17:30:00,13118,Regnault - Patay,41,20,63,0.6507936507936508,48.82435782216384,2.377065159380436,2025-09-13 17:00:00,16.8,1.2,13.8
2025-09-13 17:30:00,13123,BNF - Bibliothèque Nationale de France,47,4,42,1.0,48.8350268238,2.3760157451034,2025-09-13 17:00:00,16.8,1.2,13.8
2025-09-13 17:30:00,13125,Gare d'Austerlitz - Pont Charles de Gaulle,63,10,75,0.84,48.842319830109,2.3670300096273,2025-09-13 17:00:00,16.8,1.2,13.8
2025-09-13 17:30:00,13126,Place Nationale - Château-des-Rentiers,6,11,18,0.3333333333333333,48.829268,2.365212,2025-09-13 17:00:00,16.8,1.2,13.8
2025-09-13 17:30:00,13128,Quai de la Gare - Pont de Bercy,28,1,30,0.9333333333333333,48.83730787972,2.3740861260598,2025-09-13 17:00:00,16.8,1.2,13.8
2025-09-13 17:30:00,13202,Place Farhat Hached,26,1,28,0.9285714285714286,48.825487045602,2.3816306985827,2025-09-13 17:00:00,16.8,1.2,13.8
2025-09-13 17:30:00,13203,Square de Choisy - Eastman,11,12,24,0.4583333333333333,48.828543456283,2.3583075090494,2025-09-13 17:00:00,16.8,1.2,13.8
2025-09-13 17:30:00,13204,Tolbiac - Boussingault,11,29,41,0.2682926829268293,48.826177754027,2.3420378552202,2025-09-13 17:00:00,16.8,1.2,13.8
2025-09-13 17:30:00,13205,Choisy - Pointe d'Ivry,8,15,24,0.3333333333333333,48.822154170359,2.3633708034878,2025-09-13 17:00:00,16.8,1.2,13.8
2025-09-13 17:30:00,13515,Auguste Blanqui - Glacière,20,39,60,0.3333333333333333,48.831151602964,2.343822196126,2025-09-13 17:00:00,16.8,1.2,13.8
2025-09-13 17:30:00,14001,Edgar Quinet - Gaité,25,0,27,0.9259259259259259,48.841160928966,2.324595451355,2025-09-13 17:00:00,16.8,1.2,13.8
2025-09-13 17:30:00,14002,Edgar Quinet - Raspail,19,24,46,0.41304347826086957,48.83940266673835,2.32971478253603,2025-09-13 17:00:00,16.8,1.2,13.8
2025-09-13 17:30:00,14003,Schoelcher - Raspail,5,43,50,0.1,48.83681733526843,2.3312794080411474,2025-09-13 17:00:00,16.8,1.2,13.8
2025-09-13 17:30:00,14004,Port Royal - Hôpital Cochin,2,19,23,0.08695652173913043,48.838608030238,2.3406994164846,2025-09-13 17:00:00,16.8,1.2,13.8
2025-09-13 17:30:00,14006,Saint-Jacques - Tombe Issoire,8,14,23,0.34782608695652173,48.833206330538864,2.3369108140468597,2025-09-13 17:00:00,16.8,1.2,13.8
2025-09-13 17:30:00,14007,Ferrus - Saint-Jacques,16,17,34,0.47058823529411764,48.8313878,2.3408563,2025-09-13 17:00:00,16.8,1.2,13.8
2025-09-13 17:30:00,14008,Mouton Duvernet - Général Leclerc,8,17,28,0.2857142857142857,48.831632518293,2.3293121159077,2025-09-13 17:00:00,16.8,1.2,13.8
2025-09-13 17:30:00,14009,Tombe Issoire - René Coty,2,34,36,0.05555555555555555,48.830512876709,2.3343613743782,2025-09-13 17:00:00,16.8,1.2,13.8
2025-09-13 17:30:00,14010,Jean Moulin - Place Victor et Hélène Basch,7,33,41,0.17073170731707318,48.82764910241,2.3261967301369,2025-09-13 17:00:00,16.8,1.2,13.8
2025-09-13 17:30:00,14011,Place des Droits de l'Enfant,4,34,39,0.10256410256410256,48.8274804,2.3319217,2025-09-13 17:00:00,16.8,1.2,13.8
2025-09-13 17:30:00,14012,Sibelle - Alésia,6,31,37,0.16216216216216217,48.826701758539215,2.3384983465075493,2025-09-13 17:00:00,16.8,1.2,13.8
2025-09-13 17:30:00,14018,Porte d'Orléans,4,40,48,0.08333333333333333,48.8227639,2.3249313,2025-09-13 17:00:00,16.8,1.2,13.8
2025-09-13 17:30:00,14019,Sarrette - Général Leclerc,6,15,22,0.2727272727272727,48.825030852925,2.3264128693982,2025-09-13 17:00:00,16.8,1.2,13.8
2025-09-13 17:30:00,14020,Cimetière de Montrouge,3,55,58,0.05172413793103448,48.821466904768,2.3215785772007,2025-09-13 17:00:00,16.8,1.2,13.8
2025-09-13 17:30:00,14023,Adolphe Pinard - Victor Hugo,1,49,52,0.019230769230769232,48.8236825874564,2.3077843710780144,2025-09-13 17:00:00,16.8,1.2,13.8
2025-09-13 17:30:00,14025,Jacquier - Didot,2,28,30,0.06666666666666667,48.82953336292279,2.318179272115231,2025-09-13 17:00:00,16.8,1.2,13.8
2025-09-13 17:30:00,14026,Plantes - Moulin Vert,4,40,45,0.08888888888888889,48.83005755305626,2.3232302069664006,2025-09-13 17:00:00,16.8,1.2,13.8
2025-09-13 17:30:00,14027,Gergovie - Alésia,2,50,54,0.037037037037037035,48.83088717455243,2.318882101207347,2025-09-13 17:00:00,16.8,1.2,13.8
2025-09-13 17:30:00,14030,Pernety - Raymond Losserand,4,28,32,0.125,48.834254627953,2.317609339387,2025-09-13 17:00:00,16.8,1.2,13.8
2025-09-13 17:30:00,14031,Didot - Place de Moro-Giafferi,2,18,22,0.09090909090909091,48.8337,2.3215,2025-09-13 17:00:00,16.8,1.2,13.8
2025-09-13 17:30:00,14032,Mairie du 14ème,6,23,32,0.1875,48.83254578123,2.3254923149943,2025-09-13 17:00:00,16.8,1.2,13.8
2025-09-13 17:30:00,14036,Boulard - Daguerre,5,40,45,0.1111111111111111,48.83446472680611,2.3293386027216907,2025-09-13 17:00:00,16.8,1.2,13.8
2025-09-13 17:30:00,14101,Gare Montparnasse - Edgar Quinet,11,20,33,0.3333333333333333,48.841487851079,2.3233232282801,2025-09-13 17:00:00,16.8,1.2,13.8
2025-09-13 17:30:00,14103,Maine - Liancourt,4,22,27,0.14814814814814814,48.835064363954,2.323731449974,2025-09-13 17:00:00,16.8,1.2,13.8
2025-09-13 17:30:00,14106,Marc Sangnier - Porte de Vanves,5,15,21,0.23809523809523808,48.825218683556734,2.3107116669416428,2025-09-13 17:00:00,16.8,1.2,13.8
2025-09-13 17:30:00,14108,Le Brix et Mesmin - Jourdan,0,20,21,0.0,48.82234096593411,2.327861653302471,2025-09-13 17:00:00,16.8,1.2,13.8
2025-09-13 17:30:00,14110,Abbé Carton - Plantes,4,21,25,0.16,48.827673823166,2.3209181427956,2025-09-13 17:00:00,16.8,1.2,13.8
2025-09-13 17:30:00,14112,Méchain - Faubourg Saint-Jacques,3,11,16,0.1875,48.83586772099485,2.33798034198275,2025-09-13 17:00:00,16.8,1.2,13.8
2025-09-13 17:30:00,14113,Santé - Arago,4,31,38,0.10526315789473684,48.83507657562064,2.3415737262044938,2025-09-13 17:00:00,16.8,1.2,13.8
2025-09-13 17:30:00,14116,Romain Rolland,1,24,25,0.04,48.820215229662765,2.3234144234418346,2025-09-13 17:00:00,16.8,1.2,13.8
2025-09-13 17:30:00,14122,Colonel Monteil - Brune,2,15,19,0.10526315789473684,48.82650293311,2.3092747998272,2025-09-13 17:00:00,16.8,1.2,13.8
2025-09-13 17:30:00,14124,David Weill - Parc Montsouris,4,18,22,0.18181818181818182,48.821092374256104,2.333725690841675,2025-09-13 17:00:00,16.8,1.2,13.8
2025-09-13 17:30:00,14127,Odessa - Départ,12,24,39,0.3076923076923077,48.842885590081,2.3244281485677,2025-09-13 17:00:00,16.8,1.2,13.8
2025-09-13 17:30:00,14128,Gergovie - Vercingétorix,5,24,29,0.1724137931034483,48.83453413883994,2.313154547426182,2025-09-13 17:00:00,16.8,1.2,13.8
2025-09-13 17:30:00,14131,Jourdan - Monticelli,1,26,30,0.03333333333333333,48.822032,2.329095,2025-09-13 17:00:00,16.8,1.2,13.8
2025-09-13 17:30:00,14132,Bézout - Général Leclerc,6,24,30,0.2,48.82884804502439,2.3285973072052,2025-09-13 17:00:00,16.8,1.2,13.8
2025-09-13 17:30:00,14133,Froidevaux - Boulard,5,29,35,0.14285714285714285,48.835147319625,2.3294411972165,2025-09-13 17:00:00,16.8,1.2,13.8
2025-09-13 17:30:00,14135,Jourdan - Cité Universitaire,5,34,39,0.1282051282051282,48.819897343156676,2.3397007964124366,2025-09-13 17:00:00,16.8,1.2,13.8
2025-09-13 17:30:00,14136,Auguste Cain - Jean Moulin,3,37,40,0.075,48.82577028927573,2.3210415244102482,2025-09-13 17:00:00,16.8,1.2,13.8
2025-09-13 17:30:00,14138,Porte de Vanves,1,29,32,0.03125,48.828012849445,2.3056878894567,2025-09-13 17:00:00,16.8,1.2,13.8
2025-09-13 17:30:00,14139,Pierre Larousse - Raymond Losserand,3,26,30,0.1,48.83059564231877,2.3119183257222176,2025-09-13 17:00:00,16.8,1.2,13.8
2025-09-13 17:30:00,15001,Gare Montparnasse - Arrivée,40,1,43,0.9302325581395349,48.843827994315,2.3225811123848,2025-09-13 17:00:00,16.8,1.2,13.8
2025-09-13 17:30:00,15002,Maine - Antoine Bourdelle,7,10,17,0.4117647058823529,48.84308531746595,2.320263946784738,2025-09-13 17:00:00,16.8,1.2,13.8
2025-09-13 17:30:00,15003,Gare Montparnasse - Vaugirard,21,42,66,0.3181818181818182,48.8418071798797,2.31951002690117,2025-09-13 17:00:00,16.8,1.2,13.8
2025-09-13 17:30:00,15004,Vaugirard - Pasteur,3,13,21,0.14285714285714285,48.84040868803496,2.3154367133975033,2025-09-13 17:00:00,16.8,1.2,13.8
2025-09-13 17:30:00,15005,Place Jacques et Thérèse Tréfouël,10,32,43,0.23255813953488372,48.842726498317,2.3125657439232,2025-09-13 17:00:00,16.8,1.2,13.8
2025-09-13 17:30:00,15006,Cherche-Midi - Hôpital Necker,14,23,38,0.3684210526315789,48.84461063309956,2.317914068698883,2025-09-13 17:00:00,16.8,1.2,13.8
2025-09-13 17:30:00,15008,Sèvres - Lecourbe,17,42,62,0.27419354838709675,48.8447677,2.3110086,2025-09-13 17:00:00,16.8,1.2,13.8
2025-09-13 17:30:00,15009,Suffren - Pérignon,17,28,46,0.3695652173913043,48.84717561492764,2.307052147596786,2025-09-13 17:00:00,16.8,1.2,13.8
2025-09-13 17:30:00,15011,Cambronne - Villa Croix Nivert,20,42,62,0.3225806451612903,48.845847561366,2.3017574474216,2025-09-13 17:00:00,16.8,1.2,13.8
2025-09-13 17:30:00,15012,Cambronne - Mademoiselle,26,39,67,0.3880597014925373,48.843277330035214,2.30230766886348,2025-09-13 17:00:00,16.8,1.2,13.8
2025-09-13 17:30:00,15013,Volontaires - Lecourbe,15,11,31,0.4838709677419355,48.84351378799,2.3065522313118,2025-09-13 17:00:00,16.8,1.2,13.8
2025-09-13 17:30:00,15014,Volontaires - Vaugirard,6,26,34,0.17647058823529413,48.84132050184004,2.30808901725357,2025-09-13 17:00:00,16.8,1.2,13.8
2025-09-13 17:30:00,15018,Dutot - Place Alleray,10,43,56,0.17857142857142858,48.836826091766,2.3071701095578,2025-09-13 17:00:00,16.8,1.2,13.8
2025-09-13 17:30:00,15019,Paul Barruel - Vaugirard,3,33,39,0.07692307692307693,48.84014918546239,2.3044332861900334,2025-09-13 17:00:00,16.8,1.2,13.8
2025-09-13 17:30:00,15020,Mairie du 15ème,13,18,32,0.40625,48.8417762,2.2986539,2025-09-13 17:00:00,16.8,1.2,13.8
2025-09-13 17:30:00,15022,Emile Zola - Fondary,26,13,42,0.6190476190476191,48.847051143113745,2.2953405976295476,2025-09-13 17:00:00,16.8,1.2,13.8
2025-09-13 17:30:00,15023,La Motte-Picquet - Grenelle,24,10,34,0.7058823529411765,48.84858321339195,2.299347817897797,2025-09-13 17:00:00,16.8,1.2,13.8
2025-09-13 17:30:00,15024,Suffren - La Motte-Piquet,3,20,23,0.13043478260869565,48.850881230919,2.3012199997902,2025-09-13 17:00:00,16.8,1.2,13.8
2025-09-13 17:30:00,15025,Dupleix - du Guesclin,18,29,47,0.3829787234042553,48.85147910413369,2.296709530055523,2025-09-13 17:00:00,16.8,1.2,13.8
2025-09-13 17:30:00,15028,Grenelle - Dr Finlay,56,12,71,0.7887323943661971,48.851315406715976,2.2919502854347233,2025-09-13 17:00:00,16.8,1.2,13.8
2025-09-13 17:30:00,15029,Emeriau - Place de Brazzaville,30,19,51,0.5882352941176471,48.850785261674964,2.2871585190296173,2025-09-13 17:00:00,16.8,1.2,13.8
2025-09-13 17:30:00,15030,Emeriau - Beaugrenelle,68,5,74,0.918918918918919,48.84791249714942,2.2843059897422795,2025-09-13 17:00:00,16.8,1.2,13.8
2025-09-13 17:30:00,15031,Théâtre - Lourmel,11,40,53,0.20754716981132076,48.8482070397636,2.2898658737540245,2025-09-13 17:00:00,16.8,1.2,13.8
2025-09-13 17:30:00,15033,Place Violet,16,14,30,0.5333333333333333,48.84487893836502,2.2905756533145905,2025-09-13 17:00:00,16.8,1.2,13.8
2025-09-13 17:30:00,15034,Lakanal - Commerce,12,39,53,0.22641509433962265,48.84442462786544,2.294059172272682,2025-09-13 17:00:00,16.8,1.2,13.8
2025-09-13 17:30:00,15035,Place Etienne Pernet,19,21,43,0.4418604651162791,48.84243457133779,2.2921819612383847,2025-09-13 17:00:00,16.8,1.2,13.8
2025-09-13 17:30:00,15039,Abbé Groult - Convention,3,9,12,0.25,48.83596927866069,2.302064039509349,2025-09-13 17:00:00,16.8,1.2,13.8
2025-09-13 17:30:00,15040,Saint-Amand - Labrouste,6,29,36,0.16666666666666666,48.834097274832295,2.3087677359581,2025-09-13 17:00:00,16.8,1.2,13.8
2025-09-13 17:30:00,15042,Henry Farman,8,8,16,0.5,48.83372430280548,2.2713854536414146,2025-09-13 17:00:00,16.8,1.2,13.8
2025-09-13 17:30:00,15043,Brancion - Lefebvre,6,4,11,0.5454545454545454,48.82900222785569,2.301431038163409,2025-09-13 17:00:00,16.8,1.2,13.8
2025-09-13 17:30:00,15044,Dantzig - Lefebvre,3,30,33,0.09090909090909091,48.83013921586756,2.295934036374092,2025-09-13 17:00:00,16.8,1.2,13.8
2025-09-13 17:30:00,15045,Porte de la Plaine,3,32,35,0.08571428571428572,48.82805169605981,2.2924277186393742,2025-09-13 17:00:00,16.8,1.2,13.8
2025-09-13 17:30:00,15046,Parc Georges Brassens - Brancion,0,29,29,0.0,48.83227829269761,2.3022570088505745,2025-09-13 17:00:00,16.8,1.2,13.8
2025-09-13 17:30:00,15047,Morillons - Dantzig,1,50,52,0.019230769230769232,48.83310149953933,2.299380004405976,2025-09-13 17:00:00,16.8,1.2,13.8
2025-09-13 17:30:00,15052,Convention - Vaugirard,11,37,48,0.22916666666666666,48.83767682233156,2.295586926020252,2025-09-13 17:00:00,16.8,1.2,13.8
2025-09-13 17:30:00,15053,Lecourbe - Convention,26,20,46,0.5652173913043478,48.83923319241899,2.2915197908878326,2025-09-13 17:00:00,16.8,1.2,13.8
2025-09-13 17:30:00,15054,Lecourbe - Jean Maridor,5,13,19,0.2631578947368421,48.83796366147599,2.2877392172813416,2025-09-13 17:00:00,16.8,1.2,13.8
2025-09-13 17:30:00,15057,Lucien Bossoutrot - Général Martial Vallin,12,21,39,0.3076923076923077,48.836956046311,2.2741072252393,2025-09-13 17:00:00,16.8,1.2,13.8
2025-09-13 17:30:00,15060,Place de la Montagne du Goulet,13,8,21,0.6190476190476191,48.8443415,2.2773844,2025-09-13 17:00:00,16.8,1.2,13.8
2025-09-13 17:30:00,15061,Square Desnouettes,15,5,22,0.6818181818181818,48.83476837934194,2.284142297394666,2025-09-13 17:00:00,16.8,1.2,13.8
2025-09-13 17:30:00,15062,Convention - Lourmel,30,1,36,0.8333333333333334,48.842055041656,2.2859910875559,2025-09-13 17:00:00,16.8,1.2,13.8
2025-09-13 17:30:00,15063,Convention - Saint-Charles,23,0,23,1.0,48.843156111116,2.2831090539694,2025-09-13 17:00:00,16.8,1.2,13.8
2025-09-13 17:30:00,15064,Javel - André Citroën,32,10,45,0.7111111111111111,48.846276485475,2.2786368057132,2025-09-13 17:00:00,16.8,1.2,13.8
2025-09-13 17:30:00,15067,Desaix - Edgar Faure,10,0,12,0.8333333333333334,48.852804604940296,2.293077029857222,2025-09-13 17:00:00,16.8,1.2,13.8
2025-09-13 17:30:00,15068,Général Martial Valin - Pont du Garigliano,8,7,16,0.5,48.83823094269141,2.270506024360657,2025-09-13 17:00:00,16.8,1.2,13.8
2025-09-13 17:30:00,15069,Félix Faure - Convention,37,5,44,0.8409090909090909,48.841249336041,2.2883866008495,2025-09-13 17:00:00,16.8,1.2,13.8
2025-09-13 17:30:00,15070,Balard - Montagne de la Fage,10,24,36,0.2777777777777778,48.838507403334,2.2782871127129,2025-09-13 17:00:00,16.8,1.2,13.8
2025-09-13 17:30:00,15071,Suffren - Champ de Mars,18,4,23,0.782608695652174,48.8547194,2.2952168,2025-09-13 17:00:00,16.8,1.2,13.8
2025-09-13 17:30:00,15072,Place Fernand Forest,27,4,33,0.8181818181818182,48.849269143836,2.281863167882,2025-09-13 17:00:00,16.8,1.2,13.8
2025-09-13 17:30:00,15103,Cauchy - Cévennes,2,46,51,0.0392156862745098,48.843372571022,2.2751328349113,2025-09-13 17:00:00,16.8,1.2,13.8
2025-09-13 17:30:00,15104,Hôpital Européen Georges Pompidou,18,45,64,0.28125,48.837695319163,2.2753742337227,2025-09-13 17:00:00,16.8,1.2,13.8
2025-09-13 17:30:00,15105,Fédération - Suffren,17,8,25,0.68,48.852828153442,2.2978776320815,2025-09-13 17:00:00,16.8,1.2,13.8
2025-09-13 17:30:00,15106,Grenelle - Violet,11,22,35,0.3142857142857143,48.84993035512154,2.294612042605877,2025-09-13 17:00:00,16.8,1.2,13.8
2025-09-13 17:30:00,15107,Palais des Sports,18,3,22,0.8181818181818182,48.833468517426,2.2858720645308,2025-09-13 17:00:00,16.8,1.2,13.8
2025-09-13 17:30:00,15108,Lourmel - Marie Skobtsov,12,10,22,0.5454545454545454,48.844974,2.287283,2025-09-13 17:00:00,16.8,1.2,13.8
2025-09-13 17:30:00,15109,Cevennes - Bergers,22,5,29,0.7586206896551724,48.84240765130395,2.281037718057633,2025-09-13 17:00:00,16.8,1.2,13.8
2025-09-13 17:30:00,15110,Place Robert Guillemard,2,21,24,0.08333333333333333,48.836191728066666,2.2811267160086417,2025-09-13 17:00:00,16.8,1.2,13.8
2025-09-13 17:30:00,15111,Olivier de Serres - Leriche,5,17,25,0.2,48.83460221715206,2.2957482933998112,2025-09-13 17:00:00,16.8,1.2,13.8
2025-09-13 17:30:00,15113,Arsonval - Falguière,3,21,25,0.12,48.84040040365445,2.313117867297474,2025-09-13 17:00:00,16.8,1.2,13.8
2025-09-13 17:30:00,15114,Pasteur - Cotentin,2,7,33,0.06060606060606061,48.8389284,2.316356,2025-09-13 17:00:00,16.8,1.2,13.8
2025-09-13 17:30:00,15120,Colonel Pierre Avia,28,0,29,0.9655172413793104,48.8296843300915,2.275342586850291,2025-09-13 17:00:00,16.8,1.2,13.8
2025-09-13 17:30:00,15125,Parc Suzanne Lenglen,27,24,52,0.5192307692307693,48.833250690537874,2.2765403240919113,2025-09-13 17:00:00,16.8,1.2,13.8
2025-09-13 17:30:00,15128,Cadix - Hameau,19,17,37,0.5135135135135135,48.8340107632249,2.289516180753708,2025-09-13 17:00:00,16.8,1.2,13.8
2025-09-13 17:30:00,15131,Charles Lecocq - Lecourbe,11,35,48,0.22916666666666666,48.84044,2.294867,2025-09-13 17:00:00,16.8,1.2,13.8
2025-09-13 17:30:00,15132,Bargue -  Dutot,4,17,21,0.19047619047619047,48.837884,2.308876,2025-09-13 17:00:00,16.8,1.2,13.8
2025-09-13 17:30:00,15133,Saint Lambert - Blomet,10,14,27,0.37037037037037035,48.83659148147257,2.2930556908249855,2025-09-13 17:00:00,16.8,1.2,13.8
2025-09-13 17:30:00,15201,Place Amédée Gordini - Lefebvre,4,31,38,0.10526315789473684,48.83061737745,2.2920634208276,2025-09-13 17:00:00,16.8,1.2,13.8
2025-09-13 17:30:00,15202,Bracion - Périphérique,5,25,30,0.16666666666666666,48.826103771275,2.3004549373748,2025-09-13 17:00:00,16.8,1.2,13.8
2025-09-13 17:30:00,15203,Porte de Versailles,20,7,28,0.7142857142857143,48.832324016657,2.2875617349045,2025-09-13 17:00:00,16.8,1.2,13.8
2025-09-13 17:30:00,15311,Quai du Président Roosevelt - Pont Aval,3,26,30,0.1,48.834388367639,2.2656820714474,2025-09-13 17:00:00,16.8,1.2,13.8
2025-09-13 17:30:00,16002,Pergolèse - Malakoff,0,38,38,0.0,48.87521088779225,2.2842781618237495,2025-09-13 17:00:00,16.8,1.2,13.8
2025-09-13 17:30:00,16003,André Maurois - Joseph et Marie Hackin,7,23,29,0.2413793103448276,48.8778983,2.2789591,2025-09-13 17:00:00,16.8,1.2,13.8
2025-09-13 17:30:00,16006,Lauriston - Copernic,5,13,19,0.2631578947368421,48.86926,2.289918,2025-09-13 17:00:00,16.8,1.2,13.8
2025-09-13 17:30:00,16007,Longchamp - Place d'Iéna,5,5,10,0.5,48.864917233434,2.2926748171449,2025-09-13 17:00:00,16.8,1.2,13.8
2025-09-13 17:30:00,16008,Galilée - Kléber,8,22,32,0.25,48.867411865714,2.2907813801148,2025-09-13 17:00:00,16.8,1.2,13.8
2025-09-13 17:30:00,16009,Saint-Didier - Raymond Poincaré,0,16,17,0.0,48.86642312020962,2.285863497192411,2025-09-13 17:00:00,16.8,1.2,13.8
2025-09-13 17:30:00,16010,Belles Feuilles - Place de Mexico,2,21,23,0.08695652173913043,48.865804746474,2.2829206287861,2025-09-13 17:00:00,16.8,1.2,13.8
2025-09-13 17:30:00,16011,Victor Hugo - La Pompe,2,36,41,0.04878048780487805,48.86795222470859,2.28146318346262,2025-09-13 17:00:00,16.8,1.2,13.8
2025-09-13 17:30:00,16012,Flandrin - Longchamp,3,39,42,0.07142857142857142,48.86877849178477,2.274354539176829,2025-09-13 17:00:00,16.8,1.2,13.8
2025-09-13 17:30:00,16014,Eylau - Trocadéro,6,17,24,0.25,48.863354122371,2.2864209115505,2025-09-13 17:00:00,16.8,1.2,13.8
2025-09-13 17:30:00,16015,Bassano -  Iéna,1,13,15,0.06666666666666667,48.868144510482075,2.296149600985935,2025-09-13 17:00:00,16.8,1.2,13.8
2025-09-13 17:30:00,16017,Siam - La Pompe,4,12,16,0.25,48.861720329027264,2.275346568555312,2025-09-13 17:00:00,16.8,1.2,13.8
2025-09-13 17:30:00,16019,Porte de la Muette,1,34,36,0.027777777777777776,48.86302317841182,2.2687188170157406,2025-09-13 17:00:00,16.8,1.2,13.8
2025-09-13 17:30:00,16020,Place de la Porte de Passy,1,33,36,0.027777777777777776,48.857341095470794,2.2644165538827115,2025-09-13 17:00:00,16.8,1.2,13.8
2025-09-13 17:30:00,16021,François Ponsard - La Muette,10,12,23,0.43478260869565216,48.8583666,2.2744515,2025-09-13 17:00:00,16.8,1.2,13.8
2025-09-13 17:30:00,16022,Jean Bologne - Passy,1,17,19,0.05263157894736842,48.857566889784465,2.280027395306772,2025-09-13 17:00:00,16.8,1.2,13.8
2025-09-13 17:30:00,16023,Passy - Place du Costa Rica,4,28,33,0.12121212121212122,48.8584893,2.2839655,2025-09-13 17:00:00,16.8,1.2,13.8
2025-09-13 17:30:00,16024,Ranelagh - Maison de la Radio,18,3,22,0.8181818181818182,48.85293603169479,2.280449643731117,2025-09-13 17:00:00,16.8,1.2,13.8
2025-09-13 17:30:00,16025,Jean de la Fontaine - Boulainvilliers,22,44,68,0.3235294117647059,48.85264791461651,2.2758664190769196,2025-09-13 17:00:00,16.8,1.2,13.8
2025-09-13 17:30:00,16026,Ranelagh - Mozart,7,14,23,0.30434782608695654,48.8554439,2.2704418,2025-09-13 17:00:00,16.8,1.2,13.8
2025-09-13 17:30:00,16027,Mozart - Jasmin,13,48,62,0.20967741935483872,48.85286124871689,2.268483570651513,2025-09-13 17:00:00,16.8,1.2,13.8
2025-09-13 17:30:00,16029,Maison de Radio - France,45,1,47,0.9574468085106383,48.85132886434057,2.277785539627075,2025-09-13 17:00:00,16.8,1.2,13.8
2025-09-13 17:30:00,16031,Vignes - Boulainvilliers,5,16,21,0.23809523809523808,48.856399483950504,2.275240458548069,2025-09-13 17:00:00,16.8,1.2,13.8
2025-09-13 17:30:00,16032,Eglise d'Auteuil,5,15,21,0.23809523809523808,48.84749841771691,2.26848387135299,2025-09-13 17:00:00,16.8,1.2,13.8
2025-09-13 17:30:00,16034,Porte d'Auteuil,12,19,33,0.36363636363636365,48.8479394142243,2.2608396783471107,2025-09-13 17:00:00,16.8,1.2,13.8
2025-09-13 17:30:00,16039,Exelmans - Versailles,30,18,49,0.6122448979591837,48.84097491091973,2.264390252530575,2025-09-13 17:00:00,16.8,1.2,13.8
2025-09-13 17:30:00,16040,Exelmans - Michel-Ange,28,4,33,0.8484848484848485,48.84309486651855,2.2597770800669053,2025-09-13 17:00:00,16.8,1.2,13.8
2025-09-13 17:30:00,16041,Versailles - Claude Terrasse,12,34,46,0.2608695652173913,48.840219338074,2.263834191153,2025-09-13 17:00:00,16.8,1.2,13.8
2025-09-13 17:30:00,16042,Murat - Porte de Saint-Cloud,36,2,38,0.9473684210526315,48.83750862621299,2.2577651962637906,2025-09-13 17:00:00,16.8,1.2,13.8
2025-09-13 17:30:00,16043,Place de Passy,6,6,15,0.4,48.85780291711202,2.277500546942199,2025-09-13 17:00:00,16.8,1.2,13.8
2025-09-13 17:30:00,16044,Porte de Saint Cloud - Parc des Princes,22,9,32,0.6875,48.838662757066,2.2525164484978,2025-09-13 17:00:00,16.8,1.2,13.8
2025-09-13 17:30:00,16101,Malakoff - Place de la Porte Maillot,1,26,28,0.03571428571428571,48.876733496638,2.2834577411413,2025-09-13 17:00:00,16.8,1.2,13.8
2025-09-13 17:30:00,16102,Pergolèse - Marbeau,3,24,27,0.1111111111111111,48.873568706869,2.2815125225299,2025-09-13 17:00:00,16.8,1.2,13.8
2025-09-13 17:30:00,16104,Paul Valery - Victor Hugo,2,33,35,0.05714285714285714,48.87137406080164,2.2887128591537476,2025-09-13 17:00:00,16.8,1.2,13.8
2025-09-13 17:30:00,16105,Crevaux - Bugeaud,2,27,31,0.06451612903225806,48.87080942867,2.2811490076919,2025-09-13 17:00:00,16.8,1.2,13.8
2025-09-13 17:30:00,16107,Benjamin Godard - Victor Hugo,15,20,35,0.42857142857142855,48.865983,2.275725,2025-09-13 17:00:00,16.8,1.2,13.8
2025-09-13 17:30:00,16108,Sablons - Georges Mandel,2,36,38,0.05263157894736842,48.863875,2.28189,2025-09-13 17:00:00,16.8,1.2,13.8
2025-09-13 17:30:00,16110,Octave Feuillet - Albéric Magnard,2,19,21,0.09523809523809523,48.86106902949534,2.2730283066630363,2025-09-13 17:00:00,16.8,1.2,13.8
2025-09-13 17:30:00,16111,Faustin Hélie - Desbordes-Valmore,4,25,33,0.12121212121212122,48.859403,2.276522,2025-09-13 17:00:00,16.8,1.2,13.8
2025-09-13 17:30:00,16112,Chernoviz - Raynouard,11,24,37,0.2972972972972973,48.8569864146289,2.282173218142987,2025-09-13 17:00:00,16.8,1.2,13.8
2025-09-13 17:30:00,16115,Raffet - Montmorency,10,32,42,0.23809523809523808,48.85258670812,2.2629252456151954,2025-09-13 17:00:00,16.8,1.2,13.8
2025-09-13 17:30:00,16118,Michel-Ange - Parent de Rosan,14,11,26,0.5384615384615384,48.840579923690115,2.2584119439125065,2025-09-13 17:00:00,16.8,1.2,13.8
2025-09-13 17:30:00,16121,Jardin d'Acclimatation,23,9,33,0.696969696969697,48.878772242510465,2.270772233605385,2025-09-13 17:00:00,16.8,1.2,13.8
2025-09-13 17:30:00,16122,Route de la Muette - Porte de Neuilly,23,24,50,0.46,48.8798926,2.2587671,2025-09-13 17:00:00,16.8,1.2,13.8
2025-09-13 17:30:00,16123,Mahatma Gandhi,11,13,26,0.4230769230769231,48.876356,2.264205,2025-09-13 17:00:00,16.8,1.2,13.8
2025-09-13 17:30:00,16124,Route de Sèvres - Porte de Bagatelle,44,21,66,0.6666666666666666,48.87525984132485,2.249415814876557,2025-09-13 17:00:00,16.8,1.2,13.8
2025-09-13 17:30:00,16136,Théophile Gautier - François Millet,6,21,30,0.2,48.85034821320644,2.273029983043671,2025-09-13 17:00:00,16.8,1.2,13.8
2025-09-13 17:30:00,16138,Saint-Cloud - Hippodrome,0,30,30,0.0,48.85772148887421,2.2549109905958176,2025-09-13 17:00:00,16.8,1.2,13.8
2025-09-13 17:30:00,16139,Suresnes - Muette à Neuilly,5,24,30,0.16666666666666666,48.868570404348,2.266000919044,2025-09-13 17:00:00,16.8,1.2,13.8
2025-09-13 17:30:00,16140,Hippodrome de Longchamp,9,20,30,0.3,48.86413226532,2.239905372262,2025-09-13 17:00:00,16.8,1.2,13.8
2025-09-13 17:30:00,16201,Porte Dauphine,8,57,65,0.12307692307692308,48.871139344351,2.2749781616017,2025-09-13 17:00:00,16.8,1.2,13.8
2025-09-13 17:30:00,17004,Legendre - Clichy,6,33,40,0.15,48.88896161855884,2.322528975094376,2025-09-13 17:00:00,16.8,1.2,13.8
2025-09-13 17:30:00,17005,Brochant - Clichy,7,44,53,0.1320754716981132,48.89032998912038,2.319730559929781,2025-09-13 17:00:00,16.8,1.2,13.8
2025-09-13 17:30:00,17006,Guy Môquet - Compoint,11,25,36,0.3055555555555556,48.89213559044868,2.32321947813034,2025-09-13 17:00:00,16.8,1.2,13.8
2025-09-13 17:30:00,17007,Navier - Epinettes,6,48,54,0.1111111111111111,48.89587780769155,2.3226776719093327,2025-09-13 17:00:00,16.8,1.2,13.8
2025-09-13 17:30:00,17008,Porte Pouchet-Bessières,8,14,23,0.34782608695652173,48.8978765,2.3230632,2025-09-13 17:00:00,16.8,1.2,13.8
2025-09-13 17:30:00,17010,Jonquière - Docteur Paul Brousse,1,52,54,0.018518518518518517,48.894799816683985,2.318705212173216,2025-09-13 17:00:00,16.8,1.2,13.8
2025-09-13 17:30:00,17011,Fragonard - Porte de Clichy,48,8,56,0.8571428571428571,48.894155633419,2.3143893107772,2025-09-13 17:00:00,16.8,1.2,13.8
2025-09-13 17:30:00,17013,Legendre - Dulong,1,21,23,0.043478260869565216,48.885325169402904,2.316423766314984,2025-09-13 17:00:00,16.8,1.2,13.8
2025-09-13 17:30:00,17015,Place de Lévis,4,41,48,0.08333333333333333,48.883546851533254,2.3131933808326726,2025-09-13 17:00:00,16.8,1.2,13.8
2025-09-13 17:30:00,17016,Brochant - Square des Batignolles,4,26,31,0.12903225806451613,48.88818698581028,2.316861143151153,2025-09-13 17:00:00,16.8,1.2,13.8
2025-09-13 17:30:00,17017,Gare de Pont-Cardinet,8,23,34,0.23529411764705882,48.88713901475306,2.314494143994255,2025-09-13 17:00:00,16.8,1.2,13.8
2025-09-13 17:30:00,17018,Parc Monceau,4,14,18,0.2222222222222222,48.881077914129,2.3095492646098,2025-09-13 17:00:00,16.8,1.2,13.8
2025-09-13 17:30:00,17019,Phalsbourg - Villiers,4,15,19,0.21052631578947367,48.88242307900951,2.3090453445911407,2025-09-13 17:00:00,16.8,1.2,13.8
2025-09-13 17:30:00,17020,Jouffroy d'Abbans - Malesherbes,2,25,27,0.07407407407407407,48.8850134,2.3070717,2025-09-13 17:00:00,16.8,1.2,13.8
2025-09-13 17:30:00,17021,Jouffroy d'Abbans - Villiers,4,29,34,0.11764705882352941,48.884215547037,2.3056533560157,2025-09-13 17:00:00,16.8,1.2,13.8
2025-09-13 17:30:00,17022,Pereire - Place de Wagram,5,40,46,0.10869565217391304,48.887070607581215,2.304111124531457,2025-09-13 17:00:00,16.8,1.2,13.8
2025-09-13 17:30:00,17023,Porte d'Asnières,3,29,36,0.08333333333333333,48.89035817610495,2.3036286234855656,2025-09-13 17:00:00,16.8,1.2,13.8
2025-09-13 17:30:00,17025,Chazelles - Courcelles,6,28,35,0.17142857142857143,48.879406604954,2.3034455627202988,2025-09-13 17:00:00,16.8,1.2,13.8
2025-09-13 17:30:00,17026,Jouffroy d'Abbans - Wagram,8,31,40,0.2,48.881973298352,2.301132157445,2025-09-13 17:00:00,16.8,1.2,13.8
2025-09-13 17:30:00,17028,Reims - Raymond Pitet,1,31,37,0.02702702702702703,48.8888,2.296319,2025-09-13 17:00:00,16.8,1.2,13.8
2025-09-13 17:30:00,17030,Pereire - Rennequin,12,9,23,0.5217391304347826,48.88364782887555,2.2952447086572647,2025-09-13 17:00:00,16.8,1.2,13.8
2025-09-13 17:30:00,17032,Jean Oestreicher - Porte de Champerret,4,17,21,0.19047619047619047,48.88655580065981,2.288640439510346,2025-09-13 17:00:00,16.8,1.2,13.8
2025-09-13 17:30:00,17033,Carnot - Général Lanrezac,8,20,30,0.26666666666666666,48.875443870736,2.2938242935036,2025-09-13 17:00:00,16.8,1.2,13.8
2025-09-13 17:30:00,17036,Place Tristan Bernard,3,25,28,0.10714285714285714,48.8794936,2.2915423,2025-09-13 17:00:00,16.8,1.2,13.8
2025-09-13 17:30:00,17038,Grande Armée - Brunel,3,58,62,0.04838709677419355,48.876116,2.288124,2025-09-13 17:00:00,16.8,1.2,13.8
2025-09-13 17:30:00,17039,Place Saint-Ferdinand,4,32,38,0.10526315789473684,48.87815529789739,2.288518047864942,2025-09-13 17:00:00,16.8,1.2,13.8
2025-09-13 17:30:00,17040,Pereire - Ternes,1,47,48,0.020833333333333332,48.87973954830735,2.288012132048607,2025-09-13 17:00:00,16.8,1.2,13.8
2025-09-13 17:30:00,17043,Belidor - Gouvion-Saint-Cyr,15,22,39,0.38461538461538464,48.88022154052015,2.2854680567979813,2025-09-13 17:00:00,16.8,1.2,13.8
2025-09-13 17:30:00,17044,Porte de Saint-Ouen - Bessières,5,36,42,0.11904761904761904,48.89792240854517,2.32851451022192,2025-09-13 17:00:00,16.8,1.2,13.8
2025-09-13 17:30:00,17045,Place des Ternes.,22,23,46,0.4782608695652174,48.878438631226516,2.297727763652802,2025-09-13 17:00:00,16.8,1.2,13.8
2025-09-13 17:30:00,17046,Mac-Mahon - Brey,7,14,25,0.28,48.877532084130166,2.294512536052928,2025-09-13 17:00:00,16.8,1.2,13.8
2025-09-13 17:30:00,17047,Courcelles - Pierre Demours,4,22,26,0.15384615384615385,48.883769733273496,2.29858466343129,2025-09-13 17:00:00,16.8,1.2,13.8
2025-09-13 17:30:00,17048,De Toqueville - Terrasse,3,25,30,0.1,48.882428,2.314002,2025-09-13 17:00:00,16.8,1.2,13.8
2025-09-13 17:30:00,17050,Batignolles - Abel Truchet,3,24,28,0.10714285714285714,48.883103904582,2.3238347490884,2025-09-13 17:00:00,16.8,1.2,13.8
2025-09-13 17:30:00,17102,Alfred Roll - Berthier,10,18,28,0.35714285714285715,48.887808570529,2.3000952981763,2025-09-13 17:00:00,16.8,1.2,13.8
2025-09-13 17:30:00,17104,Jardin Marguerite Long,4,18,22,0.18181818181818182,48.8816985773914,2.2836575657129288,2025-09-13 17:00:00,16.8,1.2,13.8
2025-09-13 17:30:00,17105,Place Madeleine Daniélou,7,33,42,0.16666666666666666,48.883498,2.282015,2025-09-13 17:00:00,16.8,1.2,13.8
2025-09-13 17:30:00,17107,Berthier - Place Stuart Merril,1,36,37,0.02702702702702703,48.885927922355044,2.2933450341224675,2025-09-13 17:00:00,16.8,1.2,13.8
2025-09-13 17:30:00,17108,Bessières - Porte de Clichy,15,16,33,0.45454545454545453,48.89611762451474,2.31790903955698,2025-09-13 17:00:00,16.8,1.2,13.8
2025-09-13 17:30:00,17110,Legendre - Nollet,6,24,30,0.2,48.887742186754224,2.320293079881375,2025-09-13 17:00:00,16.8,1.2,13.8
2025-09-13 17:30:00,17111,Lemercier - Cardinet,10,12,24,0.4166666666666667,48.890097168851746,2.317377626895905,2025-09-13 17:00:00,16.8,1.2,13.8
2025-09-13 17:30:00,17116,Reims - Porte d'Asnières,8,18,26,0.3076923076923077,48.891834448210986,2.300144659954865,2025-09-13 17:00:00,16.8,1.2,13.8
2025-09-13 17:30:00,17119,Toqueville - Cardinet,5,28,33,0.15151515151515152,48.88490187110713,2.3109393194317818,2025-09-13 17:00:00,16.8,1.2,13.8
2025-09-13 17:30:00,17121,Square des Epinettes,5,15,20,0.25,48.89383909781389,2.325953990221024,2025-09-13 17:00:00,16.8,1.2,13.8
2025-09-13 17:30:00,17122,Bridaine - Lamandé,10,19,29,0.3448275862068966,48.8862074,2.3206239,2025-09-13 17:00:00,16.8,1.2,13.8
2025-09-13 17:30:00,17123,Mstislav Rostropovitch - Berthier,5,13,18,0.2777777777777778,48.892120821173975,2.309234105050564,2025-09-13 17:00:00,16.8,1.2,13.8
2025-09-13 17:30:00,17125,Marie-Georges Picquart - Pereire,3,29,32,0.09375,48.88863669349711,2.3111706599593163,2025-09-13 17:00:00,16.8,1.2,13.8
2025-09-13 17:30:00,17126,Hélène et François Missoffe - Emile Borel,11,21,32,0.34375,48.89990653843488,2.321543991674844,2025-09-13 17:00:00,16.8,1.2,13.8
2025-09-13 17:30:00,17127,Porte de Clichy - Place des Nations Unies,16,24,40,0.4,48.896737263309504,2.310542999196392,2025-09-13 17:00:00,16.8,1.2,13.8
2025-09-13 17:30:00,17201,Porte Maillot - Perreire,11,40,51,0.21568627450980393,48.878021154637,2.2842371277102,2025-09-13 17:00:00,16.8,1.2,13.8
2025-09-13 17:30:00,17202,Mariotte - Batignolles,2,18,20,0.1,48.884571659595,2.321469503475,2025-09-13 17:00:00,16.8,1.2,13.8
2025-09-13 17:30:00,17203,Place de la Porte de Champeret,8,20,28,0.2857142857142857,48.886062068226,2.2917001576821,2025-09-13 17:00:00,16.8,1.2,13.8
2025-09-13 17:30:00,17204,Paul Bodin - Clichy,12,20,33,0.36363636363636365,48.892594758409,2.3171403311203,2025-09-13 17:00:00,16.8,1.2,13.8
2025-09-13 17:30:00,18003,Cimetière de Montmartre,4,37,43,0.09302325581395349,48.886472466142,2.3328901827335,2025-09-13 17:00:00,16.8,1.2,13.8
2025-09-13 17:30:00,18004,Place des Abbesses,4,8,12,0.3333333333333333,48.884542726149725,2.3386867716908455,2025-09-13 17:00:00,16.8,1.2,13.8
2025-09-13 17:30:00,18006,Square Louise Michel,4,31,36,0.1111111111111111,48.884687354509,2.3441386967897,2025-09-13 17:00:00,16.8,1.2,13.8
2025-09-13 17:30:00,18007,Goutte d'or - Barbès,6,12,20,0.3,48.885124323627,2.3496962338686,2025-09-13 17:00:00,16.8,1.2,13.8
2025-09-13 17:30:00,18008,Square Léon,7,26,33,0.21212121212121213,48.88667396788626,2.353205569088459,2025-09-13 17:00:00,16.8,1.2,13.8
2025-09-13 17:30:00,18009,Jean-François Lépine - Stephenson,2,18,22,0.09090909090909091,48.88611466796807,2.356855627529275,2025-09-13 17:00:00,16.8,1.2,13.8
2025-09-13 17:30:00,18010,Riquet - Marx Dormoy,2,32,36,0.05555555555555555,48.89021003702,2.3601756244898,2025-09-13 17:00:00,16.8,1.2,13.8
2025-09-13 17:30:00,18011,Pajol - Place Herbert,11,27,39,0.28205128205128205,48.8927825,2.3635598,2025-09-13 17:00:00,16.8,1.2,13.8
2025-09-13 17:30:00,18012,Stephenson - Doudeauville,3,32,36,0.08333333333333333,48.888537048944826,2.3561610281467438,2025-09-13 17:00:00,16.8,1.2,13.8
2025-09-13 17:30:00,18014,Léon - Doudeauville,8,5,13,0.6153846153846154,48.888324218452,2.3535733726386,2025-09-13 17:00:00,16.8,1.2,13.8
2025-09-13 17:30:00,18015,Custine - Ramey,8,30,41,0.1951219512195122,48.888735896947,2.3469526693225,2025-09-13 17:00:00,16.8,1.2,13.8
2025-09-13 17:30:00,18017,Caulaincourt - Place Constantin Pecqueur,6,35,44,0.13636363636363635,48.889677905028,2.3381787144261,2025-09-13 17:00:00,16.8,1.2,13.8
2025-09-13 17:30:00,18018,Carpeaux - Place Jacques Froment,4,12,19,0.21052631578947367,48.8906542,2.3309428,2025-09-13 17:00:00,16.8,1.2,13.8
2025-09-13 17:30:00,18019,Square Raymond Souplex,3,49,52,0.057692307692307696,48.89183721478911,2.335426103165901,2025-09-13 17:00:00,16.8,1.2,13.8
2025-09-13 17:30:00,18020,Francoeur - Marcadet,3,15,20,0.15,48.89104123261663,2.340014585442034,2025-09-13 17:00:00,16.8,1.2,13.8
2025-09-13 17:30:00,18022,Marcadet - Barbès,7,28,37,0.1891891891891892,48.890451120965,2.3490573929687,2025-09-13 17:00:00,16.8,1.2,13.8
2025-09-13 17:30:00,18023,Ordener - Poissonniers,8,27,35,0.22857142857142856,48.891213890844654,2.351288666219873,2025-09-13 17:00:00,16.8,1.2,13.8
2025-09-13 17:30:00,18024,Clignancourt - Ordener,2,33,35,0.05714285714285714,48.891457726153774,2.348636478060487,2025-09-13 17:00:00,16.8,1.2,13.8
2025-09-13 17:30:00,18025,Mairie du 18ème,9,29,40,0.225,48.892939296937605,2.3445510864257812,2025-09-13 17:00:00,16.8,1.2,13.8
2025-09-13 17:30:00,18026,Ruisseau - Ordener,8,24,35,0.22857142857142856,48.89299462568024,2.340144887566567,2025-09-13 17:00:00,16.8,1.2,13.8
2025-09-13 17:30:00,18028,Championnet - Vauvenargues,5,25,33,0.15151515151515152,48.89401874744574,2.3319872841238976,2025-09-13 17:00:00,16.8,1.2,13.8
2025-09-13 17:30:00,18029,Emile Blemont - Poteau,10,29,39,0.2564102564102564,48.8943782,2.3415122,2025-09-13 17:00:00,16.8,1.2,13.8
2025-09-13 17:30:00,18030,Joseph Dijon - Ornano,5,30,37,0.13513513513513514,48.89374453351521,2.3476678133010864,2025-09-13 17:00:00,16.8,1.2,13.8
2025-09-13 17:30:00,18033,Belliard - Damrémont,7,26,34,0.20588235294117646,48.89669238777841,2.338023450388167,2025-09-13 17:00:00,16.8,1.2,13.8
2025-09-13 17:30:00,18035,René Binet - Porte de Montmartre,10,24,37,0.2702702702702703,48.89905109950848,2.3365534096956253,2025-09-13 17:00:00,16.8,1.2,13.8
2025-09-13 17:30:00,18039,Jardins d'Eole,4,16,20,0.2,48.8869703,2.3668488,2025-09-13 17:00:00,16.8,1.2,13.8
2025-09-13 17:30:00,18041,Rochechouart - Martyrs,3,2,20,0.15,48.882193779572,2.3405495658517,2025-09-13 17:00:00,16.8,1.2,13.8
2025-09-13 17:30:00,18042,Place Pigalle,10,6,21,0.47619047619047616,48.8827555,2.3361566,2025-09-13 17:00:00,16.8,1.2,13.8
2025-09-13 17:30:00,18043,Clichy - Place Blanche,6,12,20,0.3,48.883601088297,2.3332237824798,2025-09-13 17:00:00,16.8,1.2,13.8
2025-09-13 17:30:00,18044,Clichy - Douai,20,9,32,0.625,48.883687771522,2.328063700029,2025-09-13 17:00:00,16.8,1.2,13.8
2025-09-13 17:30:00,18045,Pierre Ginier - Clichy,8,8,16,0.5,48.8867667,2.326228,2025-09-13 17:00:00,16.8,1.2,13.8
2025-09-13 17:30:00,18046,Etienne Jodelle - Saint Ouen,8,24,33,0.24242424242424243,48.88794016394694,2.326124420314341,2025-09-13 17:00:00,16.8,1.2,13.8
2025-09-13 17:30:00,18049,Porte d'Aubervilliers,8,45,55,0.14545454545454545,48.89859661942376,2.3689722642302513,2025-09-13 17:00:00,16.8,1.2,13.8
2025-09-13 17:30:00,18101,Championnet.,4,18,22,0.18181818181818182,48.8953643,2.3498166,2025-09-13 17:00:00,16.8,1.2,13.8
2025-09-13 17:30:00,18107,Chartres - La Charbonnière,3,29,34,0.08823529411764706,48.8847601,2.3534657,2025-09-13 17:00:00,16.8,1.2,13.8
2025-09-13 17:30:00,18109,Pajol - Riquet,5,41,47,0.10638297872340426,48.88960028134536,2.3628534749150276,2025-09-13 17:00:00,16.8,1.2,13.8
2025-09-13 17:30:00,18110,Departement - Pajol,3,16,19,0.15789473684210525,48.886674849730184,2.3613611608743668,2025-09-13 17:00:00,16.8,1.2,13.8
2025-09-13 17:30:00,18111,Félix Ziem - Armand Gauthier,4,21,25,0.16,48.88949630486821,2.333393658804396,2025-09-13 17:00:00,16.8,1.2,13.8
2025-09-13 17:30:00,18112,Arthur Ranc - Hôpital Bichat,1,25,26,0.038461538461538464,48.8978712500682,2.333521842956543,2025-09-13 17:00:00,16.8,1.2,13.8
2025-09-13 17:30:00,18113,Lepic - Armée d'Orient,1,23,24,0.041666666666666664,48.887536403814,2.3343077301979,2025-09-13 17:00:00,16.8,1.2,13.8
2025-09-13 17:30:00,18114,Véron - Lepic,5,18,23,0.21739130434782608,48.885261233953,2.3345598578453,2025-09-13 17:00:00,16.8,1.2,13.8
2025-09-13 17:30:00,18134,Ney - Porte de Clignancourt,4,22,25,0.16,48.8978867,2.3458001,2025-09-13 17:00:00,16.8,1.2,13.8
2025-09-13 17:30:00,18135,Ney - Porte de Montmartre,0,24,24,0.0,48.897918,2.3364872,2025-09-13 17:00:00,16.8,1.2,13.8
2025-09-13 17:30:00,18137,Poissonniers - Nord,4,24,28,0.14285714285714285,48.892511213520656,2.3522228747606277,2025-09-13 17:00:00,16.8,1.2,13.8
2025-09-13 17:30:00,18138,Station Paris Basketball - Ney - Charles Hermite,18,1,20,0.9,48.898748039775,2.3645754531026,2025-09-13 17:00:00,16.8,1.2,13.8
2025-09-13 17:30:00,18139,Poissonniers - Championnet,4,23,28,0.14285714285714285,48.89543299733937,2.3530178144574165,2025-09-13 17:00:00,16.8,1.2,13.8
2025-09-13 17:30:00,18140,Porte de Clignancourt - Ney,11,27,40,0.275,48.899641123987095,2.344321422278881,2025-09-13 17:00:00,16.8,1.2,13.8
2025-09-13 17:30:00,18142,Jessaint - Marx Dormoy,4,24,30,0.13333333333333333,48.88484543106364,2.358930408954621,2025-09-13 17:00:00,16.8,1.2,13.8
2025-09-13 17:30:00,18201,Tristan Tzara -  Tchaïkovski,21,11,33,0.6363636363636364,48.89490221746837,2.3648490384221077,2025-09-13 17:00:00,16.8,1.2,13.8
2025-09-13 17:30:00,18202,Diane Arbus,13,22,38,0.34210526315789475,48.898800717199,2.3524022474885,2025-09-13 17:00:00,16.8,1.2,13.8
2025-09-13 17:30:00,18204,Porte de la Chapelle - Boulevard Ney,11,38,52,0.21153846153846154,48.900097357789,2.3586005020149,2025-09-13 17:00:00,16.8,1.2,13.8
2025-09-13 17:30:00,18205,Mauroy - Cheminots,8,22,32,0.25,48.897715198403,2.357895075822,2025-09-13 17:00:00,16.8,1.2,13.8
2025-09-13 17:30:00,18206,Albert Kahn - Duhesme,6,32,38,0.15789473684210525,48.895623001056,2.345815078896,2025-09-13 17:00:00,16.8,1.2,13.8
2025-09-13 17:30:00,19001,Crimée - Ourcq,12,36,56,0.21428571428571427,48.894104140316,2.3729460884673,2025-09-13 17:00:00,16.8,1.2,13.8
2025-09-13 17:30:00,19002,Centquatre,4,36,42,0.09523809523809523,48.889333538455,2.3707854375243,2025-09-13 17:00:00,16.8,1.2,13.8
2025-09-13 17:30:00,19005,Flandre - Riquet,4,14,21,0.19047619047619047,48.888013281448,2.3737595955229,2025-09-13 17:00:00,16.8,1.2,13.8
2025-09-13 17:30:00,19007,Flandre - Ourcq,10,18,30,0.3333333333333333,48.89260159189023,2.3790915682911873,2025-09-13 17:00:00,16.8,1.2,13.8
2025-09-13 17:30:00,19008,Flandre - Alphonse Karr,5,21,26,0.19230769230769232,48.89465,2.381868,2025-09-13 17:00:00,16.8,1.2,13.8
2025-09-13 17:30:00,19009,Cité des Sciences et de l'Industrie,6,22,29,0.20689655172413793,48.89659571178903,2.384599149227142,2025-09-13 17:00:00,16.8,1.2,13.8
2025-09-13 17:30:00,19010,Emile Reynaud - Porte de la Villette,5,15,22,0.22727272727272727,48.90098953630053,2.3887022584676743,2025-09-13 17:00:00,16.8,1.2,13.8
2025-09-13 17:30:00,19012,Lally-Tollendal - Armand Carrel,9,19,28,0.32142857142857145,48.88270066221072,2.374717555940151,2025-09-13 17:00:00,16.8,1.2,13.8
2025-09-13 17:30:00,19013,Laumière - Petit,10,24,34,0.29411764705882354,48.88467368538326,2.380039058625698,2025-09-13 17:00:00,16.8,1.2,13.8
2025-09-13 17:30:00,19014,Lorraine - Jean Jaurès,5,8,19,0.2631578947368421,48.8863865,2.3825772,2025-09-13 17:00:00,16.8,1.2,13.8
2025-09-13 17:30:00,19015,Thionville - Ourcq,5,16,24,0.20833333333333334,48.88917613743794,2.3833653330802917,2025-09-13 17:00:00,16.8,1.2,13.8
2025-09-13 17:30:00,19016,Hautpoul - Jean Jaurès,3,25,32,0.09375,48.886393679436,2.3865414544355,2025-09-13 17:00:00,16.8,1.2,13.8
2025-09-13 17:30:00,19021,Mairie du 19ème,5,21,27,0.18518518518518517,48.88256264247959,2.3812624812126164,2025-09-13 17:00:00,16.8,1.2,13.8
2025-09-13 17:30:00,19022,Marché Secrétan,9,16,26,0.34615384615384615,48.88125496379482,2.373463287949562,2025-09-13 17:00:00,16.8,1.2,13.8
2025-09-13 17:30:00,19023,Manin - Simon Bolivar,3,18,26,0.11538461538461539,48.876499654127,2.3794073625991,2025-09-13 17:00:00,16.8,1.2,13.8
2025-09-13 17:30:00,19024,Botzaris - Parc des Buttes Chaumont,4,15,20,0.2,48.877951,2.381464,2025-09-13 17:00:00,16.8,1.2,13.8
2025-09-13 17:30:00,19025,Botzaris - Crimée,2,18,21,0.09523809523809523,48.87959698690176,2.3887913337477067,2025-09-13 17:00:00,16.8,1.2,13.8
2025-09-13 17:30:00,19026,Place de Rhin et Danube,3,11,17,0.17647058823529413,48.88192765861766,2.392586767673493,2025-09-13 17:00:00,16.8,1.2,13.8
2025-09-13 17:30:00,19029,Seine - Flandre,7,12,19,0.3684210526315789,48.886785741479684,2.3746193200349808,2025-09-13 17:00:00,16.8,1.2,13.8
2025-09-13 17:30:00,19030,Melun - Jean Jaurès,7,19,28,0.25,48.8837796723475,2.376477420330048,2025-09-13 17:00:00,16.8,1.2,13.8
2025-09-13 17:30:00,19031,Manin - Crimée,6,14,23,0.2608695652173913,48.8831217743719,2.3863670602440834,2025-09-13 17:00:00,16.8,1.2,13.8
2025-09-13 17:30:00,19032,Villette - Belleville,7,40,48,0.14583333333333334,48.8726877314,2.376461327076,2025-09-13 17:00:00,16.8,1.2,13.8
2025-09-13 17:30:00,19033,Cambrai - Benjamin Constant,4,38,43,0.09302325581395349,48.89594736851349,2.381133802246315,2025-09-13 17:00:00,16.8,1.2,13.8
2025-09-13 17:30:00,19036,Hôpital Robert Debré,6,27,33,0.18181818181818182,48.88005222200894,2.4008650346327003,2025-09-13 17:00:00,16.8,1.2,13.8
2025-09-13 17:30:00,19037,Belleville - Porte des Lilas,8,20,32,0.25,48.87660391892763,2.404769691129476,2025-09-13 17:00:00,16.8,1.2,13.8
2025-09-13 17:30:00,19038,Lassus - Delouvain,3,16,20,0.15,48.8755044846,2.3890327325519,2025-09-13 17:00:00,16.8,1.2,13.8
2025-09-13 17:30:00,19039,Edouard Pailleron - Simon Bolivar,1,22,24,0.041666666666666664,48.87979886049996,2.374839261174202,2025-09-13 17:00:00,16.8,1.2,13.8
2025-09-13 17:30:00,19040,Belleville - Télégraphe,5,36,41,0.12195121951219512,48.8756045,2.3995549,2025-09-13 17:00:00,16.8,1.2,13.8
2025-09-13 17:30:00,19041,Belleville - Pyrénées,3,38,42,0.07142857142857142,48.8741908,2.3860039,2025-09-13 17:00:00,16.8,1.2,13.8
2025-09-13 17:30:00,19043,Delphine Seyrig - Général Leclerc,3,46,53,0.05660377358490566,48.893923963057865,2.39790290594101,2025-09-13 17:00:00,16.8,1.2,13.8
2025-09-13 17:30:00,19101,Square Simon Bolivar,4,13,24,0.16666666666666666,48.875089888322,2.3826304078102,2025-09-13 17:00:00,16.8,1.2,13.8
2025-09-13 17:30:00,19103,Manin - Carrières d'Amérique,2,17,20,0.1,48.884672142095,2.3919698596001,2025-09-13 17:00:00,16.8,1.2,13.8
2025-09-13 17:30:00,19105,Ambroise Rendu - Porte Brunet,4,13,17,0.23529411764705882,48.883667,2.395733,2025-09-13 17:00:00,16.8,1.2,13.8
2025-09-13 17:30:00,19108,Gaston Tessier - Rosa Parks RER,10,25,37,0.2702702702702703,48.8963765,2.3743692,2025-09-13 17:00:00,16.8,1.2,13.8
2025-09-13 17:30:00,19109,Tanger - Place du Maroc,6,13,19,0.3157894736842105,48.8862524447104,2.3689296841621403,2025-09-13 17:00:00,16.8,1.2,13.8
2025-09-13 17:30:00,19110,Square Claude Bernard,10,18,30,0.3333333333333333,48.89876016219984,2.375325746834278,2025-09-13 17:00:00,16.8,1.2,13.8
2025-09-13 17:30:00,19113,Pré Saint-Gervais - Lilas,1,25,28,0.03571428571428571,48.877870626988,2.3959073424339,2025-09-13 17:00:00,16.8,1.2,13.8
2025-09-13 17:30:00,19114,Manin - Secrétan,0,19,20,0.0,48.8791665,2.3787959,2025-09-13 17:00:00,16.8,1.2,13.8
2025-09-13 17:30:00,19117,Euryale Dehaynin - Loire,12,16,30,0.4,48.886248917304805,2.3774591088294987,2025-09-13 17:00:00,16.8,1.2,13.8
2025-09-13 17:30:00,19120,Carducci - Place Hannah Arendt,2,24,27,0.07407407407407407,48.877436681515796,2.3860743641853337,2025-09-13 17:00:00,16.8,1.2,13.8
2025-09-13 17:30:00,19121,Belleville -  Pré Saint-Gervais,0,17,21,0.0,48.875565910073,2.3930460959673,2025-09-13 17:00:00,16.8,1.2,13.8
2025-09-13 17:30:00,19124,Alexander Fleming - Belvédère,2,28,31,0.06451612903225806,48.88179064200294,2.4030599377642674,2025-09-13 17:00:00,16.8,1.2,13.8
2025-09-13 17:30:00,19125,Place de l'Édit de Nantes,18,11,30,0.6,48.88879,2.3785,2025-09-13 17:00:00,16.8,1.2,13.8
2025-09-13 17:30:00,19127,Aubervilliers - Curial,2,18,23,0.08695652173913043,48.89088305227546,2.3688579350709915,2025-09-13 17:00:00,16.8,1.2,13.8
2025-09-13 17:30:00,19128,Quai de l'Oise - Aisne,7,22,30,0.23333333333333334,48.8906231,2.3833701,2025-09-13 17:00:00,16.8,1.2,13.8
2025-09-13 17:30:00,19130,Place Paul Delouvrier,3,39,42,0.07142857142857142,48.89197621431365,2.3851288855075836,2025-09-13 17:00:00,16.8,1.2,13.8
2025-09-13 17:30:00,19201,Petit - Georges Thill,4,18,23,0.17391304347826086,48.88603131999171,2.3895753175020222,2025-09-13 17:00:00,16.8,1.2,13.8
2025-09-13 17:30:00,19202,Marseillaise - Grenade,7,35,45,0.15555555555555556,48.889371092747,2.3979396821544,2025-09-13 17:00:00,16.8,1.2,13.8
2025-09-13 17:30:00,19203,Pailleron - Bouret,1,25,27,0.037037037037037035,48.880516995482,2.3763902374411,2025-09-13 17:00:00,16.8,1.2,13.8
2025-09-13 17:30:00,19204,Rampal - Belleville,4,15,20,0.2,48.873114661405,2.3798409114805,2025-09-13 17:00:00,16.8,1.2,13.8
2025-09-13 17:30:00,19205,Simon Bolivar - Henri Turot,4,16,23,0.17391304347826086,48.877475489801,2.3739709492211,2025-09-13 17:00:00,16.8,1.2,13.8
2025-09-13 17:30:00,20001,Place de la Nation - Charonne,3,30,36,0.08333333333333333,48.848364667777,2.3997623859813,2025-09-13 17:00:00,16.8,1.2,13.8
2025-09-13 17:30:00,20003,Pyrénées - Cours de Vincennes,6,14,21,0.2857142857142857,48.847796779935,2.4061721563339,2025-09-13 17:00:00,16.8,1.2,13.8
2025-09-13 17:30:00,20004,Commandant l'Herminier - Gallieni,4,13,17,0.23529411764705882,48.847040552603,2.4160453677177,2025-09-13 17:00:00,16.8,1.2,13.8
2025-09-13 17:30:00,20005,Reynaldo Hahn - Lagny,16,3,19,0.8421052631578947,48.849266043601794,2.412330328844772,2025-09-13 17:00:00,16.8,1.2,13.8
2025-09-13 17:30:00,20006,Pyrénées - Plaine,4,6,12,0.3333333333333333,48.85026702458,2.4062821269035,2025-09-13 17:00:00,16.8,1.2,13.8
2025-09-13 17:30:00,20007,Buzenval - Avron,5,44,50,0.1,48.851617204999,2.4015135973077,2025-09-13 17:00:00,16.8,1.2,13.8
2025-09-13 17:30:00,20008,Pyrénées - Avron,3,28,32,0.09375,48.853246898211985,2.405871044529538,2025-09-13 17:00:00,16.8,1.2,13.8
2025-09-13 17:30:00,20009,Docteurs Déjérine - Pte de Montreuil,9,11,20,0.45,48.85398448133697,2.41208288897222,2025-09-13 17:00:00,16.8,1.2,13.8
2025-09-13 17:30:00,2001,Greneta - Sebastopol,28,0,31,0.9032258064516129,48.865242333228,2.3516669869423,2025-09-13 17:00:00,16.8,1.2,13.8
2025-09-13 17:30:00,20010,Sorbier - Gasnier-Guy,2,32,34,0.058823529411764705,48.865217631011,2.3936596512794,2025-09-13 17:00:00,16.8,1.2,13.8
2025-09-13 17:30:00,20011,Pyrénées - Dagorno,3,17,20,0.15,48.855425770695085,2.4051643162965775,2025-09-13 17:00:00,16.8,1.2,13.8
2025-09-13 17:30:00,20012,Buzenval - Vignoles,3,14,17,0.17647058823529413,48.853858171688,2.4000040814281,2025-09-13 17:00:00,16.8,1.2,13.8
2025-09-13 17:30:00,20013,Alexandre Dumas - Place de la Réunion,3,42,45,0.06666666666666667,48.85533710742046,2.3997703687646292,2025-09-13 17:00:00,16.8,1.2,13.8
2025-09-13 17:30:00,20014,Charonne - Alexandre Dumas,5,29,35,0.14285714285714285,48.856077415056,2.3948693275452,2025-09-13 17:00:00,16.8,1.2,13.8
2025-09-13 17:30:00,20016,Pyrénées - Maraîchers,2,31,33,0.06060606060606061,48.85714001395299,2.4043509364128113,2025-09-13 17:00:00,16.8,1.2,13.8
2025-09-13 17:30:00,20017,Saint-Blaise - Mouraud,2,24,27,0.07407407407407407,48.85696177597818,2.40869477391243,2025-09-13 17:00:00,16.8,1.2,13.8
2025-09-13 17:30:00,20019,Place du Maquis du Vercors,3,28,31,0.0967741935483871,48.877321579493575,2.4083782732486725,2025-09-13 17:00:00,16.8,1.2,13.8
2025-09-13 17:30:00,2002,Etienne Marcel - Montorgueil,26,1,28,0.9285714285714286,48.86450567259199,2.3461959511041637,2025-09-13 17:00:00,16.8,1.2,13.8
2025-09-13 17:30:00,20022,Porte de Bagnolet,3,30,33,0.09090909090909091,48.864707139122984,2.408344637349607,2025-09-13 17:00:00,16.8,1.2,13.8
2025-09-13 17:30:00,20023,Pelleport - Belgrand,1,14,15,0.06666666666666667,48.86500081847653,2.403980836377493,2025-09-13 17:00:00,16.8,1.2,13.8
2025-09-13 17:30:00,20027,Porte de Ménilmontant,1,14,15,0.06666666666666667,48.8691543609174,2.40932246879487,2025-09-13 17:00:00,16.8,1.2,13.8
2025-09-13 17:30:00,20029,Frères Flavien - Porte des Lilas,4,19,23,0.17391304347826086,48.8780992764359,2.41104629853209,2025-09-13 17:00:00,16.8,1.2,13.8
2025-09-13 17:30:00,20030,Ménilmontant - Père Lachaise,13,28,41,0.3170731707317073,48.863287291502,2.3869940266013,2025-09-13 17:00:00,16.8,1.2,13.8
2025-09-13 17:30:00,20032,Square des Amandiers,4,22,26,0.15384615384615385,48.86615630668046,2.3891324177384377,2025-09-13 17:00:00,16.8,1.2,13.8
2025-09-13 17:30:00,20035,Pyrénées - Ménilmontant,2,24,26,0.07692307692307693,48.8693268535238,2.395084574818611,2025-09-13 17:00:00,16.8,1.2,13.8
2025-09-13 17:30:00,20036,Ménilmontant - Pelleport,1,29,32,0.03125,48.870682633845,2.3989596023316,2025-09-13 17:00:00,16.8,1.2,13.8
2025-09-13 17:30:00,20037,Gambetta - Saint Fargeau,1,22,24,0.041666666666666664,48.871244610447015,2.4039056897163396,2025-09-13 17:00:00,16.8,1.2,13.8
2025-09-13 17:30:00,2004,Square Pierre Lazareff,10,2,16,0.625,48.867141720746,2.3483933508396,2025-09-13 17:00:00,16.8,1.2,13.8
2025-09-13 17:30:00,20042,Pyrénées - Emmery,4,34,40,0.1,48.87202880542,2.3918598091484,2025-09-13 17:00:00,16.8,1.2,13.8
2025-09-13 17:30:00,20043,Charonne - Avron,7,20,27,0.25925925925925924,48.851602665222,2.3984030470379,2025-09-13 17:00:00,16.8,1.2,13.8
2025-09-13 17:30:00,20044,Davout - Volga,6,21,28,0.21428571428571427,48.852919679957296,2.410522909779111,2025-09-13 17:00:00,16.8,1.2,13.8
2025-09-13 17:30:00,20045,Louis Ganne - Davout,3,26,30,0.1,48.86338720692607,2.409725748002529,2025-09-13 17:00:00,16.8,1.2,13.8
2025-09-13 17:30:00,20047,Cours de Vincennes - Davout,8,36,48,0.16666666666666666,48.847238029966,2.4107042336225,2025-09-13 17:00:00,16.8,1.2,13.8
2025-09-13 17:30:00,20048,Bagnolet - Place Saint-Blaise,4,22,28,0.14285714285714285,48.85973,2.40334,2025-09-13 17:00:00,16.8,1.2,13.8
2025-09-13 17:30:00,2005,Montmartre - Etienne Marcel,12,3,16,0.75,48.86502194581,2.3450684401448,2025-09-13 17:00:00,16.8,1.2,13.8
2025-09-13 17:30:00,2006,Place des Victoires,1,22,24,0.041666666666666664,48.8660354,2.3420333,2025-09-13 17:00:00,16.8,1.2,13.8
2025-09-13 17:30:00,2009,Filles Saint-Thomas - Place de la Bourse,9,47,58,0.15517241379310345,48.868899890853,2.3397543845203,2025-09-13 17:00:00,16.8,1.2,13.8
2025-09-13 17:30:00,2010,Uzès - Montmartre,16,12,29,0.5517241379310345,48.870790980240706,2.3431010171771054,2025-09-13 17:00:00,16.8,1.2,13.8
2025-09-13 17:30:00,20103,Le Vau - Maurice Bertaux,2,23,25,0.08,48.86803439043193,2.411030612453627,2025-09-13 17:00:00,16.8,1.2,13.8
2025-09-13 17:30:00,20104,Louis Lumière.,4,17,22,0.18181818181818182,48.86216198070008,2.41112578185621,2025-09-13 17:00:00,16.8,1.2,13.8
2025-09-13 17:30:00,20105,Benoît Frachon - République,10,20,30,0.3333333333333333,48.85230729014318,2.415605485439301,2025-09-13 17:00:00,16.8,1.2,13.8
2025-09-13 17:30:00,20108,Jardin de l'Hospice Debrousse,2,21,23,0.08695652173913043,48.861451061938,2.40568600595,2025-09-13 17:00:00,16.8,1.2,13.8
2025-09-13 17:30:00,20110,Gambetta - Tourelles,2,18,20,0.1,48.875337902264,2.4059921130538,2025-09-13 17:00:00,16.8,1.2,13.8
2025-09-13 17:30:00,20111,Villiers de l'Isle Adam - Pyrénées,2,16,20,0.1,48.867362,2.396222,2025-09-13 17:00:00,16.8,1.2,13.8
2025-09-13 17:30:00,20113,Piat - Parc de Belleville,4,17,21,0.19047619047619047,48.87195626635528,2.384981390278095,2025-09-13 17:00:00,16.8,1.2,13.8
2025-09-13 17:30:00,20116,Haies - Réunion,12,10,22,0.5454545454545454,48.85386896766491,2.402426162238911,2025-09-13 17:00:00,16.8,1.2,13.8
2025-09-13 17:30:00,20117,Saint-Fargeau - Mortier,1,29,31,0.03225806451612903,48.87266656122256,2.407912909984589,2025-09-13 17:00:00,16.8,1.2,13.8
2025-09-13 17:30:00,20118,Orteaux - Mouraud,6,18,24,0.25,48.85558642847872,2.408762907764669,2025-09-13 17:00:00,16.8,1.2,13.8
2025-09-13 17:30:00,20119,Square des Saint-Simoniens,1,24,25,0.04,48.8701796,2.3967273,2025-09-13 17:00:00,16.8,1.2,13.8
2025-09-13 17:30:00,2012,Choiseul - Quatre Septembre,8,2,44,0.18181818181818182,48.869935533187,2.3359975218773,2025-09-13 17:00:00,16.8,1.2,13.8
2025-09-13 17:30:00,20121,Boyer - Ménilmontant,3,15,19,0.15789473684210525,48.868895162679,2.3919824145635,2025-09-13 17:00:00,16.8,1.2,13.8
2025-09-13 17:30:00,20122,Vitruve - Davout,1,22,23,0.043478260869565216,48.86053161154489,2.4091592812626543,2025-09-13 17:00:00,16.8,1.2,13.8
2025-09-13 17:30:00,2013,Favart - Italiens,8,6,17,0.47058823529411764,48.871446353921,2.3382901058508,2025-09-13 17:00:00,16.8,1.2,13.8
2025-09-13 17:30:00,20131,Repos - Cimetière du Père Lachaise,1,31,33,0.030303030303030304,48.859358523593,2.3896131366845,2025-09-13 17:00:00,16.8,1.2,13.8
2025-09-13 17:30:00,20132,Réunion - Avron,1,25,26,0.038461538461538464,48.852566752033766,2.403928068708116,2025-09-13 17:00:00,16.8,1.2,13.8
2025-09-13 17:30:00,20134,Lieutenant Chauré - Etienne Marey,1,19,20,0.05,48.86746195408435,2.405970990657807,2025-09-13 17:00:00,16.8,1.2,13.8
2025-09-13 17:30:00,20137,Borrégo - Gambetta,2,23,25,0.08,48.87330497045532,2.4014145880937576,2025-09-13 17:00:00,16.8,1.2,13.8
2025-09-13 17:30:00,2014,Daunou - Louis le Grand,18,14,32,0.5625,48.869113,2.332515,2025-09-13 17:00:00,16.8,1.2,13.8
2025-09-13 17:30:00,20140,Paganini - Davout,4,16,22,0.18181818181818182,48.85135,2.412021,2025-09-13 17:00:00,16.8,1.2,13.8
2025-09-13 17:30:00,20142,Mûriers - Père Lachaise,0,19,20,0.0,48.864130509668044,2.39164982067019,2025-09-13 17:00:00,16.8,1.2,13.8
2025-09-13 17:30:00,20143,Ramponeau - Belleville,8,35,44,0.18181818181818182,48.871031137596,2.379056852114,2025-09-13 17:00:00,16.8,1.2,13.8
2025-09-13 17:30:00,2015,Louis le Grand - Italiens,28,3,33,0.8484848484848485,48.870508937204,2.3340544619393,2025-09-13 17:00:00,16.8,1.2,13.8
2025-09-13 17:30:00,2016,Aboukir - Alexandrie,10,9,21,0.47619047619047616,48.86868344444473,2.3502043269474897,2025-09-13 17:00:00,16.8,1.2,13.8
2025-09-13 17:30:00,2020,Danielle Casanova - Opéra,17,3,20,0.85,48.867643242297,2.3333894088864,2025-09-13 17:00:00,16.8,1.2,13.8
2025-09-13 17:30:00,20201,Eugène Reisz - Davout,5,15,20,0.25,48.85631874632638,2.410396970808506,2025-09-13 17:00:00,16.8,1.2,13.8
2025-09-13 17:30:00,20202,Dupont de l'Eure - Gambetta,1,29,31,0.03225806451612903,48.8679385,2.4003649,2025-09-13 17:00:00,16.8,1.2,13.8
2025-09-13 17:30:00,20203,Evariste Galois,6,14,21,0.2857142857142857,48.873341356228,2.4133544409574,2025-09-13 17:00:00,16.8,1.2,13.8
2025-09-13 17:30:00,2021,Cléry - Montmartre,13,45,58,0.22413793103448276,48.867458,2.3445211,2025-09-13 17:00:00,16.8,1.2,13.8
2025-09-13 17:30:00,2022,Saint-Fiacre - Poissonière,17,15,35,0.4857142857142857,48.870828911558,2.3459213599563,2025-09-13 17:00:00,16.8,1.2,13.8
2025-09-13 17:30:00,21001,Transvaal - Charles de Gaulle,19,8,27,0.7037037037037037,48.848280403628806,2.2373420120857195,2025-09-13 17:00:00,16.8,1.2,13.8
2025-09-13 17:30:00,21002,Place Denfert-Rochereau,13,5,20,0.65,48.843252536286684,2.245987951755524,2025-09-13 17:00:00,16.8,1.2,13.8
2025-09-13 17:30:00,21003,Jean Jaurès - Jean Baptiste Clément,35,2,39,0.8974358974358975,48.84576261454011,2.2369650006294255,2025-09-13 17:00:00,16.8,1.2,13.8
2025-09-13 17:30:00,21004,Jean Jaurès - Reine,19,10,31,0.6129032258064516,48.84009622558849,2.239872515201569,2025-09-13 17:00:00,16.8,1.2,13.8
2025-09-13 17:30:00,21005,Hôtel de Ville de Boulogne Billancourt,11,15,26,0.4230769230769231,48.83495885166784,2.2416803240776066,2025-09-13 17:00:00,16.8,1.2,13.8
2025-09-13 17:30:00,21006,Marcelin Berthelot,11,15,27,0.4074074074074074,48.8415473058801,2.233161628246308,2025-09-13 17:00:00,16.8,1.2,13.8
2025-09-13 17:30:00,21007,Rond-Point Rhin et Danube,4,48,53,0.07547169811320754,48.840452820991764,2.2280225157737736,2025-09-13 17:00:00,16.8,1.2,13.8
2025-09-13 17:30:00,21008,Victor Hugo - Galliéni,23,11,34,0.6764705882352942,48.838020154411,2.2460845112801,2025-09-13 17:00:00,16.8,1.2,13.8
2025-09-13 17:30:00,2101,Bachaumont - Montmartre,11,19,33,0.3333333333333333,48.86617395079137,2.3449775576591496,2025-09-13 17:00:00,16.8,1.2,13.8
2025-09-13 17:30:00,21011,Silly - Louis Blériot,6,15,23,0.2608695652173913,48.83219045374266,2.2340199351310734,2025-09-13 17:00:00,16.8,1.2,13.8
2025-09-13 17:30:00,21014,Hameau Fleuri - Marché,13,9,22,0.5909090909090909,48.831448892608314,2.2412404417991643,2025-09-13 17:00:00,16.8,1.2,13.8
2025-09-13 17:30:00,21015,Nationale - Place Jules Guesde,8,15,23,0.34782608695652173,48.82753962462998,2.2416052222251897,2025-09-13 17:00:00,16.8,1.2,13.8
2025-09-13 17:30:00,21017,Place Marcel Sembat,6,50,56,0.10714285714285714,48.83328865030686,2.2441747784614567,2025-09-13 17:00:00,16.8,1.2,13.8
2025-09-13 17:30:00,21019,Edouard Vaillant - Paul-Adolphe Souriau,3,24,28,0.10714285714285714,48.834845858829,2.2479459643364,2025-09-13 17:00:00,16.8,1.2,13.8
2025-09-13 17:30:00,2102,Saint-Marc - Feydeau,8,29,37,0.21621621621621623,48.870326843044,2.3418715826353,2025-09-13 17:00:00,16.8,1.2,13.8
2025-09-13 17:30:00,21021,Enfants du Paradis - Peupliers,16,24,40,0.4,48.833122686454,2.2571459412575,2025-09-13 17:00:00,16.8,1.2,13.8
2025-09-13 17:30:00,21024,Billancourt - Général Leclerc,12,9,22,0.5454545454545454,48.8322649,2.2380413,2025-09-13 17:00:00,16.8,1.2,13.8
2025-09-13 17:30:00,21026,Sèvres - Général Leclerc,2,28,30,0.06666666666666667,48.830121559055,2.2314262390137,2025-09-13 17:00:00,16.8,1.2,13.8
2025-09-13 17:30:00,21027,Fief - République,10,12,25,0.4,48.83170888166024,2.255771979689598,2025-09-13 17:00:00,16.8,1.2,13.8
2025-09-13 17:30:00,21030,Fessart - Château,18,0,20,0.9,48.84245,2.23989,2025-09-13 17:00:00,16.8,1.2,13.8
2025-09-13 17:30:00,21031,Cimetière de Boulogne-Billancourt,5,35,40,0.125,48.830764,2.252024,2025-09-13 17:00:00,16.8,1.2,13.8
2025-09-13 17:30:00,21032,Sèvres-Gallieni,17,10,27,0.6296296296296297,48.837809408957,2.2281519323587,2025-09-13 17:00:00,16.8,1.2,13.8
2025-09-13 17:30:00,2110,Jeûneurs - Mulhouse,6,20,28,0.21428571428571427,48.868997,2.346925,2025-09-13 17:00:00,16.8,1.2,13.8
2025-09-13 17:30:00,21104,Madame de Sanzillon - Mozart,12,10,22,0.5454545454545454,48.90379820774301,2.3187401890754704,2025-09-13 17:00:00,16.8,1.2,13.8
2025-09-13 17:30:00,21105,Morice - Général Leclerc,11,12,25,0.44,48.90245471981591,2.3128929734230046,2025-09-13 17:00:00,16.8,1.2,13.8
2025-09-13 17:30:00,21107,Bertrand Sincholle - Henri Barbusse,12,10,23,0.5217391304347826,48.89925982394349,2.3042294383049016,2025-09-13 17:00:00,16.8,1.2,13.8
2025-09-13 17:30:00,21108,Mairie de Clichy,19,30,51,0.37254901960784315,48.903653634661,2.3059353232384,2025-09-13 17:00:00,16.8,1.2,13.8
2025-09-13 17:30:00,21109,Guichet - Jean Jaurès,1,25,28,0.03571428571428571,48.905169868129036,2.3023840785026555,2025-09-13 17:00:00,16.8,1.2,13.8
2025-09-13 17:30:00,2111,Chabanais - Petits Champs,20,10,30,0.6666666666666666,48.86703740186721,2.336716018617153,2025-09-13 17:00:00,16.8,1.2,13.8
2025-09-13 17:30:00,21110,Parc Roger Salengro,20,14,35,0.5714285714285714,48.905303858642,2.31055945158,2025-09-13 17:00:00,16.8,1.2,13.8
2025-09-13 17:30:00,21111,Professeur René Leriche - Général Leclerc,10,37,50,0.2,48.90782845483013,2.307887971401215,2025-09-13 17:00:00,16.8,1.2,13.8
2025-09-13 17:30:00,21112,Claude Debussy - Marc Bloch,10,46,56,0.17857142857142858,48.910388180512,2.3117771744728,2025-09-13 17:00:00,16.8,1.2,13.8
2025-09-13 17:30:00,21114,Gustave Eiffel - Parc des Impressionnistes,10,20,30,0.3333333333333333,48.90390619651018,2.2946908324956894,2025-09-13 17:00:00,16.8,1.2,13.8
2025-09-13 17:30:00,21115,Chancé Milly - Cimetière Communal Sud,6,25,32,0.1875,48.89687189382465,2.303922325372696,2025-09-13 17:00:00,16.8,1.2,13.8
2025-09-13 17:30:00,21120,Docteur Calmette - Martre,4,25,30,0.13333333333333333,48.898969358483,2.3086513252383,2025-09-13 17:00:00,16.8,1.2,13.8
2025-09-13 17:30:00,21203,Place Jules Ferry,2,23,28,0.07142857142857142,48.812107928414775,2.325837314128876,2025-09-13 17:00:00,16.8,1.2,13.8
2025-09-13 17:30:00,21204,Estienne d'Orves - Henri Ginoux,0,31,31,0.0,48.815388220397274,2.320886790760933,2025-09-13 17:00:00,16.8,1.2,13.8
2025-09-13 17:30:00,21205,Arthur Auger - Jean Jaurès,7,19,26,0.2692307692307692,48.813736445585235,2.3069277405738835,2025-09-13 17:00:00,16.8,1.2,13.8
2025-09-13 17:30:00,21207,Verdier - République,7,21,29,0.2413793103448276,48.815403766277,2.31739372015,2025-09-13 17:00:00,16.8,1.2,13.8
2025-09-13 17:30:00,21212,Marne - Germain Dardan,4,18,22,0.18181818181818182,48.81217465201,2.3035024699104,2025-09-13 17:00:00,16.8,1.2,13.8
2025-09-13 17:30:00,21213,Vanne - Général de Gaulle,8,17,25,0.32,48.815007,2.328318,2025-09-13 17:00:00,16.8,1.2,13.8
2025-09-13 17:30:00,21215,Verdier - Jean Jaurès,3,28,33,0.09090909090909091,48.81614048711214,2.3123561963438988,2025-09-13 17:00:00,16.8,1.2,13.8
2025-09-13 17:30:00,21216,Louis Lejeune - Barbès,2,22,25,0.08,48.81807418981508,2.3267009854316716,2025-09-13 17:00:00,16.8,1.2,13.8
2025-09-13 17:30:00,21217,Louis Rolland - République,2,23,26,0.07692307692307693,48.81710889740748,2.3193106434955717,2025-09-13 17:00:00,16.8,1.2,13.8
2025-09-13 17:30:00,21218,Gabriel Péri - Place de la Libération,4,12,18,0.2222222222222222,48.819828421929,2.3117361743705,2025-09-13 17:00:00,16.8,1.2,13.8
2025-09-13 17:30:00,21219,Amaury Duval - Gabriel Péri,2,34,36,0.05555555555555555,48.81718759671675,2.323841750621796,2025-09-13 17:00:00,16.8,1.2,13.8
2025-09-13 17:30:00,21301,Saint-Vincent - Verdun,20,11,34,0.5882352941176471,48.819211549234495,2.254007756710053,2025-09-13 17:00:00,16.8,1.2,13.8
2025-09-13 17:30:00,21303,Jean Monnet - Iles,3,28,32,0.09375,48.823393984057304,2.2497073194874866,2025-09-13 17:00:00,16.8,1.2,13.8
2025-09-13 17:30:00,21305,Place Jacques Madaule,18,5,25,0.72,48.823933787309,2.2606918215752,2025-09-13 17:00:00,16.8,1.2,13.8
2025-09-13 17:30:00,21307,Victor Cresson - Telles de la Poterie,28,2,31,0.9032258064516129,48.822698842979,2.2686498274964,2025-09-13 17:00:00,16.8,1.2,13.8
2025-09-13 17:30:00,21310,Kléber - Gouverneur Général Eboué,21,1,24,0.875,48.826885843069796,2.2723413258790965,2025-09-13 17:00:00,16.8,1.2,13.8
2025-09-13 17:30:00,21311,Parvis Corentin Celton,49,6,55,0.8909090909090909,48.827472525227,2.2784319519997,2025-09-13 17:00:00,16.8,1.2,13.8
2025-09-13 17:30:00,21312,Lucie Aubrac - Fort,0,29,30,0.0,48.818144834008976,2.271184623241425,2025-09-13 17:00:00,16.8,1.2,13.8
2025-09-13 17:30:00,21313,Guynemer - Séverine,15,10,26,0.5769230769230769,48.83091743371036,2.2790706530213356,2025-09-13 17:00:00,16.8,1.2,13.8
2025-09-13 17:30:00,21315,Jules Guesdes - Général de Gaulle,2,21,24,0.08333333333333333,48.81930581291959,2.278934195637703,2025-09-13 17:00:00,16.8,1.2,13.8
2025-09-13 17:30:00,21316,Cimetière d'Issy-les-Moulineaux,4,19,24,0.16666666666666666,48.817699773925,2.2609312087297,2025-09-13 17:00:00,16.8,1.2,13.8
2025-09-13 17:30:00,21319,Esplanade du Foncet - Camille Desmoulins,19,6,28,0.6785714285714286,48.827090233495,2.2606857866049,2025-09-13 17:00:00,16.8,1.2,13.8
2025-09-13 17:30:00,21326,Moulin de Pierre - Abbé Grégoire,1,19,20,0.05,48.822036188382,2.2754641655975,2025-09-13 17:00:00,16.8,1.2,13.8
2025-09-13 17:30:00,21327,Jean Bouin - Gouverneur Général Eboué,28,3,31,0.9032258064516129,48.824792734266,2.2651904328524,2025-09-13 17:00:00,16.8,1.2,13.8
2025-09-13 17:30:00,21328,Verger - Colonel Guichard,0,27,29,0.0,48.816376985087,2.2670380088932,2025-09-13 17:00:00,16.8,1.2,13.8
2025-09-13 17:30:00,21401,Mairie de Clamart,4,29,33,0.12121212121212122,48.800612,2.262151,2025-09-13 17:00:00,16.8,1.2,13.8
2025-09-13 17:30:00,21402,Place Aimé Césaire,2,26,27,0.07407407407407407,48.783194713067815,2.2429127991199493,2025-09-13 17:00:00,16.8,1.2,13.8
2025-09-13 17:30:00,21505,Édouard Vaillant - Place Jean Jaurès,2,20,24,0.08333333333333333,48.86265537999924,2.2089037319128613,2025-09-13 17:00:00,16.8,1.2,13.8
2025-09-13 17:30:00,21506,Maurice Payret-Dortail,3,18,22,0.13636363636363635,48.87811957063342,2.2233625128865246,2025-09-13 17:00:00,16.8,1.2,13.8
2025-09-13 17:30:00,21507,Gardenat-Lapostol - Velettes,2,18,20,0.1,48.87387,2.224185,2025-09-13 17:00:00,16.8,1.2,13.8
2025-09-13 17:30:00,21508,Georges Pompidou - Verdun,20,6,26,0.7692307692307693,48.875481,2.232443,2025-09-13 17:00:00,16.8,1.2,13.8
2025-09-13 17:30:00,21509,Gardenat Lapostol - Franklin Roosevelt,6,18,24,0.25,48.871839,2.222505,2025-09-13 17:00:00,16.8,1.2,13.8
2025-09-13 17:30:00,21511,Marcel Monge - Marcel Dassault,26,20,46,0.5652173913043478,48.86096384533371,2.2246733296048142,2025-09-13 17:00:00,16.8,1.2,13.8
2025-09-13 17:30:00,21514,Place de la Paix - Abbé Saint-Pierre,2,22,24,0.08333333333333333,48.86462724459225,2.2047570338469806,2025-09-13 17:00:00,16.8,1.2,13.8
2025-09-13 17:30:00,21701,Larmeroux - Baudelaire,6,22,29,0.20689655172413793,48.816939911292,2.2809894804846,2025-09-13 17:00:00,16.8,1.2,13.8
2025-09-13 17:30:00,21702,Gare SNCF Vanves-Malakoff,6,42,51,0.11764705882352941,48.819002163836444,2.292150005103606,2025-09-13 17:00:00,16.8,1.2,13.8
2025-09-13 17:30:00,21703,Square du Carrefour de l'Insurrection,2,21,23,0.08695652173913043,48.820864559770676,2.291113436222077,2025-09-13 17:00:00,16.8,1.2,13.8
2025-09-13 17:30:00,21706,Jean Bleuzen - Square du 11 Novembre,2,41,49,0.04081632653061224,48.8232579,2.2965213,2025-09-13 17:00:00,16.8,1.2,13.8
2025-09-13 17:30:00,21708,Marcel Yol - Jullien,3,26,30,0.1,48.82537611802588,2.287235018058929,2025-09-13 17:00:00,16.8,1.2,13.8
2025-09-13 17:30:00,21951,Place Centrale,1,20,22,0.045454545454545456,48.78740167690531,2.2278830409049992,2025-09-13 17:00:00,16.8,1.2,13.8
2025-09-13 17:30:00,21952,Place Tony de Graaff,19,23,42,0.4523809523809524,48.8181645,2.2458109,2025-09-13 17:00:00,16.8,1.2,13.8
2025-09-13 17:30:00,21953,Gare de Bellevue,15,5,20,0.75,48.8192404685572,2.2295309230685234,2025-09-13 17:00:00,16.8,1.2,13.8
2025-09-13 17:30:00,21954,Val-Fleury,2,22,23,0.08695652173913043,48.807671407991,2.2407217696309,2025-09-13 17:00:00,16.8,1.2,13.8
2025-09-13 17:30:00,21955,Vaugirard - Verrerie,13,13,26,0.5,48.820881336842,2.2367222622987,2025-09-13 17:00:00,16.8,1.2,13.8
2025-09-13 17:30:00,22001,Château - Bineau,11,12,23,0.4782608695652174,48.890404028589806,2.270106375217438,2025-09-13 17:00:00,16.8,1.2,13.8
2025-09-13 17:30:00,22002,Argenson - Château,8,16,25,0.32,48.888559314669514,2.2642001509666447,2025-09-13 17:00:00,16.8,1.2,13.8
2025-09-13 17:30:00,22003,Beffroy,4,20,26,0.15384615384615385,48.886591074488,2.2613945603371,2025-09-13 17:00:00,16.8,1.2,13.8
2025-09-13 17:30:00,22006,Pierret - Madrid,12,15,28,0.42857142857142855,48.882976576876565,2.260125767248034,2025-09-13 17:00:00,16.8,1.2,13.8
2025-09-13 17:30:00,22007,Commandant Charcot - Bretteville,10,24,36,0.2777777777777778,48.87530570765423,2.2558460757136345,2025-09-13 17:00:00,16.8,1.2,13.8
2025-09-13 17:30:00,22012,Madeleine Michelis - Roule,9,12,25,0.36,48.88260431301364,2.2773634269833565,2025-09-13 17:00:00,16.8,1.2,13.8
2025-09-13 17:30:00,22013,Mairie de Neuilly sur Seine,10,20,31,0.3225806451612903,48.884947287658,2.2677031159401,2025-09-13 17:00:00,16.8,1.2,13.8
2025-09-13 17:30:00,22014,Victor Hugo - Bineau,11,14,25,0.44,48.88758225888669,2.2783890366554265,2025-09-13 17:00:00,16.8,1.2,13.8
2025-09-13 17:30:00,22016,Charles de Gaulle - Sablonville,4,22,26,0.15384615384615385,48.87991924860035,2.2763770446181297,2025-09-13 17:00:00,16.8,1.2,13.8
2025-09-13 17:30:00,22017,Charles de Gaulle - Louis Philippe,14,14,28,0.5,48.881742142181,2.2710045335353,2025-09-13 17:00:00,16.8,1.2,13.8
2025-09-13 17:30:00,22018,Charles de Gaulle - Les Sablons,6,29,35,0.17142857142857143,48.880987514929,2.2715748726513,2025-09-13 17:00:00,16.8,1.2,13.8
2025-09-13 17:30:00,22101,Gare Routière de Saint Cloud,17,13,31,0.5483870967741935,48.84288183896324,2.222245037555695,2025-09-13 17:00:00,16.8,1.2,13.8
2025-09-13 17:30:00,22102,Mont Valérien - Michel Salles,4,20,24,0.16666666666666666,48.8561915,2.2152966,2025-09-13 17:00:00,16.8,1.2,13.8
2025-09-13 17:30:00,22103,Senard - Charles Blum,8,16,24,0.3333333333333333,48.857315824799,2.221091687679291,2025-09-13 17:00:00,16.8,1.2,13.8
2025-09-13 17:30:00,22203,Tertres - Fontaine,4,24,28,0.14285714285714285,48.787553654715644,2.306235730648041,2025-09-13 17:00:00,16.8,1.2,13.8
2025-09-13 17:30:00,22206,Louis Pasteur - Albert Petit,5,25,31,0.16129032258064516,48.796261,2.317289,2025-09-13 17:00:00,16.8,1.2,13.8
2025-09-13 17:30:00,22207,Rond-point du Dr Albert Schweitzer,8,14,22,0.36363636363636365,48.78980918988166,2.3143940046429634,2025-09-13 17:00:00,16.8,1.2,13.8
2025-09-13 17:30:00,22208,Stalingrad - Barbara,3,17,20,0.15,48.809223658808,2.3175904558822,2025-09-13 17:00:00,16.8,1.2,13.8
2025-09-13 17:30:00,22209,Verdun - Henri Barbusse,2,21,24,0.08333333333333333,48.802056061754,2.3159965061736,2025-09-13 17:00:00,16.8,1.2,13.8
2025-09-13 17:30:00,22301,Chausson - Gabriel Péri,12,8,22,0.5454545454545454,48.921891003481115,2.2952306270599365,2025-09-13 17:00:00,16.8,1.2,13.8
2025-09-13 17:30:00,22302,Gare RER - Général de Gaulle,37,3,41,0.9024390243902439,48.933548439566,2.3064726536317,2025-09-13 17:00:00,16.8,1.2,13.8
2025-09-13 17:30:00,22303,Lucien Lanternier - Le Luth,6,19,27,0.2222222222222222,48.93159430558871,2.2889783978462224,2025-09-13 17:00:00,16.8,1.2,13.8
2025-09-13 17:30:00,22304,ZAC des Louvresses,21,8,32,0.65625,48.943681749651,2.3057864216906,2025-09-13 17:00:00,16.8,1.2,13.8
2025-09-13 17:30:00,22305,Jean Jaurès - Place du Dr Roux,21,12,35,0.6,48.927567032796,2.2947337017374,2025-09-13 17:00:00,16.8,1.2,13.8
2025-09-13 17:30:00,22306,Place du 17 Octobre,12,6,20,0.6,48.91962690034779,2.2978286134199792,2025-09-13 17:00:00,16.8,1.2,13.8
2025-09-13 17:30:00,22401,Charles de Gaulle - Plateau de Vanves,2,31,33,0.06060606060606061,48.82233088973263,2.298571803412886,2025-09-13 17:00:00,16.8,1.2,13.8
2025-09-13 17:30:00,22402,Jean Jaurès - Salvador Allende,8,34,43,0.18604651162790697,48.821475594736775,2.3026576638221745,2025-09-13 17:00:00,16.8,1.2,13.8
2025-09-13 17:30:00,22403,Pierre Brossolette - Adolphe Pinard,5,16,24,0.20833333333333334,48.821772279548,2.3131558299065,2025-09-13 17:00:00,16.8,1.2,13.8
2025-09-13 17:30:00,22404,Pierre Brossolette - 12 Février 1934,8,16,25,0.32,48.8176962416867,2.3076123744249344,2025-09-13 17:00:00,16.8,1.2,13.8
2025-09-13 17:30:00,22406,Guy Môquet - Etienne Dolet,1,21,23,0.043478260869565216,48.81527009991819,2.298078276995073,2025-09-13 17:00:00,16.8,1.2,13.8
2025-09-13 17:30:00,22408,Place du 14 Juillet,7,14,22,0.3181818181818182,48.819266959525,2.3011998832226,2025-09-13 17:00:00,16.8,1.2,13.8
2025-09-13 17:30:00,22501,Théâtre de La Garenne,16,3,20,0.8,48.905658361454,2.2345951981176,2025-09-13 17:00:00,16.8,1.2,13.8
2025-09-13 17:30:00,22502,Kléber - National,12,8,20,0.6,48.906333898712234,2.2393910586833954,2025-09-13 17:00:00,16.8,1.2,13.8
2025-09-13 17:30:00,22503,Joffre - Aigle,17,2,20,0.85,48.904033,2.245096,2025-09-13 17:00:00,16.8,1.2,13.8
2025-09-13 17:30:00,22505,Mairie de La Garenne Colombes,19,2,22,0.8636363636363636,48.90663823468682,2.24679596722126,2025-09-13 17:00:00,16.8,1.2,13.8
2025-09-13 17:30:00,22507,Châteaudun - Place de la Liberté,13,13,26,0.5,48.90970830301211,2.2454486480600626,2025-09-13 17:00:00,16.8,1.2,13.8
2025-09-13 17:30:00,22601,Marx Dormoy - Château Sainte-Barbe,4,18,22,0.18181818181818182,48.791782341055324,2.297856844961643,2025-09-13 17:00:00,16.8,1.2,13.8
2025-09-13 17:30:00,22602,Place Henri Dunant - Gare RER,5,26,31,0.16129032258064516,48.788093281931,2.2909234046643,2025-09-13 17:00:00,16.8,1.2,13.8
2025-09-13 17:30:00,22603,Place de la Division Leclerc,0,34,34,0.0,48.793824988636516,2.2731140430551027,2025-09-13 17:00:00,16.8,1.2,13.8
2025-09-13 17:30:00,22604,Hôtel de Ville de Fontenay-aux-Roses,2,32,34,0.058823529411764705,48.790844603480856,2.2871455930319455,2025-09-13 17:00:00,16.8,1.2,13.8
2025-09-13 17:30:00,22703,Place Jean Mermoz,25,5,30,0.8333333333333334,48.9220937,2.2718348,2025-09-13 17:00:00,16.8,1.2,13.8
