tbin_utc,stationcode,name,nb_velos_bin,nb_bornes_bin,capacity_bin,occ_ratio_bin,lat,lon,hour_utc,temp_C,precip_mm,wind_mps
2025-09-13 16:30:00,10003,Hauteville - Bonne Nouvelle,15,0,17,0.8823529411764706,48.87077436024,2.3496496368327,2025-09-13 16:00:00,18.5,0.1,16.9
2025-09-13 16:30:00,10004,Metz - Faubourg Saint-Denis,34,14,48,0.7083333333333334,48.870893,2.353521,2025-09-13 16:00:00,18.5,0.1,16.9
2025-09-13 16:30:00,10005,Petites Ecuries - Faubourg Poissonnière,10,4,17,0.5882352941176471,48.87397217237368,2.348388757504776,2025-09-13 16:00:00,18.5,0.1,16.9
2025-09-13 16:30:00,10006,Petites Ecuries - Faubourg Saint-Denis,22,2,28,0.7857142857142857,48.87287120589831,2.3542150855064397,2025-09-13 16:00:00,18.5,0.1,16.9
2025-09-13 16:30:00,10008,Cité Riverin - Château d'Eau,14,0,18,0.7777777777777778,48.870702423554306,2.358739863900845,2025-09-13 16:00:00,18.5,0.1,16.9
2025-09-13 16:30:00,10009,Mairie du 10ème,14,3,19,0.7368421052631579,48.872089449907,2.3575825989246,2025-09-13 16:00:00,18.5,0.1,16.9
2025-09-13 16:30:00,1001,Quai de l'Horloge - Pont Neuf,14,1,17,0.8235294117647058,48.857058739111,2.3417982839439,2025-09-13 16:00:00,18.5,0.1,16.9
2025-09-13 16:30:00,10010,Place Jacques Bonsergent,28,3,33,0.8484848484848485,48.870948218595,2.3612049221992,2025-09-13 16:00:00,18.5,0.1,16.9
2025-09-13 16:30:00,10012,Vinaigriers - Magenta,9,15,25,0.36,48.8731167,2.3593052,2025-09-13 16:00:00,18.5,0.1,16.9
2025-09-13 16:30:00,10013,Alibert - Jemmapes,27,29,60,0.45,48.871044051984,2.3661044619878,2025-09-13 16:00:00,18.5,0.1,16.9
2025-09-13 16:30:00,10014,Marseille - Beaurepaire,27,26,55,0.4909090909090909,48.871624306962985,2.3639265082738348,2025-09-13 16:00:00,18.5,0.1,16.9
2025-09-13 16:30:00,10015,Lucien Sampaix - Récollets,15,28,46,0.32608695652173914,48.874330377560476,2.3621229082345963,2025-09-13 16:00:00,18.5,0.1,16.9
2025-09-13 16:30:00,10016,Récollets - Square Villemin,4,9,17,0.23529411764705882,48.875034655883944,2.359801238597928,2025-09-13 16:00:00,18.5,0.1,16.9
2025-09-13 16:30:00,10017,Gare de l'Est - Fidélité,6,7,15,0.4,48.874575,2.356796,2025-09-13 16:00:00,18.5,0.1,16.9
2025-09-13 16:30:00,10018,Square Alban Satragne,6,18,30,0.2,48.875388227727,2.3559567333359,2025-09-13 16:00:00,18.5,0.1,16.9
2025-09-13 16:30:00,10019,Paradis - Hauteville,11,6,31,0.3548387096774194,48.874999954666755,2.3522757401923404,2025-09-13 16:00:00,18.5,0.1,16.9
2025-09-13 16:30:00,1002,Victoria - Place du Chatelet,19,0,22,0.8636363636363636,48.857992591527,2.3469167947769,2025-09-13 16:00:00,18.5,0.1,16.9
2025-09-13 16:30:00,10020,Chabrol - d'Hauteville,4,4,11,0.36363636363636365,48.877018388033,2.3513179644942,2025-09-13 16:00:00,18.5,0.1,16.9
2025-09-13 16:30:00,10021,Marché Saint-Quentin,7,8,15,0.4666666666666667,48.877356057652,2.3545114456374,2025-09-13 16:00:00,18.5,0.1,16.9
2025-09-13 16:30:00,10023,Gare de l'Est - Verdun,2,12,14,0.14285714285714285,48.876156054271,2.3609149083206,2025-09-13 16:00:00,18.5,0.1,16.9
2025-09-13 16:30:00,10025,Jemmapes - Ecluses Saint-Martin,7,7,15,0.4666666666666667,48.87748519186726,2.3660067468881607,2025-09-13 16:00:00,18.5,0.1,16.9
2025-09-13 16:30:00,10026,Gare de l'Est - Chateau Landon,12,48,59,0.2033898305084746,48.879305,2.362424,2025-09-13 16:00:00,18.5,0.1,16.9
2025-09-13 16:30:00,10027,Dunkerque - Alsace,11,7,20,0.55,48.879355,2.358379,2025-09-13 16:00:00,18.5,0.1,16.9
2025-09-13 16:30:00,10029,Dunkerque - Rocroy,6,14,24,0.25,48.880726,2.351464,2025-09-13 16:00:00,18.5,0.1,16.9
2025-09-13 16:30:00,1003,Saint-Denis - Rivoli,56,1,43,1.0,48.859059340842,2.3476943001151,2025-09-13 16:00:00,18.5,0.1,16.9
2025-09-13 16:30:00,10032,Claude Vellefaux - Hôpital Saint-Louis,6,25,32,0.1875,48.872859139003,2.3700717069851,2025-09-13 16:00:00,18.5,0.1,16.9
2025-09-13 16:30:00,10033,Gare du Nord - Saint-Vincent de Paul,11,9,24,0.4583333333333333,48.880955741648,2.3524305148385,2025-09-13 16:00:00,18.5,0.1,16.9
2025-09-13 16:30:00,10034,Louis Blanc - La Chapelle,9,10,21,0.42857142857142855,48.884008964514,2.3599335551262,2025-09-13 16:00:00,18.5,0.1,16.9
2025-09-13 16:30:00,10036,Aqueduc - Villette,4,13,28,0.14285714285714285,48.883886063895,2.367198803315,2025-09-13 16:00:00,18.5,0.1,16.9
2025-09-13 16:30:00,10037,Quai de Valmy,7,19,26,0.2692307692307692,48.88126951579429,2.368186041712761,2025-09-13 16:00:00,18.5,0.1,16.9
2025-09-13 16:30:00,10039,Sambre et Meuse - Villette,4,20,25,0.16,48.874405666217,2.3738072379951,2025-09-13 16:00:00,18.5,0.1,16.9
2025-09-13 16:30:00,10041,Gare du Nord - La Chapelle,2,14,18,0.1111111111111111,48.884178287286,2.3561057075858,2025-09-13 16:00:00,18.5,0.1,16.9
2025-09-13 16:30:00,10042,Enghien - Faubourg Poissonnière,18,7,33,0.5454545454545454,48.872420063053,2.3483952362828,2025-09-13 16:00:00,18.5,0.1,16.9
2025-09-13 16:30:00,1006,Grande Truanderie - Saint-Denis,34,0,33,1.0,48.8626302,2.3498075,2025-09-13 16:00:00,18.5,0.1,16.9
2025-09-13 16:30:00,1007,Turbigo - Française,14,0,16,0.875,48.86358858111446,2.3477794602513313,2025-09-13 16:00:00,18.5,0.1,16.9
2025-09-13 16:30:00,10105,Mazagran - Bonne Nouvelle,20,0,25,0.8,48.870047123655,2.3511248454452,2025-09-13 16:00:00,18.5,0.1,16.9
2025-09-13 16:30:00,10107,Gare du Nord - Hôpital Lariboisière,3,43,49,0.061224489795918366,48.881949,2.352339,2025-09-13 16:00:00,18.5,0.1,16.9
2025-09-13 16:30:00,10110,Louis Blanc - Jemmapes,10,20,31,0.3225806451612903,48.879330755297,2.3684485629201,2025-09-13 16:00:00,18.5,0.1,16.9
2025-09-13 16:30:00,10114,Granges aux Belles - Hôpital Saint-Louis,11,48,60,0.18333333333333332,48.874794994841,2.366669436985,2025-09-13 16:00:00,18.5,0.1,16.9
2025-09-13 16:30:00,10115,Granges aux Belles,5,21,27,0.18518518518518517,48.8761373390584,2.3680844979417,2025-09-13 16:00:00,18.5,0.1,16.9
2025-09-13 16:30:00,1012,Jean-Jacques Rousseau - Deux Ecus,18,2,22,0.8181818181818182,48.86297805972131,2.3414635285735126,2025-09-13 16:00:00,18.5,0.1,16.9
2025-09-13 16:30:00,1013,Place du Palais Royal,64,3,67,0.9552238805970149,48.862382970647,2.3384822532535,2025-09-13 16:00:00,18.5,0.1,16.9
2025-09-13 16:30:00,1014,Rivoli - Musée du Louvre,20,3,24,0.8333333333333334,48.86364636851945,2.33409583568573,2025-09-13 16:00:00,18.5,0.1,16.9
2025-09-13 16:30:00,1015,Place André Malraux,36,1,37,0.972972972972973,48.863925158727,2.3356226831675,2025-09-13 16:00:00,18.5,0.1,16.9
2025-09-13 16:30:00,10151,Gare du Nord - Faubourg Saint-Denis,18,8,28,0.6428571428571429,48.879612765504,2.3568402975798,2025-09-13 16:00:00,18.5,0.1,16.9
2025-09-13 16:30:00,1016,Thérèse - Opéra,21,2,25,0.84,48.866483514509,2.3344334212238,2025-09-13 16:00:00,18.5,0.1,16.9
2025-09-13 16:30:00,10161,Gare de l'Est - Faubourg-Saint-Martin,9,22,32,0.28125,48.875642647477,2.3594588041306,2025-09-13 16:00:00,18.5,0.1,16.9
2025-09-13 16:30:00,10163,Gare du Nord - Demarquay,22,5,30,0.7333333333333333,48.881154,2.358411,2025-09-13 16:00:00,18.5,0.1,16.9
2025-09-13 16:30:00,10166,Strasbourg - Saint-Denis,7,1,16,0.4375,48.869601642433,2.3542908579111,2025-09-13 16:00:00,18.5,0.1,16.9
2025-09-13 16:30:00,1017,Saint-Honoré - 29 juillet,16,2,20,0.8,48.86557114282421,2.330567417577153,2025-09-13 16:00:00,18.5,0.1,16.9
2025-09-13 16:30:00,1018,Alger - Rivoli,20,0,21,0.9523809523809523,48.864773553495,2.3294493936128,2025-09-13 16:00:00,18.5,0.1,16.9
2025-09-13 16:30:00,1020,Cambon - Rivoli,36,1,40,0.9,48.866143390992,2.3251800647137,2025-09-13 16:00:00,18.5,0.1,16.9
2025-09-13 16:30:00,10201,Magenta - Chabrol,14,4,24,0.5833333333333334,48.876495350882,2.3560990020633,2025-09-13 16:00:00,18.5,0.1,16.9
2025-09-13 16:30:00,10202,Bichat - Grange aux Belles,12,16,30,0.4,48.873688,2.365015,2025-09-13 16:00:00,18.5,0.1,16.9
2025-09-13 16:30:00,10206,René Boulanger - Lancry,16,14,34,0.47058823529411764,48.868769331741,2.3598745346052,2025-09-13 16:00:00,18.5,0.1,16.9
2025-09-13 16:30:00,1021,Halles - Bourdonnais,18,2,20,0.9,48.860448992575,2.3460162431002,2025-09-13 16:00:00,18.5,0.1,16.9
2025-09-13 16:30:00,1023,Saint-Honoré - Musée du Louvre,22,9,32,0.6875,48.863443132848,2.3348781846405,2025-09-13 16:00:00,18.5,0.1,16.9
2025-09-13 16:30:00,1024,Coquillière - Louvre,21,0,21,1.0,48.863795909662,2.3425736278296,2025-09-13 16:00:00,18.5,0.1,16.9
2025-09-13 16:30:00,1025,Oratoire - Rivoli,18,0,18,1.0,48.861342760889,2.3400047421455,2025-09-13 16:00:00,18.5,0.1,16.9
2025-09-13 16:30:00,1026,Place du Lieutenant Henri Karcher,27,2,30,0.9,48.863490871724466,2.3400671035051346,2025-09-13 16:00:00,18.5,0.1,16.9
2025-09-13 16:30:00,11001,Richard Lenoir - Place de la Bastille,50,0,53,0.9433962264150944,48.8538327,2.3697222,2025-09-13 16:00:00,18.5,0.1,16.9
2025-09-13 16:30:00,11002,Roquette - Thiéré,22,1,23,0.9565217391304348,48.85507930579506,2.3733686318721463,2025-09-13 16:00:00,18.5,0.1,16.9
2025-09-13 16:30:00,11003,Keller - La Roquette,23,10,34,0.6764705882352942,48.8555508,2.3752778,2025-09-13 16:00:00,18.5,0.1,16.9
2025-09-13 16:30:00,11004,Charonne - Faubourg Saint-Antoine,14,20,34,0.4117647058823529,48.852191909696,2.3740932717919,2025-09-13 16:00:00,18.5,0.1,16.9
2025-09-13 16:30:00,11006,Ledru-Rollin - Place du Père Chaillet,15,20,37,0.40540540540540543,48.856433706943704,2.379020587761426,2025-09-13 16:00:00,18.5,0.1,16.9
2025-09-13 16:30:00,11007,Jean Macé - Faidherbe,23,55,78,0.2948717948717949,48.85337548426,2.3828620836139,2025-09-13 16:00:00,18.5,0.1,16.9
2025-09-13 16:30:00,11009,Boulets - Voltaire,5,32,38,0.13157894736842105,48.85218705621,2.3890301585197,2025-09-13 16:00:00,18.5,0.1,16.9
2025-09-13 16:30:00,11010,Boulets - Faubourg Saint-Antoine,10,32,43,0.23255813953488372,48.849259262115,2.3917546141943,2025-09-13 16:00:00,18.5,0.1,16.9
2025-09-13 16:30:00,11011,Richard Lenoir - Voltaire,21,3,25,0.84,48.86164273878,2.3727491497993,2025-09-13 16:00:00,18.5,0.1,16.9
2025-09-13 16:30:00,11012,Montreuil - Voltaire,9,25,34,0.2647058823529412,48.850507011842,2.3930755582745,2025-09-13 16:00:00,18.5,0.1,16.9
2025-09-13 16:30:00,11014,Place de la Nation - Taillebourg,10,35,47,0.2127659574468085,48.8488408,2.3973043,2025-09-13 16:00:00,18.5,0.1,16.9
2025-09-13 16:30:00,11016,Philippe-Auguste,3,43,48,0.0625,48.851853488265,2.3932945355773,2025-09-13 16:00:00,18.5,0.1,16.9
2025-09-13 16:30:00,11017,Charonne - Bureau,6,40,47,0.1276595744680851,48.854176,2.396093,2025-09-13 16:00:00,18.5,0.1,16.9
2025-09-13 16:30:00,11019,Charonne - Philippe-Auguste,2,30,32,0.0625,48.855603162026,2.39054639062,2025-09-13 16:00:00,18.5,0.1,16.9
2025-09-13 16:30:00,1102,Française - Etienne Marcel,34,0,37,0.918918918918919,48.864053304653766,2.347587011754513,2025-09-13 16:00:00,18.5,0.1,16.9
2025-09-13 16:30:00,11020,Belfort - Voltaire,12,40,53,0.22641509433962265,48.8563358,2.3829901,2025-09-13 16:00:00,18.5,0.1,16.9
2025-09-13 16:30:00,11022,Roquette - Auguste Laurent,11,4,16,0.6875,48.858001906023354,2.381797702650783,2025-09-13 16:00:00,18.5,0.1,16.9
2025-09-13 16:30:00,11023,Saint-Maur - Roquette,6,40,46,0.13043478260869565,48.858688774062955,2.383553994571467,2025-09-13 16:00:00,18.5,0.1,16.9
2025-09-13 16:30:00,11024,Mairie du 11ème,24,26,51,0.47058823529411764,48.858925,2.3789759,2025-09-13 16:00:00,18.5,0.1,16.9
2025-09-13 16:30:00,11026,Chemin Vert - Saint-Maur,28,16,45,0.6222222222222222,48.86112461407359,2.381299026310444,2025-09-13 16:00:00,18.5,0.1,16.9
2025-09-13 16:30:00,11027,Saint-Ambroise - Parmentier,12,21,38,0.3157894736842105,48.862147844548,2.3772348091006,2025-09-13 16:00:00,18.5,0.1,16.9
2025-09-13 16:30:00,11028,Guillaume Bertrand - République,4,34,38,0.10526315789473684,48.863825174341,2.380906377155,2025-09-13 16:00:00,18.5,0.1,16.9
2025-09-13 16:30:00,11029,Ménilmontant - Oberkampf,16,23,40,0.4,48.866617658681,2.3830134404158,2025-09-13 16:00:00,18.5,0.1,16.9
2025-09-13 16:30:00,11030,Oberkampf - République,4,19,24,0.16666666666666666,48.86531608707,2.37611478491,2025-09-13 16:00:00,18.5,0.1,16.9
2025-09-13 16:30:00,11031,Jacquard - Ternaux,14,22,39,0.358974358974359,48.8646605,2.373162,2025-09-13 16:00:00,18.5,0.1,16.9
2025-09-13 16:30:00,11032,Jean-Pierre Timbaud - Vaucouleurs,16,31,47,0.3404255319148936,48.867937,2.377885,2025-09-13 16:00:00,18.5,0.1,16.9
2025-09-13 16:30:00,11034,Parmentier - Fontaine au Roi,10,37,48,0.20833333333333334,48.86787670551736,2.372705978671471,2025-09-13 16:00:00,18.5,0.1,16.9
2025-09-13 16:30:00,11035,Parmentier - Abel Rabaud,19,33,52,0.36538461538461536,48.86921273836114,2.371688821240712,2025-09-13 16:00:00,18.5,0.1,16.9
2025-09-13 16:30:00,11038,Temple - Charlot,41,3,45,0.9111111111111111,48.865709343796,2.3652737250724,2025-09-13 16:00:00,18.5,0.1,16.9
2025-09-13 16:30:00,11039,Richard Lenoir - Jean-Pierre Timbaud,14,20,36,0.3888888888888889,48.865804276686,2.3693370749669,2025-09-13 16:00:00,18.5,0.1,16.9
2025-09-13 16:30:00,11040,Temple - Jean-Pierre Timbaud,33,1,36,0.9166666666666666,48.86446597201,2.3660597205162,2025-09-13 16:00:00,18.5,0.1,16.9
2025-09-13 16:30:00,11042,Grand Prieuré - Crussol,33,16,49,0.673469387755102,48.864660627935,2.3692265531829,2025-09-13 16:00:00,18.5,0.1,16.9
2025-09-13 16:30:00,11044,Square du Bataclan,14,1,20,0.7,48.8633762,2.3711327,2025-09-13 16:00:00,18.5,0.1,16.9
2025-09-13 16:30:00,11046,Place de la République - Voltaire,16,0,19,0.8421052631578947,48.866830968942,2.3654810339212,2025-09-13 16:00:00,18.5,0.1,16.9
2025-09-13 16:30:00,11047,Amelot - Saint-Sébastien,25,4,30,0.8333333333333334,48.861142162761,2.3677996181077,2025-09-13 16:00:00,18.5,0.1,16.9
2025-09-13 16:30:00,11048,Place Mireille Havet,23,17,43,0.5348837209302325,48.850533,2.383756,2025-09-13 16:00:00,18.5,0.1,16.9
2025-09-13 16:30:00,11101,Charles Delescluze,18,29,49,0.3673469387755102,48.85242200848887,2.380632497370243,2025-09-13 16:00:00,18.5,0.1,16.9
2025-09-13 16:30:00,11103,Pelée - Alphonse Baudin,29,5,38,0.7631578947368421,48.8600265,2.3710541,2025-09-13 16:00:00,18.5,0.1,16.9
2025-09-13 16:30:00,11104,Charonne - Robert et Sonia Delaunay,0,19,20,0.0,48.855907555969,2.3925706744194,2025-09-13 16:00:00,18.5,0.1,16.9
2025-09-13 16:30:00,11105,Parmentier - République,13,12,50,0.26,48.8644954,2.3750124,2025-09-13 16:00:00,18.5,0.1,16.9
2025-09-13 16:30:00,11109,Pierre Levée - Fontaine Timbaud,19,4,23,0.8260869565217391,48.86632723374305,2.3711163550615306,2025-09-13 16:00:00,18.5,0.1,16.9
2025-09-13 16:30:00,11110,Roquette - Folie Regnault,11,39,52,0.21153846153846154,48.859246959155485,2.386553623578705,2025-09-13 16:00:00,18.5,0.1,16.9
2025-09-13 16:30:00,11111,Léon Frot - Charonne,15,4,19,0.7894736842105263,48.854963800335234,2.387217085372007,2025-09-13 16:00:00,18.5,0.1,16.9
2025-09-13 16:30:00,11112,Jules Vallès - Charonne,6,16,23,0.2608695652173913,48.854284379935,2.3847674578428,2025-09-13 16:00:00,18.5,0.1,16.9
2025-09-13 16:30:00,11113,Richard Lenoir - Republique,14,39,58,0.2413793103448276,48.8667175,2.3692541,2025-09-13 16:00:00,18.5,0.1,16.9
2025-09-13 16:30:00,11114,Ledru-Rollin - Charonne,15,16,32,0.46875,48.85345855607243,2.3772463581947094,2025-09-13 16:00:00,18.5,0.1,16.9
2025-09-13 16:30:00,11115,Montreuil - Gonnet,6,18,24,0.25,48.850500564921,2.3890856287864,2025-09-13 16:00:00,18.5,0.1,16.9
2025-09-13 16:30:00,1116,Ventadour - Opéra,24,2,27,0.8888888888888888,48.866810653323,2.3343884482519,2025-09-13 16:00:00,18.5,0.1,16.9
2025-09-13 16:30:00,1117,Pont Neuf - Rivoli,25,0,27,0.9259259259259259,48.860089892617,2.344057559967,2025-09-13 16:00:00,18.5,0.1,16.9
2025-09-13 16:30:00,1119,Cossonnerie - Sébastopol,23,1,24,0.9583333333333334,48.86132665908402,2.349419631063938,2025-09-13 16:00:00,18.5,0.1,16.9
2025-09-13 16:30:00,1120,Lavandieres Sainte Opportune - Rivoli,27,0,27,1.0,48.859279702476,2.3466217517853,2025-09-13 16:00:00,18.5,0.1,16.9
2025-09-13 16:30:00,11201,Faubourg St-Antoine - Place de la Nation,3,12,16,0.1875,48.8487726,2.393606,2025-09-13 16:00:00,18.5,0.1,16.9
2025-09-13 16:30:00,12001,Bastille - Biscornet,39,18,62,0.6290322580645161,48.851355779579,2.369220033288,2025-09-13 16:00:00,18.5,0.1,16.9
2025-09-13 16:30:00,12002,Lacuée - Lyon,16,0,16,1.0,48.849268481958,2.3704585433006,2025-09-13 16:00:00,18.5,0.1,16.9
2025-09-13 16:30:00,12005,Crozatier - Faubourg Saint-Antoine,37,3,42,0.8809523809523809,48.850440013405,2.378901366211,2025-09-13 16:00:00,18.5,0.1,16.9
2025-09-13 16:30:00,12006,Gare de Lyon - Van Gogh,38,3,41,0.926829268292683,48.843839785643,2.3704450240357,2025-09-13 16:00:00,18.5,0.1,16.9
2025-09-13 16:30:00,12007,Gare de Lyon - Chalon,39,4,45,0.8666666666666667,48.845666194202,2.3741452395916,2025-09-13 16:00:00,18.5,0.1,16.9
2025-09-13 16:30:00,12008,Hector Malot - Daumesnil,50,2,54,0.9259259259259259,48.84693552991762,2.3770876228809357,2025-09-13 16:00:00,18.5,0.1,16.9
2025-09-13 16:30:00,12009,Charenton - Diderot,9,8,18,0.5,48.846171461187,2.3793068155646,2025-09-13 16:00:00,18.5,0.1,16.9
2025-09-13 16:30:00,12010,Daumesnil - Picpus,7,14,21,0.3333333333333333,48.8374688,2.401765,2025-09-13 16:00:00,18.5,0.1,16.9
2025-09-13 16:30:00,12015,Place de la Nation - Picpus,3,33,36,0.08333333333333333,48.846821681548,2.4001130461693,2025-09-13 16:00:00,18.5,0.1,16.9
2025-09-13 16:30:00,12016,Saint-Mande - Picpus,5,30,35,0.14285714285714285,48.845127728278,2.4015686296482,2025-09-13 16:00:00,18.5,0.1,16.9
2025-09-13 16:30:00,12017,Saint-Mandé - Docteur Arnold Netter,11,41,53,0.20754716981132076,48.84462585769668,2.404946386814118,2025-09-13 16:00:00,18.5,0.1,16.9
2025-09-13 16:30:00,12018,Saint-Mandé - Fabre d'Eglantine,6,26,34,0.17647058823529413,48.8453579,2.3965022,2025-09-13 16:00:00,18.5,0.1,16.9
2025-09-13 16:30:00,12019,Gare de Reuilly - Picpus,5,21,28,0.17857142857142858,48.84267354116789,2.3972943797707558,2025-09-13 16:00:00,18.5,0.1,16.9
2025-09-13 16:30:00,12020,Cours de Vincennes - Soult,13,31,45,0.28888888888888886,48.846918761569,2.4105220288038,2025-09-13 16:00:00,18.5,0.1,16.9
2025-09-13 16:30:00,12022,Sahel - Général Michel Bizot,4,42,47,0.0851063829787234,48.840872964793355,2.4044444784522057,2025-09-13 16:00:00,18.5,0.1,16.9
2025-09-13 16:30:00,12024,Gare de Bercy,30,4,35,0.8571428571428571,48.839794573906,2.3826066032052,2025-09-13 16:00:00,18.5,0.1,16.9
2025-09-13 16:30:00,12026,Place Ginette Hamelin,45,4,51,0.8823529411764706,48.837853,2.382064,2025-09-13 16:00:00,18.5,0.1,16.9
2025-09-13 16:30:00,12027,Montgallet - Charenton,5,10,16,0.3125,48.842647778701,2.3861649278137,2025-09-13 16:00:00,18.5,0.1,16.9
2025-09-13 16:30:00,12028,Vivaldi - Antoine-Julien Hénard,3,23,27,0.1111111111111111,48.841923663276546,2.389728979467376,2025-09-13 16:00:00,18.5,0.1,16.9
2025-09-13 16:30:00,12031,Gabriel Lamé,35,1,36,0.9722222222222222,48.8351212784276,2.385534569621086,2025-09-13 16:00:00,18.5,0.1,16.9
2025-09-13 16:30:00,12032,Porte Dorée,14,21,36,0.3888888888888889,48.8354337,2.4077132,2025-09-13 16:00:00,18.5,0.1,16.9
2025-09-13 16:30:00,12033,François Truffaut - Saint Emilion,66,0,66,1.0,48.83372354344807,2.386601903271428,2025-09-13 16:00:00,18.5,0.1,16.9
2025-09-13 16:30:00,12035,Madagascar - Meuniers,5,40,47,0.10638297872340426,48.83460464474706,2.3970650508999825,2025-09-13 16:00:00,18.5,0.1,16.9
2025-09-13 16:30:00,12036,Reuilly - Place Felix Eboue,9,32,42,0.21428571428571427,48.84030274499962,2.394630398715453,2025-09-13 16:00:00,18.5,0.1,16.9
2025-09-13 16:30:00,12037,Reuilly - Daumesnil,6,30,36,0.16666666666666666,48.8395385,2.3972516,2025-09-13 16:00:00,18.5,0.1,16.9
2025-09-13 16:30:00,12038,Picpus - Louis Braille,9,47,58,0.15517241379310345,48.839988788912,2.4005256685521,2025-09-13 16:00:00,18.5,0.1,16.9
2025-09-13 16:30:00,12039,Général Michel Bizot - Claude Decaen,2,47,50,0.04,48.834812629825,2.4009277881277,2025-09-13 16:00:00,18.5,0.1,16.9
2025-09-13 16:30:00,12040,Porte de Charenton,10,55,67,0.14925373134328357,48.831240105856,2.3989107459784,2025-09-13 16:00:00,18.5,0.1,16.9
2025-09-13 16:30:00,12041,Bois de Vincennes.,9,51,60,0.15,48.8338064,2.4132221,2025-09-13 16:00:00,18.5,0.1,16.9
2025-09-13 16:30:00,12043,Daumesnil - Hébrard,25,13,40,0.625,48.8429,2.38474,2025-09-13 16:00:00,18.5,0.1,16.9
2025-09-13 16:30:00,12101,Charenton - Prague,22,0,26,0.8461538461538461,48.848175129981,2.3763584494312,2025-09-13 16:00:00,18.5,0.1,16.9
2025-09-13 16:30:00,12102,Bercy - Traversiére,28,2,30,0.9333333333333333,48.846192642574,2.3703800886869,2025-09-13 16:00:00,18.5,0.1,16.9
2025-09-13 16:30:00,12105,Bercy - Villot,32,5,33,0.9696969696969697,48.841795009027,2.3767850184816,2025-09-13 16:00:00,18.5,0.1,16.9
2025-09-13 16:30:00,12106,Gare de Lyon - Roland Barthes,67,1,68,0.9852941176470589,48.84395729494058,2.3790882155299187,2025-09-13 16:00:00,18.5,0.1,16.9
2025-09-13 16:30:00,12107,Diderot - Pierre Bourdan,8,12,21,0.38095238095238093,48.847648620797,2.3902582749724,2025-09-13 16:00:00,18.5,0.1,16.9
2025-09-13 16:30:00,12108,Bercy.,62,4,66,0.9393939393939394,48.839966914994,2.3788625746965,2025-09-13 16:00:00,18.5,0.1,16.9
2025-09-13 16:30:00,12109,Mairie du 12ème,8,21,30,0.26666666666666666,48.840855311763,2.3875549435616,2025-09-13 16:00:00,18.5,0.1,16.9
2025-09-13 16:30:00,12111,Claude Decaen - Cannebière,3,42,45,0.06666666666666667,48.83761417037952,2.397253782195704,2025-09-13 16:00:00,18.5,0.1,16.9
2025-09-13 16:30:00,12113,Cardinal Lavigerie,7,39,46,0.15217391304347827,48.832934193699835,2.402636749399156,2025-09-13 16:00:00,18.5,0.1,16.9
2025-09-13 16:30:00,12114,Victor Hugo - Jeanne Jugan,16,12,28,0.5714285714285714,48.843949064031825,2.415081394834419,2025-09-13 16:00:00,18.5,0.1,16.9
2025-09-13 16:30:00,12115,Porte de Vincennes,16,14,33,0.48484848484848486,48.846454,2.415514,2025-09-13 16:00:00,18.5,0.1,16.9
2025-09-13 16:30:00,12119,Dom-Pérignon - Gravelle,7,43,50,0.14,48.825481574435,2.409880310297,2025-09-13 16:00:00,18.5,0.1,16.9
2025-09-13 16:30:00,12120,Lac Daumesnil - Saint-Maurice,5,44,50,0.1,48.82774555743318,2.4183654785156246,2025-09-13 16:00:00,18.5,0.1,16.9
2025-09-13 16:30:00,12122,Bois de Vincennes - Polygone,16,32,51,0.3137254901960784,48.83544491617421,2.431421081436563,2025-09-13 16:00:00,18.5,0.1,16.9
2025-09-13 16:30:00,12123,Château de Vincennes,30,20,52,0.5769230769230769,48.84423193255657,2.439209537709179,2025-09-13 16:00:00,18.5,0.1,16.9
2025-09-13 16:30:00,12125,Pyramide - Parc Floral,35,14,50,0.7,48.837442,2.440452,2025-09-13 16:00:00,18.5,0.1,16.9
2025-09-13 16:30:00,12126,Gravelle - Route du Bac,7,42,51,0.13725490196078433,48.824407,2.418455,2025-09-13 16:00:00,18.5,0.1,16.9
2025-09-13 16:30:00,12127,Tremblay - Lac des Minimes,39,8,48,0.8125,48.834131261494,2.4547516554594,2025-09-13 16:00:00,18.5,0.1,16.9
2025-09-13 16:30:00,12128,Pyramide - Ecole du Breuil,20,13,34,0.5882352941176471,48.82237977153955,2.4586871266365056,2025-09-13 16:00:00,18.5,0.1,16.9
2025-09-13 16:30:00,12129,Bois de Vincennes - Porte Jaune,7,28,35,0.2,48.838751246689455,2.4605489149689674,2025-09-13 16:00:00,18.5,0.1,16.9
2025-09-13 16:30:00,12150,Bastille - Quai de la Rapée,19,8,27,0.7037037037037037,48.84682410855,2.3669364675879,2025-09-13 16:00:00,18.5,0.1,16.9
2025-09-13 16:30:00,12151,Gare de Lyon - Place Louis Armand,55,2,60,0.9166666666666666,48.845515089794,2.3726498446286,2025-09-13 16:00:00,18.5,0.1,16.9
2025-09-13 16:30:00,12153,Terroirs de France - Lheureux,53,1,55,0.9636363636363636,48.83212027074841,2.388618104159832,2025-09-13 16:00:00,18.5,0.1,16.9
2025-09-13 16:30:00,12154,Square Georges Melies,8,29,40,0.2,48.84070239213081,2.409667745232582,2025-09-13 16:00:00,18.5,0.1,16.9
2025-09-13 16:30:00,12155,Rottembourg - Général Michel Bizot,6,36,43,0.13953488372093023,48.83787825992554,2.4044052511453633,2025-09-13 16:00:00,18.5,0.1,16.9
2025-09-13 16:30:00,12156,Niger - Soult,5,18,24,0.20833333333333334,48.84369906369085,2.410361237220498,2025-09-13 16:00:00,18.5,0.1,16.9
2025-09-13 16:30:00,12157,Fabre d'Eglantine - Place de la Nation,8,60,68,0.11764705882352941,48.8471116,2.3956204,2025-09-13 16:00:00,18.5,0.1,16.9
2025-09-13 16:30:00,12161,Diderot - Reuilly,22,19,44,0.5,48.847208456061,2.3861273378134,2025-09-13 16:00:00,18.5,0.1,16.9
2025-09-13 16:30:00,12163,Hippodrome Paris-Vincennes,26,16,42,0.6190476190476191,48.82048387758518,2.446271181106568,2025-09-13 16:00:00,18.5,0.1,16.9
2025-09-13 16:30:00,12164,Stade Pershing,6,18,26,0.23076923076923078,48.829107826857,2.4583535268903,2025-09-13 16:00:00,18.5,0.1,16.9
2025-09-13 16:30:00,12165,Champs de Manoeuvre - Cartoucherie,26,9,35,0.7428571428571429,48.835261,2.447974,2025-09-13 16:00:00,18.5,0.1,16.9
2025-09-13 16:30:00,12166,Parc Floral du Bel Air,21,3,25,0.84,48.839285711865735,2.438560165464878,2025-09-13 16:00:00,18.5,0.1,16.9
2025-09-13 16:30:00,12203,Nicolaï - Charenton,11,32,44,0.25,48.835478791995,2.392894725661,2025-09-13 16:00:00,18.5,0.1,16.9
2025-09-13 16:30:00,12204,Prague - Théophile Roussel,31,3,34,0.9117647058823529,48.850330563516,2.3758223011125,2025-09-13 16:00:00,18.5,0.1,16.9
2025-09-13 16:30:00,12505,Journée des Critériums - fête du Cheval,5,95,104,0.04807692307692308,48.820864559771,2.4520848995492,2025-09-13 16:00:00,18.5,0.1,16.9
2025-09-13 16:30:00,13001,Port-Royal - Hôpital du Val-de-Grâce,5,12,18,0.2777777777777778,48.837668272811,2.3448138346607,2025-09-13 16:00:00,18.5,0.1,16.9
2025-09-13 16:30:00,13002,Arago - Glacière,13,11,27,0.48148148148148145,48.83486054775774,2.3445770524322067,2025-09-13 16:00:00,18.5,0.1,16.9
2025-09-13 16:30:00,13009,Auguste Blanqui - Corvisart,13,13,26,0.5,48.8300989,2.3502726,2025-09-13 16:00:00,18.5,0.1,16.9
2025-09-13 16:30:00,13011,Hôpital - Campo-Formio,10,1,11,0.9090909090909091,48.835405,2.358218,2025-09-13 16:00:00,18.5,0.1,16.9
2025-09-13 16:30:00,13013,Saint-Marcel - Hôpital,20,0,21,0.9523809523809523,48.839504424583,2.3609894170229,2025-09-13 16:00:00,18.5,0.1,16.9
2025-09-13 16:30:00,13015,Chevaleret - Louise Weiss,26,9,35,0.7428571428571429,48.832586513351,2.37121138812,2025-09-13 16:00:00,18.5,0.1,16.9
2025-09-13 16:30:00,13016,Primo Levi - Frigos,34,0,34,1.0,48.83094844846017,2.37965351592796,2025-09-13 16:00:00,18.5,0.1,16.9
2025-09-13 16:30:00,13017,Nationale - Vincent Auriol,22,11,33,0.6666666666666666,48.83252708397293,2.362354410392119,2025-09-13 16:00:00,18.5,0.1,16.9
2025-09-13 16:30:00,13018,Bruant - Vincent Auriol,23,1,25,0.92,48.834848452929,2.3668264996271,2025-09-13 16:00:00,18.5,0.1,16.9
2025-09-13 16:30:00,13019,Fernand Braudel - Vincent Auriol,32,2,36,0.8888888888888888,48.83637852318147,2.3723404482007027,2025-09-13 16:00:00,18.5,0.1,16.9
2025-09-13 16:30:00,13020,Paul Klee - Place Augusta Holmes,40,2,43,0.9302325581395349,48.838946417408025,2.3704235663952966,2025-09-13 16:00:00,18.5,0.1,16.9
2025-09-13 16:30:00,13022,Butte aux Cailles - Esperance,8,26,36,0.2222222222222222,48.82758774190948,2.3492151126265526,2025-09-13 16:00:00,18.5,0.1,16.9
2025-09-13 16:30:00,13023,Bobillot - Moulin des Prés,3,23,28,0.10714285714285714,48.828657346203,2.353020646317,2025-09-13 16:00:00,18.5,0.1,16.9
2025-09-13 16:30:00,13024,Bobillot - Tolbiac,6,27,33,0.18181818181818182,48.8255961335041,2.350204177200794,2025-09-13 16:00:00,18.5,0.1,16.9
2025-09-13 16:30:00,13026,Place Jean Delay,4,31,35,0.11428571428571428,48.823316,2.354336,2025-09-13 16:00:00,18.5,0.1,16.9
2025-09-13 16:30:00,13027,Mazagran - Pierre de Coubertin,2,13,15,0.13333333333333333,48.816218640260445,2.344226874411106,2025-09-13 16:00:00,18.5,0.1,16.9
2025-09-13 16:30:00,13028,Gouthière - Poterne des Peupliers,20,11,33,0.6060606060606061,48.820507,2.351342,2025-09-13 16:00:00,18.5,0.1,16.9
2025-09-13 16:30:00,13030,Italie - Tolbiac,4,16,21,0.19047619047619047,48.82557229464416,2.3576171323657036,2025-09-13 16:00:00,18.5,0.1,16.9
2025-09-13 16:30:00,13032,Italie - Jardin Joan Miro,11,14,26,0.4230769230769231,48.81990914045756,2.3592948541045193,2025-09-13 16:00:00,18.5,0.1,16.9
2025-09-13 16:30:00,13033,Porte d'Italie,6,7,13,0.46153846153846156,48.817161987718954,2.360236309468746,2025-09-13 16:00:00,18.5,0.1,16.9
2025-09-13 16:30:00,13035,Choisy - Tolbiac,7,13,20,0.35,48.82591155587,2.3602393269539,2025-09-13 16:00:00,18.5,0.1,16.9
2025-09-13 16:30:00,13036,Olympiades,8,26,36,0.2222222222222222,48.826764665199,2.3650860786438,2025-09-13 16:00:00,18.5,0.1,16.9
2025-09-13 16:30:00,13037,Ivry - Baudricourt,2,18,20,0.1,48.824695995415006,2.363106073577468,2025-09-13 16:00:00,18.5,0.1,16.9
2025-09-13 16:30:00,13039,Ivry - Simone Weil,3,15,18,0.16666666666666666,48.823283932030755,2.3659095168113713,2025-09-13 16:00:00,18.5,0.1,16.9
2025-09-13 16:30:00,13044,Place Jeanne d'Arc,10,24,36,0.2777777777777778,48.829575,2.369126,2025-09-13 16:00:00,18.5,0.1,16.9
2025-09-13 16:30:00,13045,Jean Colly - Tolbiac,8,27,36,0.2222222222222222,48.827817291597846,2.3705490678548813,2025-09-13 16:00:00,18.5,0.1,16.9
2025-09-13 16:30:00,13047,Boutroux - Porte de Vitry,23,26,49,0.46938775510204084,48.822632,2.377738,2025-09-13 16:00:00,18.5,0.1,16.9
2025-09-13 16:30:00,13048,Wurtz - Tolbiac,3,24,28,0.10714285714285714,48.82631195621,2.344585955143,2025-09-13 16:00:00,18.5,0.1,16.9
2025-09-13 16:30:00,13049,Vincent Auriol - Louise Weiss,19,2,22,0.8636363636363636,48.834001935501,2.3703888058662,2025-09-13 16:00:00,18.5,0.1,16.9
2025-09-13 16:30:00,13050,Quai Panhard et Levassor,8,47,57,0.14035087719298245,48.828374828097,2.3842737458056,2025-09-13 16:00:00,18.5,0.1,16.9
2025-09-13 16:30:00,13051,Halle Freyssinet - Parvis Alan Turing,15,22,37,0.40540540540540543,48.832846814471,2.3711421713233,2025-09-13 16:00:00,18.5,0.1,16.9
2025-09-13 16:30:00,13052,Leredde - Tolbiac,42,0,44,0.9545454545454546,48.82887629664,2.3744382709265,2025-09-13 16:00:00,18.5,0.1,16.9
2025-09-13 16:30:00,13053,Chevaleret - Tolbiac,20,1,21,0.9523809523809523,48.82941,2.375934,2025-09-13 16:00:00,18.5,0.1,16.9
2025-09-13 16:30:00,13054,Pau Casals - Neuve Tolbiac,75,0,78,0.9615384615384616,48.8311602,2.3774395,2025-09-13 16:00:00,18.5,0.1,16.9
2025-09-13 16:30:00,13055,M.- A. Lagroua Weill-Hallé -  F. Dolto,59,0,60,0.9833333333333333,48.828595283857425,2.380220606266108,2025-09-13 16:00:00,18.5,0.1,16.9
2025-09-13 16:30:00,13101,Croulebarde - Corvisart,22,12,34,0.6470588235294118,48.830981659316855,2.3481646925210953,2025-09-13 16:00:00,18.5,0.1,16.9
2025-09-13 16:30:00,13103,Hôpital Pitié Salpêtrière,19,28,50,0.38,48.8377016,2.3604946,2025-09-13 16:00:00,18.5,0.1,16.9
2025-09-13 16:30:00,13104,Gare d'Austerlitz - Quai Saint-Bernard,27,0,27,1.0,48.84369030864,2.3657163977623,2025-09-13 16:00:00,18.5,0.1,16.9
2025-09-13 16:30:00,13106,Bobillot - Paulin Mery,6,14,23,0.2608695652173913,48.829899841747,2.3543356766749,2025-09-13 16:00:00,18.5,0.1,16.9
2025-09-13 16:30:00,13109,Brillat-Savarin - Küss,4,17,21,0.19047619047619047,48.822203,2.350422,2025-09-13 16:00:00,18.5,0.1,16.9
2025-09-13 16:30:00,13110,Moulin de la Pointe,4,17,22,0.18181818181818182,48.82092946051445,2.3563179373741145,2025-09-13 16:00:00,18.5,0.1,16.9
2025-09-13 16:30:00,13113,Vistule - Choisy,13,20,33,0.3939393939393939,48.82365543660611,2.3615723848342896,2025-09-13 16:00:00,18.5,0.1,16.9
2025-09-13 16:30:00,13114,Nationale - Marcel Duchamp,11,11,23,0.4782608695652174,48.82463749337136,2.3678014799952507,2025-09-13 16:00:00,18.5,0.1,16.9
2025-09-13 16:30:00,13116,Place du Docteur Yersin,4,41,50,0.08,48.82010494991975,2.3725583776831627,2025-09-13 16:00:00,18.5,0.1,16.9
2025-09-13 16:30:00,13117,Stade Georges Carpentier,10,28,40,0.25,48.820482438381,2.3668321967125,2025-09-13 16:00:00,18.5,0.1,16.9
2025-09-13 16:30:00,13118,Regnault - Patay,43,19,63,0.6825396825396826,48.82435782216384,2.377065159380436,2025-09-13 16:00:00,18.5,0.1,16.9
2025-09-13 16:30:00,13120,Pierre Joseph Desault,10,7,19,0.5263157894736842,48.82110230800372,2.378775402903557,2025-09-13 16:00:00,18.5,0.1,16.9
2025-09-13 16:30:00,13121,Bruneseau - Quai d'Ivry,30,16,46,0.6521739130434783,48.824945637583,2.3885661363602,2025-09-13 16:00:00,18.5,0.1,16.9
2025-09-13 16:30:00,13125,Gare d'Austerlitz - Pont Charles de Gaulle,68,5,75,0.9066666666666666,48.842319830109,2.3670300096273,2025-09-13 16:00:00,18.5,0.1,16.9
2025-09-13 16:30:00,13126,Place Nationale - Château-des-Rentiers,9,9,18,0.5,48.829268,2.365212,2025-09-13 16:00:00,18.5,0.1,16.9
2025-09-13 16:30:00,13128,Quai de la Gare - Pont de Bercy,29,0,30,0.9666666666666667,48.83730787972,2.3740861260598,2025-09-13 16:00:00,18.5,0.1,16.9
2025-09-13 16:30:00,13203,Square de Choisy - Eastman,8,15,24,0.3333333333333333,48.828543456283,2.3583075090494,2025-09-13 16:00:00,18.5,0.1,16.9
2025-09-13 16:30:00,13204,Tolbiac - Boussingault,11,29,41,0.2682926829268293,48.826177754027,2.3420378552202,2025-09-13 16:00:00,18.5,0.1,16.9
2025-09-13 16:30:00,13205,Choisy - Pointe d'Ivry,7,17,24,0.2916666666666667,48.822154170359,2.3633708034878,2025-09-13 16:00:00,18.5,0.1,16.9
2025-09-13 16:30:00,13515,Auguste Blanqui - Glacière,18,42,60,0.3,48.831151602964,2.343822196126,2025-09-13 16:00:00,18.5,0.1,16.9
2025-09-13 16:30:00,13516,Glacière - Soeur Catherine Marie,14,25,40,0.35,48.829522989420596,2.343570403754711,2025-09-13 16:00:00,18.5,0.1,16.9
2025-09-13 16:30:00,14001,Edgar Quinet - Gaité,23,2,27,0.8518518518518519,48.841160928966,2.324595451355,2025-09-13 16:00:00,18.5,0.1,16.9
2025-09-13 16:30:00,14002,Edgar Quinet - Raspail,15,28,46,0.32608695652173914,48.83940266673835,2.32971478253603,2025-09-13 16:00:00,18.5,0.1,16.9
2025-09-13 16:30:00,14003,Schoelcher - Raspail,5,43,50,0.1,48.83681733526843,2.3312794080411474,2025-09-13 16:00:00,18.5,0.1,16.9
2025-09-13 16:30:00,14004,Port Royal - Hôpital Cochin,4,17,23,0.17391304347826086,48.838608030238,2.3406994164846,2025-09-13 16:00:00,18.5,0.1,16.9
2025-09-13 16:30:00,14005,René Coty - Place Denfert-Rochereau,8,26,36,0.2222222222222222,48.833056477316,2.3329411447048,2025-09-13 16:00:00,18.5,0.1,16.9
2025-09-13 16:30:00,14006,Saint-Jacques - Tombe Issoire,9,14,23,0.391304347826087,48.833206330538864,2.3369108140468597,2025-09-13 16:00:00,18.5,0.1,16.9
2025-09-13 16:30:00,14007,Ferrus - Saint-Jacques,14,19,34,0.4117647058823529,48.8313878,2.3408563,2025-09-13 16:00:00,18.5,0.1,16.9
2025-09-13 16:30:00,14008,Mouton Duvernet - Général Leclerc,9,17,28,0.32142857142857145,48.831632518293,2.3293121159077,2025-09-13 16:00:00,18.5,0.1,16.9
2025-09-13 16:30:00,14009,Tombe Issoire - René Coty,2,33,36,0.05555555555555555,48.830512876709,2.3343613743782,2025-09-13 16:00:00,18.5,0.1,16.9
2025-09-13 16:30:00,14011,Place des Droits de l'Enfant,5,33,39,0.1282051282051282,48.8274804,2.3319217,2025-09-13 16:00:00,18.5,0.1,16.9
2025-09-13 16:30:00,14012,Sibelle - Alésia,10,27,37,0.2702702702702703,48.826701758539215,2.3384983465075493,2025-09-13 16:00:00,18.5,0.1,16.9
2025-09-13 16:30:00,14013,Liard - Amiral Mouchez,6,21,28,0.21428571428571427,48.8214169,2.342167,2025-09-13 16:00:00,18.5,0.1,16.9
2025-09-13 16:30:00,14014,Jourdan - Stade Charléty,4,56,60,0.06666666666666667,48.819428333369,2.3433353751898,2025-09-13 16:00:00,18.5,0.1,16.9
2025-09-13 16:30:00,14016,René Coty - Parc Montsouris,5,50,55,0.09090909090909091,48.82479134498032,2.336124926805496,2025-09-13 16:00:00,18.5,0.1,16.9
2025-09-13 16:30:00,14018,Porte d'Orléans,6,40,48,0.125,48.8227639,2.3249313,2025-09-13 16:00:00,18.5,0.1,16.9
2025-09-13 16:30:00,14019,Sarrette - Général Leclerc,5,16,22,0.22727272727272727,48.825030852925,2.3264128693982,2025-09-13 16:00:00,18.5,0.1,16.9
2025-09-13 16:30:00,14020,Cimetière de Montrouge,3,55,58,0.05172413793103448,48.821466904768,2.3215785772007,2025-09-13 16:00:00,18.5,0.1,16.9
2025-09-13 16:30:00,14021,Place de la Porte de Châtillon,5,53,59,0.0847457627118644,48.8242469,2.3186306,2025-09-13 16:00:00,18.5,0.1,16.9
2025-09-13 16:30:00,14022,Didot - Mariniers,6,28,35,0.17142857142857143,48.82650543613106,2.313136198271666,2025-09-13 16:00:00,18.5,0.1,16.9
2025-09-13 16:30:00,14023,Adolphe Pinard - Victor Hugo,1,49,52,0.019230769230769232,48.8236825874564,2.3077843710780144,2025-09-13 16:00:00,18.5,0.1,16.9
2025-09-13 16:30:00,14025,Jacquier - Didot,2,28,30,0.06666666666666667,48.82953336292279,2.318179272115231,2025-09-13 16:00:00,18.5,0.1,16.9
2025-09-13 16:30:00,14026,Plantes - Moulin Vert,6,39,45,0.13333333333333333,48.83005755305626,2.3232302069664006,2025-09-13 16:00:00,18.5,0.1,16.9
2025-09-13 16:30:00,14027,Gergovie - Alésia,4,50,54,0.07407407407407407,48.83088717455243,2.318882101207347,2025-09-13 16:00:00,18.5,0.1,16.9
2025-09-13 16:30:00,14030,Pernety - Raymond Losserand,4,28,32,0.125,48.834254627953,2.317609339387,2025-09-13 16:00:00,18.5,0.1,16.9
2025-09-13 16:30:00,14031,Didot - Place de Moro-Giafferi,3,17,22,0.13636363636363635,48.8337,2.3215,2025-09-13 16:00:00,18.5,0.1,16.9
2025-09-13 16:30:00,14035,Maine - Jean Zay,25,22,50,0.5,48.837925263898,2.3225428909063,2025-09-13 16:00:00,18.5,0.1,16.9
2025-09-13 16:30:00,14036,Boulard - Daguerre,4,41,45,0.08888888888888889,48.83446472680611,2.3293386027216907,2025-09-13 16:00:00,18.5,0.1,16.9
2025-09-13 16:30:00,14101,Gare Montparnasse - Edgar Quinet,16,17,33,0.48484848484848486,48.841487851079,2.3233232282801,2025-09-13 16:00:00,18.5,0.1,16.9
2025-09-13 16:30:00,14103,Maine - Liancourt,4,22,27,0.14814814814814814,48.835064363954,2.323731449974,2025-09-13 16:00:00,18.5,0.1,16.9
2025-09-13 16:30:00,14104,Boyer-Barret - Raymond Losserand,3,19,23,0.13043478260869565,48.83329880233322,2.3173383995890617,2025-09-13 16:00:00,18.5,0.1,16.9
2025-09-13 16:30:00,14106,Marc Sangnier - Porte de Vanves,5,15,21,0.23809523809523808,48.825218683556734,2.3107116669416428,2025-09-13 16:00:00,18.5,0.1,16.9
2025-09-13 16:30:00,14108,Le Brix et Mesmin - Jourdan,1,19,21,0.047619047619047616,48.82234096593411,2.327861653302471,2025-09-13 16:00:00,18.5,0.1,16.9
2025-09-13 16:30:00,14110,Abbé Carton - Plantes,4,21,25,0.16,48.827673823166,2.3209181427956,2025-09-13 16:00:00,18.5,0.1,16.9
2025-09-13 16:30:00,14113,Santé - Arago,7,28,38,0.18421052631578946,48.83507657562064,2.3415737262044938,2025-09-13 16:00:00,18.5,0.1,16.9
2025-09-13 16:30:00,14116,Romain Rolland,4,21,25,0.16,48.820215229662765,2.3234144234418346,2025-09-13 16:00:00,18.5,0.1,16.9
2025-09-13 16:30:00,14122,Colonel Monteil - Brune,2,15,19,0.10526315789473684,48.82650293311,2.3092747998272,2025-09-13 16:00:00,18.5,0.1,16.9
2025-09-13 16:30:00,14124,David Weill - Parc Montsouris,5,17,22,0.22727272727272727,48.821092374256104,2.333725690841675,2025-09-13 16:00:00,18.5,0.1,16.9
2025-09-13 16:30:00,14125,Dareau - Broussais,3,21,24,0.125,48.8307758,2.3361804,2025-09-13 16:00:00,18.5,0.1,16.9
2025-09-13 16:30:00,14127,Odessa - Départ,15,22,39,0.38461538461538464,48.842885590081,2.3244281485677,2025-09-13 16:00:00,18.5,0.1,16.9
2025-09-13 16:30:00,14128,Gergovie - Vercingétorix,3,26,29,0.10344827586206896,48.83453413883994,2.313154547426182,2025-09-13 16:00:00,18.5,0.1,16.9
2025-09-13 16:30:00,14130,Jonquoy - Didot,6,23,30,0.2,48.82890454823947,2.31648076325655,2025-09-13 16:00:00,18.5,0.1,16.9
2025-09-13 16:30:00,14131,Jourdan - Monticelli,3,26,30,0.1,48.822032,2.329095,2025-09-13 16:00:00,18.5,0.1,16.9
2025-09-13 16:30:00,14133,Froidevaux - Boulard,8,26,35,0.22857142857142856,48.835147319625,2.3294411972165,2025-09-13 16:00:00,18.5,0.1,16.9
2025-09-13 16:30:00,14135,Jourdan - Cité Universitaire,4,35,39,0.10256410256410256,48.819897343156676,2.3397007964124366,2025-09-13 16:00:00,18.5,0.1,16.9
2025-09-13 16:30:00,14137,Maurice d'Ocagne - General Maudhuy,2,28,30,0.06666666666666667,48.82414282524159,2.3158789426088333,2025-09-13 16:00:00,18.5,0.1,16.9
2025-09-13 16:30:00,14138,Porte de Vanves,2,30,32,0.0625,48.828012849445,2.3056878894567,2025-09-13 16:00:00,18.5,0.1,16.9
2025-09-13 16:30:00,14139,Pierre Larousse - Raymond Losserand,2,28,30,0.06666666666666667,48.83059564231877,2.3119183257222176,2025-09-13 16:00:00,18.5,0.1,16.9
2025-09-13 16:30:00,14201,Decrès - Alésia,4,26,30,0.13333333333333333,48.832200060759,2.3139070151575,2025-09-13 16:00:00,18.5,0.1,16.9
2025-09-13 16:30:00,15001,Gare Montparnasse - Arrivée,40,1,43,0.9302325581395349,48.843827994315,2.3225811123848,2025-09-13 16:00:00,18.5,0.1,16.9
2025-09-13 16:30:00,15003,Gare Montparnasse - Vaugirard,38,26,66,0.5757575757575758,48.8418071798797,2.31951002690117,2025-09-13 16:00:00,18.5,0.1,16.9
2025-09-13 16:30:00,15004,Vaugirard - Pasteur,2,14,21,0.09523809523809523,48.84040868803496,2.3154367133975033,2025-09-13 16:00:00,18.5,0.1,16.9
2025-09-13 16:30:00,15005,Place Jacques et Thérèse Tréfouël,10,32,43,0.23255813953488372,48.842726498317,2.3125657439232,2025-09-13 16:00:00,18.5,0.1,16.9
2025-09-13 16:30:00,15008,Sèvres - Lecourbe,16,42,62,0.25806451612903225,48.8447677,2.3110086,2025-09-13 16:00:00,18.5,0.1,16.9
2025-09-13 16:30:00,15009,Suffren - Pérignon,14,31,46,0.30434782608695654,48.84717561492764,2.307052147596786,2025-09-13 16:00:00,18.5,0.1,16.9
2025-09-13 16:30:00,15010,Square Cambronne,7,23,59,0.11864406779661017,48.84756654526,2.3025691509247,2025-09-13 16:00:00,18.5,0.1,16.9
2025-09-13 16:30:00,15011,Cambronne - Villa Croix Nivert,17,45,62,0.27419354838709675,48.845847561366,2.3017574474216,2025-09-13 16:00:00,18.5,0.1,16.9
2025-09-13 16:30:00,15012,Cambronne - Mademoiselle,24,41,67,0.3582089552238806,48.843277330035214,2.30230766886348,2025-09-13 16:00:00,18.5,0.1,16.9
2025-09-13 16:30:00,15013,Volontaires - Lecourbe,13,13,31,0.41935483870967744,48.84351378799,2.3065522313118,2025-09-13 16:00:00,18.5,0.1,16.9
2025-09-13 16:30:00,15017,Place Falguière,4,19,23,0.17391304347826086,48.83629973941847,2.3104464635252953,2025-09-13 16:00:00,18.5,0.1,16.9
2025-09-13 16:30:00,15018,Dutot - Place Alleray,4,50,56,0.07142857142857142,48.836826091766,2.3071701095578,2025-09-13 16:00:00,18.5,0.1,16.9
2025-09-13 16:30:00,15019,Paul Barruel - Vaugirard,3,33,39,0.07692307692307693,48.84014918546239,2.3044332861900334,2025-09-13 16:00:00,18.5,0.1,16.9
2025-09-13 16:30:00,15020,Mairie du 15ème,14,18,32,0.4375,48.8417762,2.2986539,2025-09-13 16:00:00,18.5,0.1,16.9
2025-09-13 16:30:00,15021,Joseph Liouville - Croix Nivert,12,52,64,0.1875,48.844835471244416,2.297508493065834,2025-09-13 16:00:00,18.5,0.1,16.9
2025-09-13 16:30:00,15022,Emile Zola - Fondary,25,14,42,0.5952380952380952,48.847051143113745,2.2953405976295476,2025-09-13 16:00:00,18.5,0.1,16.9
2025-09-13 16:30:00,15023,La Motte-Picquet - Grenelle,27,7,34,0.7941176470588235,48.84858321339195,2.299347817897797,2025-09-13 16:00:00,18.5,0.1,16.9
2025-09-13 16:30:00,15024,Suffren - La Motte-Piquet,6,17,23,0.2608695652173913,48.850881230919,2.3012199997902,2025-09-13 16:00:00,18.5,0.1,16.9
2025-09-13 16:30:00,15025,Dupleix - du Guesclin,24,21,47,0.5106382978723404,48.85147910413369,2.296709530055523,2025-09-13 16:00:00,18.5,0.1,16.9
2025-09-13 16:30:00,15026,Bir Hakeim,26,4,33,0.7878787878787878,48.853844054334,2.289705348222,2025-09-13 16:00:00,18.5,0.1,16.9
2025-09-13 16:30:00,15027,Duhamel - André Gide,2,18,20,0.1,48.8365662244334,2.312707121097412,2025-09-13 16:00:00,18.5,0.1,16.9
2025-09-13 16:30:00,15028,Grenelle - Dr Finlay,53,15,71,0.7464788732394366,48.851315406715976,2.2919502854347233,2025-09-13 16:00:00,18.5,0.1,16.9
2025-09-13 16:30:00,15029,Emeriau - Place de Brazzaville,27,22,51,0.5294117647058824,48.850785261674964,2.2871585190296173,2025-09-13 16:00:00,18.5,0.1,16.9
2025-09-13 16:30:00,15031,Théâtre - Lourmel,11,40,53,0.20754716981132076,48.8482070397636,2.2898658737540245,2025-09-13 16:00:00,18.5,0.1,16.9
2025-09-13 16:30:00,15032,Félix Faure - Lourmel,15,41,58,0.25862068965517243,48.83868901709515,2.2818081825971603,2025-09-13 16:00:00,18.5,0.1,16.9
2025-09-13 16:30:00,15033,Place Violet,25,5,30,0.8333333333333334,48.84487893836502,2.2905756533145905,2025-09-13 16:00:00,18.5,0.1,16.9
2025-09-13 16:30:00,15034,Lakanal - Commerce,18,32,53,0.33962264150943394,48.84442462786544,2.294059172272682,2025-09-13 16:00:00,18.5,0.1,16.9
2025-09-13 16:30:00,15038,Place Adolphe Cherioux - Vaugirard,16,46,63,0.25396825396825395,48.83959442800459,2.3010657727718353,2025-09-13 16:00:00,18.5,0.1,16.9
2025-09-13 16:30:00,15039,Abbé Groult - Convention,3,9,12,0.25,48.83596927866069,2.302064039509349,2025-09-13 16:00:00,18.5,0.1,16.9
2025-09-13 16:30:00,15040,Saint-Amand - Labrouste,4,32,36,0.1111111111111111,48.834097274832295,2.3087677359581,2025-09-13 16:00:00,18.5,0.1,16.9
2025-09-13 16:30:00,15041,Franquet - Labrouste,4,33,37,0.10810810810810811,48.83287705011431,2.306762784719467,2025-09-13 16:00:00,18.5,0.1,16.9
2025-09-13 16:30:00,15042,Henry Farman,7,9,16,0.4375,48.83372430280548,2.2713854536414146,2025-09-13 16:00:00,18.5,0.1,16.9
2025-09-13 16:30:00,15043,Brancion - Lefebvre,5,5,11,0.45454545454545453,48.82900222785569,2.301431038163409,2025-09-13 16:00:00,18.5,0.1,16.9
2025-09-13 16:30:00,15044,Dantzig - Lefebvre,2,31,33,0.06060606060606061,48.83013921586756,2.295934036374092,2025-09-13 16:00:00,18.5,0.1,16.9
2025-09-13 16:30:00,15045,Porte de la Plaine,3,32,35,0.08571428571428572,48.82805169605981,2.2924277186393742,2025-09-13 16:00:00,18.5,0.1,16.9
2025-09-13 16:30:00,15047,Morillons - Dantzig,1,50,52,0.019230769230769232,48.83310149953933,2.299380004405976,2025-09-13 16:00:00,18.5,0.1,16.9
2025-09-13 16:30:00,15050,Dominique Pado - Croix Nivert,6,15,22,0.2727272727272727,48.83648798164934,2.2897250577807426,2025-09-13 16:00:00,18.5,0.1,16.9
2025-09-13 16:30:00,15052,Convention - Vaugirard,9,39,48,0.1875,48.83767682233156,2.295586926020252,2025-09-13 16:00:00,18.5,0.1,16.9
2025-09-13 16:30:00,15053,Lecourbe - Convention,26,20,46,0.5652173913043478,48.83923319241899,2.2915197908878326,2025-09-13 16:00:00,18.5,0.1,16.9
2025-09-13 16:30:00,15054,Lecourbe - Jean Maridor,7,11,19,0.3684210526315789,48.83796366147599,2.2877392172813416,2025-09-13 16:00:00,18.5,0.1,16.9
2025-09-13 16:30:00,15055,Vasco de Gama,38,16,54,0.7037037037037037,48.83671783466264,2.283664085650799,2025-09-13 16:00:00,18.5,0.1,16.9
2025-09-13 16:30:00,15056,Place Balard,8,14,22,0.36363636363636365,48.836395736424,2.2784192115068,2025-09-13 16:00:00,18.5,0.1,16.9
2025-09-13 16:30:00,15058,Place du Moulin de Javel,24,21,45,0.5333333333333333,48.84021670922,2.2716060653329,2025-09-13 16:00:00,18.5,0.1,16.9
2025-09-13 16:30:00,15060,Place de la Montagne du Goulet,13,8,21,0.6190476190476191,48.8443415,2.2773844,2025-09-13 16:00:00,18.5,0.1,16.9
2025-09-13 16:30:00,15061,Square Desnouettes,17,3,22,0.7727272727272727,48.83476837934194,2.284142297394666,2025-09-13 16:00:00,18.5,0.1,16.9
2025-09-13 16:30:00,15062,Convention - Lourmel,31,0,36,0.8611111111111112,48.842055041656,2.2859910875559,2025-09-13 16:00:00,18.5,0.1,16.9
2025-09-13 16:30:00,15064,Javel - André Citroën,37,5,45,0.8222222222222222,48.846276485475,2.2786368057132,2025-09-13 16:00:00,18.5,0.1,16.9
2025-09-13 16:30:00,15067,Desaix - Edgar Faure,10,0,12,0.8333333333333334,48.852804604940296,2.293077029857222,2025-09-13 16:00:00,18.5,0.1,16.9
2025-09-13 16:30:00,15068,Général Martial Valin - Pont du Garigliano,8,7,16,0.5,48.83823094269141,2.270506024360657,2025-09-13 16:00:00,18.5,0.1,16.9
2025-09-13 16:30:00,15069,Félix Faure - Convention,40,3,44,0.9090909090909091,48.841249336041,2.2883866008495,2025-09-13 16:00:00,18.5,0.1,16.9
2025-09-13 16:30:00,15070,Balard - Montagne de la Fage,11,24,36,0.3055555555555556,48.838507403334,2.2782871127129,2025-09-13 16:00:00,18.5,0.1,16.9
2025-09-13 16:30:00,15072,Place Fernand Forest,31,0,33,0.9393939393939394,48.849269143836,2.281863167882,2025-09-13 16:00:00,18.5,0.1,16.9
2025-09-13 16:30:00,15103,Cauchy - Cévennes,2,46,51,0.0392156862745098,48.843372571022,2.2751328349113,2025-09-13 16:00:00,18.5,0.1,16.9
2025-09-13 16:30:00,15104,Hôpital Européen Georges Pompidou,18,45,64,0.28125,48.837695319163,2.2753742337227,2025-09-13 16:00:00,18.5,0.1,16.9
2025-09-13 16:30:00,15105,Fédération - Suffren,18,7,25,0.72,48.852828153442,2.2978776320815,2025-09-13 16:00:00,18.5,0.1,16.9
2025-09-13 16:30:00,15106,Grenelle - Violet,13,20,35,0.37142857142857144,48.84993035512154,2.294612042605877,2025-09-13 16:00:00,18.5,0.1,16.9
2025-09-13 16:30:00,15109,Cevennes - Bergers,23,4,29,0.7931034482758621,48.84240765130395,2.281037718057633,2025-09-13 16:00:00,18.5,0.1,16.9
2025-09-13 16:30:00,15110,Place Robert Guillemard,2,21,24,0.08333333333333333,48.836191728066666,2.2811267160086417,2025-09-13 16:00:00,18.5,0.1,16.9
2025-09-13 16:30:00,15111,Olivier de Serres - Leriche,5,17,25,0.2,48.83460221715206,2.2957482933998112,2025-09-13 16:00:00,18.5,0.1,16.9
2025-09-13 16:30:00,15112,Vigée-Lebrun - Anselme Payen,2,22,24,0.08333333333333333,48.838683941628375,2.3110422492027287,2025-09-13 16:00:00,18.5,0.1,16.9
2025-09-13 16:30:00,15113,Arsonval - Falguière,4,20,25,0.16,48.84040040365445,2.313117867297474,2025-09-13 16:00:00,18.5,0.1,16.9
2025-09-13 16:30:00,15114,Pasteur - Cotentin,1,8,33,0.030303030303030304,48.8389284,2.316356,2025-09-13 16:00:00,18.5,0.1,16.9
2025-09-13 16:30:00,15120,Colonel Pierre Avia,28,0,29,0.9655172413793104,48.8296843300915,2.275342586850291,2025-09-13 16:00:00,18.5,0.1,16.9
2025-09-13 16:30:00,15123,Commerce - Letellier,30,13,44,0.6818181818181818,48.84797660373612,2.2966245196598805,2025-09-13 16:00:00,18.5,0.1,16.9
2025-09-13 16:30:00,15125,Parc Suzanne Lenglen,28,23,52,0.5384615384615384,48.833250690537874,2.2765403240919113,2025-09-13 16:00:00,18.5,0.1,16.9
2025-09-13 16:30:00,15127,Place Charles Michels,35,2,37,0.9459459459459459,48.846401,2.28502,2025-09-13 16:00:00,18.5,0.1,16.9
2025-09-13 16:30:00,15128,Cadix - Hameau,19,17,37,0.5135135135135135,48.8340107632249,2.289516180753708,2025-09-13 16:00:00,18.5,0.1,16.9
2025-09-13 16:30:00,15131,Charles Lecocq - Lecourbe,9,37,48,0.1875,48.84044,2.294867,2025-09-13 16:00:00,18.5,0.1,16.9
2025-09-13 16:30:00,15132,Bargue -  Dutot,4,17,21,0.19047619047619047,48.837884,2.308876,2025-09-13 16:00:00,18.5,0.1,16.9
2025-09-13 16:30:00,15133,Saint Lambert - Blomet,8,17,27,0.2962962962962963,48.83659148147257,2.2930556908249855,2025-09-13 16:00:00,18.5,0.1,16.9
2025-09-13 16:30:00,15201,Place Amédée Gordini - Lefebvre,5,33,38,0.13157894736842105,48.83061737745,2.2920634208276,2025-09-13 16:00:00,18.5,0.1,16.9
2025-09-13 16:30:00,15202,Bracion - Périphérique,5,25,30,0.16666666666666666,48.826103771275,2.3004549373748,2025-09-13 16:00:00,18.5,0.1,16.9
2025-09-13 16:30:00,15203,Porte de Versailles,21,7,28,0.75,48.832324016657,2.2875617349045,2025-09-13 16:00:00,18.5,0.1,16.9
2025-09-13 16:30:00,15204,Square Bela Bartok,21,2,24,0.875,48.850984480382,2.2844360220351,2025-09-13 16:00:00,18.5,0.1,16.9
2025-09-13 16:30:00,16002,Pergolèse - Malakoff,0,38,38,0.0,48.87521088779225,2.2842781618237495,2025-09-13 16:00:00,18.5,0.1,16.9
2025-09-13 16:30:00,16003,André Maurois - Joseph et Marie Hackin,8,22,29,0.27586206896551724,48.8778983,2.2789591,2025-09-13 16:00:00,18.5,0.1,16.9
2025-09-13 16:30:00,16005,Raymond Poincaré - Place Victor Hugo,7,18,25,0.28,48.87030612437,2.2850745414202,2025-09-13 16:00:00,18.5,0.1,16.9
2025-09-13 16:30:00,16006,Lauriston - Copernic,4,14,19,0.21052631578947367,48.86926,2.289918,2025-09-13 16:00:00,18.5,0.1,16.9
2025-09-13 16:30:00,16007,Longchamp - Place d'Iéna,7,3,10,0.7,48.864917233434,2.2926748171449,2025-09-13 16:00:00,18.5,0.1,16.9
2025-09-13 16:30:00,16008,Galilée - Kléber,7,23,32,0.21875,48.867411865714,2.2907813801148,2025-09-13 16:00:00,18.5,0.1,16.9
2025-09-13 16:30:00,16009,Saint-Didier - Raymond Poincaré,1,15,17,0.058823529411764705,48.86642312020962,2.285863497192411,2025-09-13 16:00:00,18.5,0.1,16.9
2025-09-13 16:30:00,16013,Mairie du 16ème,1,34,35,0.02857142857142857,48.863936848471994,2.2765953093767166,2025-09-13 16:00:00,18.5,0.1,16.9
2025-09-13 16:30:00,16014,Eylau - Trocadéro,11,13,24,0.4583333333333333,48.863354122371,2.2864209115505,2025-09-13 16:00:00,18.5,0.1,16.9
2025-09-13 16:30:00,16015,Bassano -  Iéna,4,11,15,0.26666666666666666,48.868144510482075,2.296149600985935,2025-09-13 16:00:00,18.5,0.1,16.9
2025-09-13 16:30:00,16017,Siam - La Pompe,4,12,16,0.25,48.861720329027264,2.275346568555312,2025-09-13 16:00:00,18.5,0.1,16.9
2025-09-13 16:30:00,16018,Flandrin - Henri Martin,4,14,18,0.2222222222222222,48.8643275,2.2724174,2025-09-13 16:00:00,18.5,0.1,16.9
2025-09-13 16:30:00,16019,Porte de la Muette,1,34,36,0.027777777777777776,48.86302317841182,2.2687188170157406,2025-09-13 16:00:00,18.5,0.1,16.9
2025-09-13 16:30:00,16020,Place de la Porte de Passy,1,33,36,0.027777777777777776,48.857341095470794,2.2644165538827115,2025-09-13 16:00:00,18.5,0.1,16.9
2025-09-13 16:30:00,16022,Jean Bologne - Passy,0,18,19,0.0,48.857566889784465,2.280027395306772,2025-09-13 16:00:00,18.5,0.1,16.9
2025-09-13 16:30:00,16023,Passy - Place du Costa Rica,4,28,33,0.12121212121212122,48.8584893,2.2839655,2025-09-13 16:00:00,18.5,0.1,16.9
2025-09-13 16:30:00,16024,Ranelagh - Maison de la Radio,16,5,22,0.7272727272727273,48.85293603169479,2.280449643731117,2025-09-13 16:00:00,18.5,0.1,16.9
2025-09-13 16:30:00,16025,Jean de la Fontaine - Boulainvilliers,24,42,68,0.35294117647058826,48.85264791461651,2.2758664190769196,2025-09-13 16:00:00,18.5,0.1,16.9
2025-09-13 16:30:00,16026,Ranelagh - Mozart,6,15,23,0.2608695652173913,48.8554439,2.2704418,2025-09-13 16:00:00,18.5,0.1,16.9
2025-09-13 16:30:00,16027,Mozart - Jasmin,6,55,62,0.0967741935483871,48.85286124871689,2.268483570651513,2025-09-13 16:00:00,18.5,0.1,16.9
2025-09-13 16:30:00,16031,Vignes - Boulainvilliers,6,15,21,0.2857142857142857,48.856399483950504,2.275240458548069,2025-09-13 16:00:00,18.5,0.1,16.9
2025-09-13 16:30:00,16032,Eglise d'Auteuil,5,15,21,0.23809523809523808,48.84749841771691,2.26848387135299,2025-09-13 16:00:00,18.5,0.1,16.9
2025-09-13 16:30:00,16033,Marché d'Auteuil,20,12,32,0.625,48.84842761367387,2.265253821160005,2025-09-13 16:00:00,18.5,0.1,16.9
2025-09-13 16:30:00,16039,Exelmans - Versailles,32,16,49,0.6530612244897959,48.84097491091973,2.264390252530575,2025-09-13 16:00:00,18.5,0.1,16.9
2025-09-13 16:30:00,16040,Exelmans - Michel-Ange,30,2,33,0.9090909090909091,48.84309486651855,2.2597770800669053,2025-09-13 16:00:00,18.5,0.1,16.9
2025-09-13 16:30:00,16041,Versailles - Claude Terrasse,12,33,46,0.2608695652173913,48.840219338074,2.263834191153,2025-09-13 16:00:00,18.5,0.1,16.9
2025-09-13 16:30:00,16042,Murat - Porte de Saint-Cloud,36,2,38,0.9473684210526315,48.83750862621299,2.2577651962637906,2025-09-13 16:00:00,18.5,0.1,16.9
2025-09-13 16:30:00,16044,Porte de Saint Cloud - Parc des Princes,22,9,32,0.6875,48.838662757066,2.2525164484978,2025-09-13 16:00:00,18.5,0.1,16.9
2025-09-13 16:30:00,16101,Malakoff - Place de la Porte Maillot,2,25,28,0.07142857142857142,48.876733496638,2.2834577411413,2025-09-13 16:00:00,18.5,0.1,16.9
2025-09-13 16:30:00,16102,Pergolèse - Marbeau,3,24,27,0.1111111111111111,48.873568706869,2.2815125225299,2025-09-13 16:00:00,18.5,0.1,16.9
2025-09-13 16:30:00,16103,Traktir - Foch,3,19,22,0.13636363636363635,48.872755334614,2.2915497802487,2025-09-13 16:00:00,18.5,0.1,16.9
2025-09-13 16:30:00,16104,Paul Valery - Victor Hugo,2,33,35,0.05714285714285714,48.87137406080164,2.2887128591537476,2025-09-13 16:00:00,18.5,0.1,16.9
2025-09-13 16:30:00,16105,Crevaux - Bugeaud,1,28,31,0.03225806451612903,48.87080942867,2.2811490076919,2025-09-13 16:00:00,18.5,0.1,16.9
2025-09-13 16:30:00,16108,Sablons - Georges Mandel,2,36,38,0.05263157894736842,48.863875,2.28189,2025-09-13 16:00:00,18.5,0.1,16.9
2025-09-13 16:30:00,16110,Octave Feuillet - Albéric Magnard,3,18,21,0.14285714285714285,48.86106902949534,2.2730283066630363,2025-09-13 16:00:00,18.5,0.1,16.9
2025-09-13 16:30:00,16111,Faustin Hélie - Desbordes-Valmore,4,26,33,0.12121212121212122,48.859403,2.276522,2025-09-13 16:00:00,18.5,0.1,16.9
2025-09-13 16:30:00,16115,Raffet - Montmorency,9,33,42,0.21428571428571427,48.85258670812,2.2629252456151954,2025-09-13 16:00:00,18.5,0.1,16.9
2025-09-13 16:30:00,16116,George Sand - Jean de La Fontaine,18,8,29,0.6206896551724138,48.84986918764119,2.268257387525699,2025-09-13 16:00:00,18.5,0.1,16.9
2025-09-13 16:30:00,16118,Michel-Ange - Parent de Rosan,14,11,26,0.5384615384615384,48.840579923690115,2.2584119439125065,2025-09-13 16:00:00,18.5,0.1,16.9
2025-09-13 16:30:00,16123,Mahatma Gandhi,11,13,26,0.4230769230769231,48.876356,2.264205,2025-09-13 16:00:00,18.5,0.1,16.9
2025-09-13 16:30:00,16124,Route de Sèvres - Porte de Bagatelle,55,9,66,0.8333333333333334,48.87525984132485,2.249415814876557,2025-09-13 16:00:00,18.5,0.1,16.9
2025-09-13 16:30:00,16129,Ceinture du Lac Inferieure - Saint-Cloud,16,24,42,0.38095238095238093,48.86218070933143,2.2617871686816216,2025-09-13 16:00:00,18.5,0.1,16.9
2025-09-13 16:30:00,16136,Théophile Gautier - François Millet,5,22,30,0.16666666666666666,48.85034821320644,2.273029983043671,2025-09-13 16:00:00,18.5,0.1,16.9
2025-09-13 16:30:00,16138,Saint-Cloud - Hippodrome,0,30,30,0.0,48.85772148887421,2.2549109905958176,2025-09-13 16:00:00,18.5,0.1,16.9
2025-09-13 16:30:00,16139,Suresnes - Muette à Neuilly,9,20,30,0.3,48.868570404348,2.266000919044,2025-09-13 16:00:00,18.5,0.1,16.9
2025-09-13 16:30:00,16140,Hippodrome de Longchamp,10,19,30,0.3333333333333333,48.86413226532,2.239905372262,2025-09-13 16:00:00,18.5,0.1,16.9
2025-09-13 16:30:00,16201,Porte Dauphine,7,58,65,0.1076923076923077,48.871139344351,2.2749781616017,2025-09-13 16:00:00,18.5,0.1,16.9
2025-09-13 16:30:00,17001,Guy Môquet - Saint-Ouen,8,45,53,0.1509433962264151,48.892777719023975,2.3270335793495183,2025-09-13 16:00:00,18.5,0.1,16.9
2025-09-13 16:30:00,17003,Jacques Kellner - Saint-Ouen,4,40,45,0.08888888888888889,48.895809485802886,2.327897409164145,2025-09-13 16:00:00,18.5,0.1,16.9
2025-09-13 16:30:00,17004,Legendre - Clichy,6,33,40,0.15,48.88896161855884,2.322528975094376,2025-09-13 16:00:00,18.5,0.1,16.9
2025-09-13 16:30:00,17005,Brochant - Clichy,8,44,53,0.1509433962264151,48.89032998912038,2.319730559929781,2025-09-13 16:00:00,18.5,0.1,16.9
2025-09-13 16:30:00,17006,Guy Môquet - Compoint,8,28,36,0.2222222222222222,48.89213559044868,2.32321947813034,2025-09-13 16:00:00,18.5,0.1,16.9
2025-09-13 16:30:00,17007,Navier - Epinettes,1,52,54,0.018518518518518517,48.89587780769155,2.3226776719093327,2025-09-13 16:00:00,18.5,0.1,16.9
2025-09-13 16:30:00,17008,Porte Pouchet-Bessières,7,15,23,0.30434782608695654,48.8978765,2.3230632,2025-09-13 16:00:00,18.5,0.1,16.9
2025-09-13 16:30:00,17010,Jonquière - Docteur Paul Brousse,2,51,54,0.037037037037037035,48.894799816683985,2.318705212173216,2025-09-13 16:00:00,18.5,0.1,16.9
2025-09-13 16:30:00,17013,Legendre - Dulong,2,21,23,0.08695652173913043,48.885325169402904,2.316423766314984,2025-09-13 16:00:00,18.5,0.1,16.9
2025-09-13 16:30:00,17015,Place de Lévis,10,36,48,0.20833333333333334,48.883546851533254,2.3131933808326726,2025-09-13 16:00:00,18.5,0.1,16.9
2025-09-13 16:30:00,17016,Brochant - Square des Batignolles,4,26,31,0.12903225806451613,48.88818698581028,2.316861143151153,2025-09-13 16:00:00,18.5,0.1,16.9
2025-09-13 16:30:00,17017,Gare de Pont-Cardinet,9,24,34,0.2647058823529412,48.88713901475306,2.314494143994255,2025-09-13 16:00:00,18.5,0.1,16.9
2025-09-13 16:30:00,17018,Parc Monceau,4,14,18,0.2222222222222222,48.881077914129,2.3095492646098,2025-09-13 16:00:00,18.5,0.1,16.9
2025-09-13 16:30:00,17019,Phalsbourg - Villiers,4,15,19,0.21052631578947367,48.88242307900951,2.3090453445911407,2025-09-13 16:00:00,18.5,0.1,16.9
2025-09-13 16:30:00,17020,Jouffroy d'Abbans - Malesherbes,3,24,27,0.1111111111111111,48.8850134,2.3070717,2025-09-13 16:00:00,18.5,0.1,16.9
2025-09-13 16:30:00,17021,Jouffroy d'Abbans - Villiers,1,32,34,0.029411764705882353,48.884215547037,2.3056533560157,2025-09-13 16:00:00,18.5,0.1,16.9
2025-09-13 16:30:00,17023,Porte d'Asnières,7,26,36,0.19444444444444445,48.89035817610495,2.3036286234855656,2025-09-13 16:00:00,18.5,0.1,16.9
2025-09-13 16:30:00,17024,Villiers - Batignolles,8,12,23,0.34782608695652173,48.881252538461,2.3165384307504,2025-09-13 16:00:00,18.5,0.1,16.9
2025-09-13 16:30:00,17025,Chazelles - Courcelles,5,29,35,0.14285714285714285,48.879406604954,2.3034455627202988,2025-09-13 16:00:00,18.5,0.1,16.9
2025-09-13 16:30:00,17026,Jouffroy d'Abbans - Wagram,8,31,40,0.2,48.881973298352,2.301132157445,2025-09-13 16:00:00,18.5,0.1,16.9
2025-09-13 16:30:00,17027,Place du Maréchal Juin - Péreire,8,34,46,0.17391304347826086,48.885263,2.298286,2025-09-13 16:00:00,18.5,0.1,16.9
2025-09-13 16:30:00,17028,Reims - Raymond Pitet,4,32,37,0.10810810810810811,48.8888,2.296319,2025-09-13 16:00:00,18.5,0.1,16.9
2025-09-13 16:30:00,17029,Pierre Demours - Laugier,4,32,37,0.10810810810810811,48.8813072,2.294846,2025-09-13 16:00:00,18.5,0.1,16.9
2025-09-13 16:30:00,17030,Pereire - Rennequin,11,10,23,0.4782608695652174,48.88364782887555,2.2952447086572647,2025-09-13 16:00:00,18.5,0.1,16.9
2025-09-13 16:30:00,17032,Jean Oestreicher - Porte de Champerret,4,17,21,0.19047619047619047,48.88655580065981,2.288640439510346,2025-09-13 16:00:00,18.5,0.1,16.9
2025-09-13 16:30:00,17033,Carnot - Général Lanrezac,6,23,30,0.2,48.875443870736,2.2938242935036,2025-09-13 16:00:00,18.5,0.1,16.9
2025-09-13 16:30:00,17036,Place Tristan Bernard,5,23,28,0.17857142857142858,48.8794936,2.2915423,2025-09-13 16:00:00,18.5,0.1,16.9
2025-09-13 16:30:00,17037,Bayen - Pereire,5,16,22,0.22727272727272727,48.881804409079656,2.2921088710427284,2025-09-13 16:00:00,18.5,0.1,16.9
2025-09-13 16:30:00,17039,Place Saint-Ferdinand,7,29,38,0.18421052631578946,48.87815529789739,2.288518047864942,2025-09-13 16:00:00,18.5,0.1,16.9
2025-09-13 16:30:00,17043,Belidor - Gouvion-Saint-Cyr,17,20,39,0.4358974358974359,48.88022154052015,2.2854680567979813,2025-09-13 16:00:00,18.5,0.1,16.9
2025-09-13 16:30:00,17044,Porte de Saint-Ouen - Bessières,4,37,42,0.09523809523809523,48.89792240854517,2.32851451022192,2025-09-13 16:00:00,18.5,0.1,16.9
2025-09-13 16:30:00,17045,Place des Ternes.,29,16,46,0.6304347826086957,48.878438631226516,2.297727763652802,2025-09-13 16:00:00,18.5,0.1,16.9
2025-09-13 16:30:00,17046,Mac-Mahon - Brey,10,14,25,0.4,48.877532084130166,2.294512536052928,2025-09-13 16:00:00,18.5,0.1,16.9
2025-09-13 16:30:00,17047,Courcelles - Pierre Demours,2,24,26,0.07692307692307693,48.883769733273496,2.29858466343129,2025-09-13 16:00:00,18.5,0.1,16.9
2025-09-13 16:30:00,17048,De Toqueville - Terrasse,3,25,30,0.1,48.882428,2.314002,2025-09-13 16:00:00,18.5,0.1,16.9
2025-09-13 16:30:00,17050,Batignolles - Abel Truchet,2,26,28,0.07142857142857142,48.883103904582,2.3238347490884,2025-09-13 16:00:00,18.5,0.1,16.9
2025-09-13 16:30:00,17104,Jardin Marguerite Long,3,19,22,0.13636363636363635,48.8816985773914,2.2836575657129288,2025-09-13 16:00:00,18.5,0.1,16.9
2025-09-13 16:30:00,17105,Place Madeleine Daniélou,9,32,42,0.21428571428571427,48.883498,2.282015,2025-09-13 16:00:00,18.5,0.1,16.9
2025-09-13 16:30:00,17106,Berthier - Porte de Clichy,22,0,24,0.9166666666666666,48.894222687781,2.3125872006816,2025-09-13 16:00:00,18.5,0.1,16.9
2025-09-13 16:30:00,17108,Bessières - Porte de Clichy,21,10,33,0.6363636363636364,48.89611762451474,2.31790903955698,2025-09-13 16:00:00,18.5,0.1,16.9
2025-09-13 16:30:00,17110,Legendre - Nollet,7,23,30,0.23333333333333334,48.887742186754224,2.320293079881375,2025-09-13 16:00:00,18.5,0.1,16.9
2025-09-13 16:30:00,17111,Lemercier - Cardinet,8,14,24,0.3333333333333333,48.890097168851746,2.317377626895905,2025-09-13 16:00:00,18.5,0.1,16.9
2025-09-13 16:30:00,17116,Reims - Porte d'Asnières,19,7,26,0.7307692307692307,48.891834448210986,2.300144659954865,2025-09-13 16:00:00,18.5,0.1,16.9
2025-09-13 16:30:00,17117,Pereire - Saussure,7,25,32,0.21875,48.888229075478,2.3101296275854,2025-09-13 16:00:00,18.5,0.1,16.9
2025-09-13 16:30:00,17119,Toqueville - Cardinet,7,26,33,0.21212121212121213,48.88490187110713,2.3109393194317818,2025-09-13 16:00:00,18.5,0.1,16.9
2025-09-13 16:30:00,17122,Bridaine - Lamandé,9,20,29,0.3103448275862069,48.8862074,2.3206239,2025-09-13 16:00:00,18.5,0.1,16.9
2025-09-13 16:30:00,17124,Porte de Saint-Ouen - Henri Huchard,4,22,26,0.15384615384615385,48.898708366365064,2.3295360803604126,2025-09-13 16:00:00,18.5,0.1,16.9
2025-09-13 16:30:00,17125,Marie-Georges Picquart - Pereire,4,28,32,0.125,48.88863669349711,2.3111706599593163,2025-09-13 16:00:00,18.5,0.1,16.9
2025-09-13 16:30:00,17126,Hélène et François Missoffe - Emile Borel,13,19,32,0.40625,48.89990653843488,2.321543991674844,2025-09-13 16:00:00,18.5,0.1,16.9
2025-09-13 16:30:00,17127,Porte de Clichy - Place des Nations Unies,15,24,40,0.375,48.896737263309504,2.310542999196392,2025-09-13 16:00:00,18.5,0.1,16.9
2025-09-13 16:30:00,17202,Mariotte - Batignolles,2,18,20,0.1,48.884571659595,2.321469503475,2025-09-13 16:00:00,18.5,0.1,16.9
2025-09-13 16:30:00,17203,Place de la Porte de Champeret,8,20,28,0.2857142857142857,48.886062068226,2.2917001576821,2025-09-13 16:00:00,18.5,0.1,16.9
2025-09-13 16:30:00,17204,Paul Bodin - Clichy,10,22,33,0.30303030303030304,48.892594758409,2.3171403311203,2025-09-13 16:00:00,18.5,0.1,16.9
2025-09-13 16:30:00,18003,Cimetière de Montmartre,10,33,43,0.23255813953488372,48.886472466142,2.3328901827335,2025-09-13 16:00:00,18.5,0.1,16.9
2025-09-13 16:30:00,18004,Place des Abbesses,5,7,12,0.4166666666666667,48.884542726149725,2.3386867716908455,2025-09-13 16:00:00,18.5,0.1,16.9
2025-09-13 16:30:00,18005,Tardieu - Chappe,4,13,18,0.2222222222222222,48.884146759782,2.341845408082,2025-09-13 16:00:00,18.5,0.1,16.9
2025-09-13 16:30:00,18006,Square Louise Michel,5,30,36,0.1388888888888889,48.884687354509,2.3441386967897,2025-09-13 16:00:00,18.5,0.1,16.9
2025-09-13 16:30:00,18007,Goutte d'or - Barbès,0,18,20,0.0,48.885124323627,2.3496962338686,2025-09-13 16:00:00,18.5,0.1,16.9
2025-09-13 16:30:00,18008,Square Léon,10,23,33,0.30303030303030304,48.88667396788626,2.353205569088459,2025-09-13 16:00:00,18.5,0.1,16.9
2025-09-13 16:30:00,18009,Jean-François Lépine - Stephenson,2,19,22,0.09090909090909091,48.88611466796807,2.356855627529275,2025-09-13 16:00:00,18.5,0.1,16.9
2025-09-13 16:30:00,18010,Riquet - Marx Dormoy,5,30,36,0.1388888888888889,48.89021003702,2.3601756244898,2025-09-13 16:00:00,18.5,0.1,16.9
2025-09-13 16:30:00,18011,Pajol - Place Herbert,11,28,39,0.28205128205128205,48.8927825,2.3635598,2025-09-13 16:00:00,18.5,0.1,16.9
2025-09-13 16:30:00,18014,Léon - Doudeauville,13,0,13,1.0,48.888324218452,2.3535733726386,2025-09-13 16:00:00,18.5,0.1,16.9
2025-09-13 16:30:00,18015,Custine - Ramey,8,30,41,0.1951219512195122,48.888735896947,2.3469526693225,2025-09-13 16:00:00,18.5,0.1,16.9
2025-09-13 16:30:00,18016,Francoeur - Caulaincourt,7,27,34,0.20588235294117646,48.8899944409612,2.342529706656933,2025-09-13 16:00:00,18.5,0.1,16.9
2025-09-13 16:30:00,18017,Caulaincourt - Place Constantin Pecqueur,8,34,44,0.18181818181818182,48.889677905028,2.3381787144261,2025-09-13 16:00:00,18.5,0.1,16.9
2025-09-13 16:30:00,18018,Carpeaux - Place Jacques Froment,5,11,19,0.2631578947368421,48.8906542,2.3309428,2025-09-13 16:00:00,18.5,0.1,16.9
2025-09-13 16:30:00,18019,Square Raymond Souplex,2,50,52,0.038461538461538464,48.89183721478911,2.335426103165901,2025-09-13 16:00:00,18.5,0.1,16.9
2025-09-13 16:30:00,18020,Francoeur - Marcadet,3,15,20,0.15,48.89104123261663,2.340014585442034,2025-09-13 16:00:00,18.5,0.1,16.9
2025-09-13 16:30:00,18021,Marcadet - Ramey,3,36,39,0.07692307692307693,48.890875,2.3449019,2025-09-13 16:00:00,18.5,0.1,16.9
2025-09-13 16:30:00,18022,Marcadet - Barbès,8,27,37,0.21621621621621623,48.890451120965,2.3490573929687,2025-09-13 16:00:00,18.5,0.1,16.9
2025-09-13 16:30:00,18023,Ordener - Poissonniers,6,28,35,0.17142857142857143,48.891213890844654,2.351288666219873,2025-09-13 16:00:00,18.5,0.1,16.9
2025-09-13 16:30:00,18024,Clignancourt - Ordener,2,33,35,0.05714285714285714,48.891457726153774,2.348636478060487,2025-09-13 16:00:00,18.5,0.1,16.9
2025-09-13 16:30:00,18026,Ruisseau - Ordener,6,26,35,0.17142857142857143,48.89299462568024,2.340144887566567,2025-09-13 16:00:00,18.5,0.1,16.9
2025-09-13 16:30:00,18028,Championnet - Vauvenargues,2,28,33,0.06060606060606061,48.89401874744574,2.3319872841238976,2025-09-13 16:00:00,18.5,0.1,16.9
2025-09-13 16:30:00,18029,Emile Blemont - Poteau,10,29,39,0.2564102564102564,48.8943782,2.3415122,2025-09-13 16:00:00,18.5,0.1,16.9
2025-09-13 16:30:00,18030,Joseph Dijon - Ornano,8,28,37,0.21621621621621623,48.89374453351521,2.3476678133010864,2025-09-13 16:00:00,18.5,0.1,16.9
2025-09-13 16:30:00,18032,Porte de Clignancourt.,4,52,56,0.07142857142857142,48.897488,2.343996,2025-09-13 16:00:00,18.5,0.1,16.9
2025-09-13 16:30:00,18033,Belliard - Damrémont,6,27,34,0.17647058823529413,48.89669238777841,2.338023450388167,2025-09-13 16:00:00,18.5,0.1,16.9
2025-09-13 16:30:00,18034,Leibniz - Jean Dollfus,8,24,32,0.25,48.896328348515986,2.333390423834684,2025-09-13 16:00:00,18.5,0.1,16.9
2025-09-13 16:30:00,18035,René Binet - Porte de Montmartre,11,24,37,0.2972972972972973,48.89905109950848,2.3365534096956253,2025-09-13 16:00:00,18.5,0.1,16.9
2025-09-13 16:30:00,18039,Jardins d'Eole,4,16,20,0.2,48.8869703,2.3668488,2025-09-13 16:00:00,18.5,0.1,16.9
2025-09-13 16:30:00,18041,Rochechouart - Martyrs,16,0,20,0.8,48.882193779572,2.3405495658517,2025-09-13 16:00:00,18.5,0.1,16.9
2025-09-13 16:30:00,18042,Place Pigalle,9,11,21,0.42857142857142855,48.8827555,2.3361566,2025-09-13 16:00:00,18.5,0.1,16.9
2025-09-13 16:30:00,18045,Pierre Ginier - Clichy,10,6,16,0.625,48.8867667,2.326228,2025-09-13 16:00:00,18.5,0.1,16.9
2025-09-13 16:30:00,18046,Etienne Jodelle - Saint Ouen,11,22,33,0.3333333333333333,48.88794016394694,2.326124420314341,2025-09-13 16:00:00,18.5,0.1,16.9
2025-09-13 16:30:00,18049,Porte d'Aubervilliers,9,44,55,0.16363636363636364,48.89859661942376,2.3689722642302513,2025-09-13 16:00:00,18.5,0.1,16.9
2025-09-13 16:30:00,18101,Championnet.,4,18,22,0.18181818181818182,48.8953643,2.3498166,2025-09-13 16:00:00,18.5,0.1,16.9
2025-09-13 16:30:00,18107,Chartres - La Charbonnière,3,29,34,0.08823529411764706,48.8847601,2.3534657,2025-09-13 16:00:00,18.5,0.1,16.9
2025-09-13 16:30:00,18109,Pajol - Riquet,10,36,47,0.2127659574468085,48.88960028134536,2.3628534749150276,2025-09-13 16:00:00,18.5,0.1,16.9
2025-09-13 16:30:00,18110,Departement - Pajol,2,17,19,0.10526315789473684,48.886674849730184,2.3613611608743668,2025-09-13 16:00:00,18.5,0.1,16.9
2025-09-13 16:30:00,18111,Félix Ziem - Armand Gauthier,3,22,25,0.12,48.88949630486821,2.333393658804396,2025-09-13 16:00:00,18.5,0.1,16.9
2025-09-13 16:30:00,18112,Arthur Ranc - Hôpital Bichat,0,26,26,0.0,48.8978712500682,2.333521842956543,2025-09-13 16:00:00,18.5,0.1,16.9
2025-09-13 16:30:00,18113,Lepic - Armée d'Orient,0,24,24,0.0,48.887536403814,2.3343077301979,2025-09-13 16:00:00,18.5,0.1,16.9
2025-09-13 16:30:00,18114,Véron - Lepic,4,19,23,0.17391304347826086,48.885261233953,2.3345598578453,2025-09-13 16:00:00,18.5,0.1,16.9
2025-09-13 16:30:00,18134,Ney - Porte de Clignancourt,3,22,25,0.12,48.8978867,2.3458001,2025-09-13 16:00:00,18.5,0.1,16.9
2025-09-13 16:30:00,18135,Ney - Porte de Montmartre,0,24,24,0.0,48.897918,2.3364872,2025-09-13 16:00:00,18.5,0.1,16.9
2025-09-13 16:30:00,18137,Poissonniers - Nord,3,25,28,0.10714285714285714,48.892511213520656,2.3522228747606277,2025-09-13 16:00:00,18.5,0.1,16.9
2025-09-13 16:30:00,18138,Station Paris Basketball - Ney - Charles Hermite,14,4,20,0.7,48.898748039775,2.3645754531026,2025-09-13 16:00:00,18.5,0.1,16.9
2025-09-13 16:30:00,18139,Poissonniers - Championnet,4,23,28,0.14285714285714285,48.89543299733937,2.3530178144574165,2025-09-13 16:00:00,18.5,0.1,16.9
2025-09-13 16:30:00,18140,Porte de Clignancourt - Ney,11,27,40,0.275,48.899641123987095,2.344321422278881,2025-09-13 16:00:00,18.5,0.1,16.9
2025-09-13 16:30:00,18141,Clignancourt - Sofia,5,14,19,0.2631578947368421,48.88511992309783,2.34719488842051,2025-09-13 16:00:00,18.5,0.1,16.9
2025-09-13 16:30:00,18142,Jessaint - Marx Dormoy,6,22,30,0.2,48.88484543106364,2.358930408954621,2025-09-13 16:00:00,18.5,0.1,16.9
2025-09-13 16:30:00,18201,Tristan Tzara -  Tchaïkovski,23,10,33,0.696969696969697,48.89490221746837,2.3648490384221077,2025-09-13 16:00:00,18.5,0.1,16.9
2025-09-13 16:30:00,18204,Porte de la Chapelle - Boulevard Ney,8,40,52,0.15384615384615385,48.900097357789,2.3586005020149,2025-09-13 16:00:00,18.5,0.1,16.9
2025-09-13 16:30:00,18205,Mauroy - Cheminots,6,24,32,0.1875,48.897715198403,2.357895075822,2025-09-13 16:00:00,18.5,0.1,16.9
2025-09-13 16:30:00,18206,Albert Kahn - Duhesme,5,33,38,0.13157894736842105,48.895623001056,2.345815078896,2025-09-13 16:00:00,18.5,0.1,16.9
2025-09-13 16:30:00,19001,Crimée - Ourcq,8,40,56,0.14285714285714285,48.894104140316,2.3729460884673,2025-09-13 16:00:00,18.5,0.1,16.9
2025-09-13 16:30:00,19003,Quai de la Seine,8,14,24,0.3333333333333333,48.884492238407525,2.3703941702842717,2025-09-13 16:00:00,18.5,0.1,16.9
2025-09-13 16:30:00,19007,Flandre - Ourcq,12,16,30,0.4,48.89260159189023,2.3790915682911873,2025-09-13 16:00:00,18.5,0.1,16.9
2025-09-13 16:30:00,19009,Cité des Sciences et de l'Industrie,10,18,29,0.3448275862068966,48.89659571178903,2.384599149227142,2025-09-13 16:00:00,18.5,0.1,16.9
2025-09-13 16:30:00,19010,Emile Reynaud - Porte de la Villette,4,16,22,0.18181818181818182,48.90098953630053,2.3887022584676743,2025-09-13 16:00:00,18.5,0.1,16.9
2025-09-13 16:30:00,19012,Lally-Tollendal - Armand Carrel,8,20,28,0.2857142857142857,48.88270066221072,2.374717555940151,2025-09-13 16:00:00,18.5,0.1,16.9
2025-09-13 16:30:00,19013,Laumière - Petit,5,29,34,0.14705882352941177,48.88467368538326,2.380039058625698,2025-09-13 16:00:00,18.5,0.1,16.9
2025-09-13 16:30:00,19014,Lorraine - Jean Jaurès,8,6,19,0.42105263157894735,48.8863865,2.3825772,2025-09-13 16:00:00,18.5,0.1,16.9
2025-09-13 16:30:00,19015,Thionville - Ourcq,5,16,24,0.20833333333333334,48.88917613743794,2.3833653330802917,2025-09-13 16:00:00,18.5,0.1,16.9
2025-09-13 16:30:00,19016,Hautpoul - Jean Jaurès,3,26,32,0.09375,48.886393679436,2.3865414544355,2025-09-13 16:00:00,18.5,0.1,16.9
2025-09-13 16:30:00,19021,Mairie du 19ème,3,24,27,0.1111111111111111,48.88256264247959,2.3812624812126164,2025-09-13 16:00:00,18.5,0.1,16.9
2025-09-13 16:30:00,19022,Marché Secrétan,7,18,26,0.2692307692307692,48.88125496379482,2.373463287949562,2025-09-13 16:00:00,18.5,0.1,16.9
2025-09-13 16:30:00,19023,Manin - Simon Bolivar,4,19,26,0.15384615384615385,48.876499654127,2.3794073625991,2025-09-13 16:00:00,18.5,0.1,16.9
2025-09-13 16:30:00,19024,Botzaris - Parc des Buttes Chaumont,5,14,20,0.25,48.877951,2.381464,2025-09-13 16:00:00,18.5,0.1,16.9
2025-09-13 16:30:00,19025,Botzaris - Crimée,2,18,21,0.09523809523809523,48.87959698690176,2.3887913337477067,2025-09-13 16:00:00,18.5,0.1,16.9
2025-09-13 16:30:00,19026,Place de Rhin et Danube,4,10,17,0.23529411764705882,48.88192765861766,2.392586767673493,2025-09-13 16:00:00,18.5,0.1,16.9
2025-09-13 16:30:00,19029,Seine - Flandre,4,15,19,0.21052631578947367,48.886785741479684,2.3746193200349808,2025-09-13 16:00:00,18.5,0.1,16.9
2025-09-13 16:30:00,19030,Melun - Jean Jaurès,7,19,28,0.25,48.8837796723475,2.376477420330048,2025-09-13 16:00:00,18.5,0.1,16.9
2025-09-13 16:30:00,19031,Manin - Crimée,6,14,23,0.2608695652173913,48.8831217743719,2.3863670602440834,2025-09-13 16:00:00,18.5,0.1,16.9
2025-09-13 16:30:00,19032,Villette - Belleville,6,42,48,0.125,48.8726877314,2.376461327076,2025-09-13 16:00:00,18.5,0.1,16.9
2025-09-13 16:30:00,19033,Cambrai - Benjamin Constant,4,38,43,0.09302325581395349,48.89594736851349,2.381133802246315,2025-09-13 16:00:00,18.5,0.1,16.9
2025-09-13 16:30:00,19036,Hôpital Robert Debré,6,27,33,0.18181818181818182,48.88005222200894,2.4008650346327003,2025-09-13 16:00:00,18.5,0.1,16.9
2025-09-13 16:30:00,19037,Belleville - Porte des Lilas,7,21,32,0.21875,48.87660391892763,2.404769691129476,2025-09-13 16:00:00,18.5,0.1,16.9
2025-09-13 16:30:00,19039,Edouard Pailleron - Simon Bolivar,1,22,24,0.041666666666666664,48.87979886049996,2.374839261174202,2025-09-13 16:00:00,18.5,0.1,16.9
2025-09-13 16:30:00,19041,Belleville - Pyrénées,3,38,42,0.07142857142857142,48.8741908,2.3860039,2025-09-13 16:00:00,18.5,0.1,16.9
2025-09-13 16:30:00,19043,Delphine Seyrig - Général Leclerc,4,46,53,0.07547169811320754,48.893923963057865,2.39790290594101,2025-09-13 16:00:00,18.5,0.1,16.9
2025-09-13 16:30:00,19044,Grands Moulins de Pantin,12,38,50,0.24,48.89738369720229,2.3959985375404362,2025-09-13 16:00:00,18.5,0.1,16.9
2025-09-13 16:30:00,19045,Macdonald - Césaria Evora,18,47,67,0.26865671641791045,48.89883,2.37933,2025-09-13 16:00:00,18.5,0.1,16.9
2025-09-13 16:30:00,19046,Porte de Pantin.,9,20,33,0.2727272727272727,48.889199725577,2.3950181901455,2025-09-13 16:00:00,18.5,0.1,16.9
2025-09-13 16:30:00,19101,Square Simon Bolivar,9,15,24,0.375,48.875089888322,2.3826304078102,2025-09-13 16:00:00,18.5,0.1,16.9
2025-09-13 16:30:00,19103,Manin - Carrières d'Amérique,2,17,20,0.1,48.884672142095,2.3919698596001,2025-09-13 16:00:00,18.5,0.1,16.9
2025-09-13 16:30:00,19105,Ambroise Rendu - Porte Brunet,4,13,17,0.23529411764705882,48.883667,2.395733,2025-09-13 16:00:00,18.5,0.1,16.9
2025-09-13 16:30:00,19108,Gaston Tessier - Rosa Parks RER,12,24,37,0.32432432432432434,48.8963765,2.3743692,2025-09-13 16:00:00,18.5,0.1,16.9
2025-09-13 16:30:00,19110,Square Claude Bernard,12,16,30,0.4,48.89876016219984,2.375325746834278,2025-09-13 16:00:00,18.5,0.1,16.9
2025-09-13 16:30:00,19111,Cesaria Evora - Rosa Parks,10,29,39,0.2564102564102564,48.89717672825043,2.3745173960924144,2025-09-13 16:00:00,18.5,0.1,16.9
2025-09-13 16:30:00,19113,Pré Saint-Gervais - Lilas,0,26,28,0.0,48.877870626988,2.3959073424339,2025-09-13 16:00:00,18.5,0.1,16.9
2025-09-13 16:30:00,19114,Manin - Secrétan,2,18,20,0.1,48.8791665,2.3787959,2025-09-13 16:00:00,18.5,0.1,16.9
2025-09-13 16:30:00,19115,Porte de la Villette,6,20,27,0.2222222222222222,48.89835196548483,2.386150136590004,2025-09-13 16:00:00,18.5,0.1,16.9
2025-09-13 16:30:00,19117,Euryale Dehaynin - Loire,13,16,30,0.43333333333333335,48.886248917304805,2.3774591088294987,2025-09-13 16:00:00,18.5,0.1,16.9
2025-09-13 16:30:00,19120,Carducci - Place Hannah Arendt,2,25,27,0.07407407407407407,48.877436681515796,2.3860743641853337,2025-09-13 16:00:00,18.5,0.1,16.9
2025-09-13 16:30:00,19121,Belleville -  Pré Saint-Gervais,4,17,21,0.19047619047619047,48.875565910073,2.3930460959673,2025-09-13 16:00:00,18.5,0.1,16.9
2025-09-13 16:30:00,19123,Metz - Marne,4,26,33,0.12121212121212122,48.891163,2.3865705,2025-09-13 16:00:00,18.5,0.1,16.9
2025-09-13 16:30:00,19124,Alexander Fleming - Belvédère,2,29,31,0.06451612903225806,48.88179064200294,2.4030599377642674,2025-09-13 16:00:00,18.5,0.1,16.9
2025-09-13 16:30:00,19125,Place de l'Édit de Nantes,17,13,30,0.5666666666666667,48.88879,2.3785,2025-09-13 16:00:00,18.5,0.1,16.9
2025-09-13 16:30:00,19127,Aubervilliers - Curial,4,17,23,0.17391304347826086,48.89088305227546,2.3688579350709915,2025-09-13 16:00:00,18.5,0.1,16.9
2025-09-13 16:30:00,19130,Place Paul Delouvrier,2,40,42,0.047619047619047616,48.89197621431365,2.3851288855075836,2025-09-13 16:00:00,18.5,0.1,16.9
2025-09-13 16:30:00,19201,Petit - Georges Thill,5,17,23,0.21739130434782608,48.88603131999171,2.3895753175020222,2025-09-13 16:00:00,18.5,0.1,16.9
2025-09-13 16:30:00,19202,Marseillaise - Grenade,5,38,45,0.1111111111111111,48.889371092747,2.3979396821544,2025-09-13 16:00:00,18.5,0.1,16.9
2025-09-13 16:30:00,19203,Pailleron - Bouret,1,25,27,0.037037037037037035,48.880516995482,2.3763902374411,2025-09-13 16:00:00,18.5,0.1,16.9
2025-09-13 16:30:00,19204,Rampal - Belleville,3,16,20,0.15,48.873114661405,2.3798409114805,2025-09-13 16:00:00,18.5,0.1,16.9
2025-09-13 16:30:00,19205,Simon Bolivar - Henri Turot,5,16,23,0.21739130434782608,48.877475489801,2.3739709492211,2025-09-13 16:00:00,18.5,0.1,16.9
2025-09-13 16:30:00,20003,Pyrénées - Cours de Vincennes,3,17,21,0.14285714285714285,48.847796779935,2.4061721563339,2025-09-13 16:00:00,18.5,0.1,16.9
2025-09-13 16:30:00,20004,Commandant l'Herminier - Gallieni,3,14,17,0.17647058823529413,48.847040552603,2.4160453677177,2025-09-13 16:00:00,18.5,0.1,16.9
2025-09-13 16:30:00,20005,Reynaldo Hahn - Lagny,15,4,19,0.7894736842105263,48.849266043601794,2.412330328844772,2025-09-13 16:00:00,18.5,0.1,16.9
2025-09-13 16:30:00,20006,Pyrénées - Plaine,7,4,12,0.5833333333333334,48.85026702458,2.4062821269035,2025-09-13 16:00:00,18.5,0.1,16.9
2025-09-13 16:30:00,20007,Buzenval - Avron,7,42,50,0.14,48.851617204999,2.4015135973077,2025-09-13 16:00:00,18.5,0.1,16.9
2025-09-13 16:30:00,20009,Docteurs Déjérine - Pte de Montreuil,7,13,20,0.35,48.85398448133697,2.41208288897222,2025-09-13 16:00:00,18.5,0.1,16.9
2025-09-13 16:30:00,20010,Sorbier - Gasnier-Guy,0,34,34,0.0,48.865217631011,2.3936596512794,2025-09-13 16:00:00,18.5,0.1,16.9
2025-09-13 16:30:00,20011,Pyrénées - Dagorno,2,18,20,0.1,48.855425770695085,2.4051643162965775,2025-09-13 16:00:00,18.5,0.1,16.9
2025-09-13 16:30:00,20013,Alexandre Dumas - Place de la Réunion,3,42,45,0.06666666666666667,48.85533710742046,2.3997703687646292,2025-09-13 16:00:00,18.5,0.1,16.9
2025-09-13 16:30:00,20014,Charonne - Alexandre Dumas,5,29,35,0.14285714285714285,48.856077415056,2.3948693275452,2025-09-13 16:00:00,18.5,0.1,16.9
2025-09-13 16:30:00,20016,Pyrénées - Maraîchers,1,32,33,0.030303030303030304,48.85714001395299,2.4043509364128113,2025-09-13 16:00:00,18.5,0.1,16.9
2025-09-13 16:30:00,2002,Etienne Marcel - Montorgueil,25,2,28,0.8928571428571429,48.86450567259199,2.3461959511041637,2025-09-13 16:00:00,18.5,0.1,16.9
2025-09-13 16:30:00,20020,Pyrénées - Charles Renouvier,4,25,29,0.13793103448275862,48.86095933229224,2.400421852042113,2025-09-13 16:00:00,18.5,0.1,16.9
2025-09-13 16:30:00,20021,Indre - Prairies,6,31,38,0.15789473684210525,48.86254398506782,2.403290458023548,2025-09-13 16:00:00,18.5,0.1,16.9
2025-09-13 16:30:00,20022,Porte de Bagnolet,3,30,33,0.09090909090909091,48.864707139122984,2.408344637349607,2025-09-13 16:00:00,18.5,0.1,16.9
2025-09-13 16:30:00,20023,Pelleport - Belgrand,1,14,15,0.06666666666666667,48.86500081847653,2.403980836377493,2025-09-13 16:00:00,18.5,0.1,16.9
2025-09-13 16:30:00,20024,Gambetta - Père Lachaise,2,27,29,0.06896551724137931,48.864295696165875,2.398228667282044,2025-09-13 16:00:00,18.5,0.1,16.9
2025-09-13 16:30:00,20027,Porte de Ménilmontant,1,14,15,0.06666666666666667,48.8691543609174,2.40932246879487,2025-09-13 16:00:00,18.5,0.1,16.9
2025-09-13 16:30:00,20029,Frères Flavien - Porte des Lilas,3,20,23,0.13043478260869565,48.8780992764359,2.41104629853209,2025-09-13 16:00:00,18.5,0.1,16.9
2025-09-13 16:30:00,2003,Saint-Denis - Réaumur,27,1,32,0.84375,48.8661116315789,2.3507790675507594,2025-09-13 16:00:00,18.5,0.1,16.9
2025-09-13 16:30:00,20030,Ménilmontant - Père Lachaise,14,27,41,0.34146341463414637,48.863287291502,2.3869940266013,2025-09-13 16:00:00,18.5,0.1,16.9
2025-09-13 16:30:00,20032,Square des Amandiers,4,21,26,0.15384615384615385,48.86615630668046,2.3891324177384377,2025-09-13 16:00:00,18.5,0.1,16.9
2025-09-13 16:30:00,20033,Etienne Dolet - Place Maurice Chevalier,8,39,47,0.1702127659574468,48.86798303359366,2.3851405311143026,2025-09-13 16:00:00,18.5,0.1,16.9
2025-09-13 16:30:00,20035,Pyrénées - Ménilmontant,3,23,26,0.11538461538461539,48.8693268535238,2.395084574818611,2025-09-13 16:00:00,18.5,0.1,16.9
2025-09-13 16:30:00,20037,Gambetta - Saint Fargeau,1,22,24,0.041666666666666664,48.871244610447015,2.4039056897163396,2025-09-13 16:00:00,18.5,0.1,16.9
2025-09-13 16:30:00,20039,Belleville - Couronnes,6,43,50,0.12,48.868831082877,2.3809862136841,2025-09-13 16:00:00,18.5,0.1,16.9
2025-09-13 16:30:00,2004,Square Pierre Lazareff,12,4,16,0.75,48.867141720746,2.3483933508396,2025-09-13 16:00:00,18.5,0.1,16.9
2025-09-13 16:30:00,20040,Parc de Belleville - Julien Lacroix,5,20,26,0.19230769230769232,48.8703459,2.3842214,2025-09-13 16:00:00,18.5,0.1,16.9
2025-09-13 16:30:00,20042,Pyrénées - Emmery,6,34,40,0.15,48.87202880542,2.3918598091484,2025-09-13 16:00:00,18.5,0.1,16.9
2025-09-13 16:30:00,20043,Charonne - Avron,8,18,27,0.2962962962962963,48.851602665222,2.3984030470379,2025-09-13 16:00:00,18.5,0.1,16.9
2025-09-13 16:30:00,20044,Davout - Volga,3,24,28,0.10714285714285714,48.852919679957296,2.410522909779111,2025-09-13 16:00:00,18.5,0.1,16.9
2025-09-13 16:30:00,20045,Louis Ganne - Davout,6,24,30,0.2,48.86338720692607,2.409725748002529,2025-09-13 16:00:00,18.5,0.1,16.9
2025-09-13 16:30:00,20047,Cours de Vincennes - Davout,11,34,48,0.22916666666666666,48.847238029966,2.4107042336225,2025-09-13 16:00:00,18.5,0.1,16.9
2025-09-13 16:30:00,20048,Bagnolet - Place Saint-Blaise,7,20,28,0.25,48.85973,2.40334,2025-09-13 16:00:00,18.5,0.1,16.9
2025-09-13 16:30:00,2006,Place des Victoires,1,23,24,0.041666666666666664,48.8660354,2.3420333,2025-09-13 16:00:00,18.5,0.1,16.9
2025-09-13 16:30:00,2008,Mairie du 2ème,6,22,28,0.21428571428571427,48.8672190355135,2.3404625437747044,2025-09-13 16:00:00,18.5,0.1,16.9
2025-09-13 16:30:00,20103,Le Vau - Maurice Bertaux,2,23,25,0.08,48.86803439043193,2.411030612453627,2025-09-13 16:00:00,18.5,0.1,16.9
2025-09-13 16:30:00,20104,Louis Lumière.,4,17,22,0.18181818181818182,48.86216198070008,2.41112578185621,2025-09-13 16:00:00,18.5,0.1,16.9
2025-09-13 16:30:00,20106,Mairie du 20ème,4,23,27,0.14814814814814814,48.865302324275,2.3990669846535,2025-09-13 16:00:00,18.5,0.1,16.9
2025-09-13 16:30:00,20108,Jardin de l'Hospice Debrousse,3,20,23,0.13043478260869565,48.861451061938,2.40568600595,2025-09-13 16:00:00,18.5,0.1,16.9
2025-09-13 16:30:00,20110,Gambetta - Tourelles,2,18,20,0.1,48.875337902264,2.4059921130538,2025-09-13 16:00:00,18.5,0.1,16.9
2025-09-13 16:30:00,20113,Piat - Parc de Belleville,3,18,21,0.14285714285714285,48.87195626635528,2.384981390278095,2025-09-13 16:00:00,18.5,0.1,16.9
2025-09-13 16:30:00,20115,Louis Lumière - Porte de Bagnolet,2,18,20,0.1,48.86431136000005,2.4105210229754443,2025-09-13 16:00:00,18.5,0.1,16.9
2025-09-13 16:30:00,20116,Haies - Réunion,8,14,22,0.36363636363636365,48.85386896766491,2.402426162238911,2025-09-13 16:00:00,18.5,0.1,16.9
2025-09-13 16:30:00,20117,Saint-Fargeau - Mortier,3,28,31,0.0967741935483871,48.87266656122256,2.407912909984589,2025-09-13 16:00:00,18.5,0.1,16.9
2025-09-13 16:30:00,20118,Orteaux - Mouraud,4,20,24,0.16666666666666666,48.85558642847872,2.408762907764669,2025-09-13 16:00:00,18.5,0.1,16.9
2025-09-13 16:30:00,20119,Square des Saint-Simoniens,0,25,25,0.0,48.8701796,2.3967273,2025-09-13 16:00:00,18.5,0.1,16.9
2025-09-13 16:30:00,2012,Choiseul - Quatre Septembre,9,1,44,0.20454545454545456,48.869935533187,2.3359975218773,2025-09-13 16:00:00,18.5,0.1,16.9
2025-09-13 16:30:00,20121,Boyer - Ménilmontant,4,14,19,0.21052631578947367,48.868895162679,2.3919824145635,2025-09-13 16:00:00,18.5,0.1,16.9
2025-09-13 16:30:00,20122,Vitruve - Davout,2,21,23,0.08695652173913043,48.86053161154489,2.4091592812626543,2025-09-13 16:00:00,18.5,0.1,16.9
2025-09-13 16:30:00,2013,Favart - Italiens,8,8,17,0.47058823529411764,48.871446353921,2.3382901058508,2025-09-13 16:00:00,18.5,0.1,16.9
2025-09-13 16:30:00,20131,Repos - Cimetière du Père Lachaise,1,32,33,0.030303030303030304,48.859358523593,2.3896131366845,2025-09-13 16:00:00,18.5,0.1,16.9
2025-09-13 16:30:00,20132,Réunion - Avron,4,22,26,0.15384615384615385,48.852566752033766,2.403928068708116,2025-09-13 16:00:00,18.5,0.1,16.9
2025-09-13 16:30:00,20134,Lieutenant Chauré - Etienne Marey,2,18,20,0.1,48.86746195408435,2.405970990657807,2025-09-13 16:00:00,18.5,0.1,16.9
2025-09-13 16:30:00,20136,Henri Chevreau - Couronnes,2,26,27,0.07407407407407407,48.87033205312931,2.388777695596218,2025-09-13 16:00:00,18.5,0.1,16.9
2025-09-13 16:30:00,20137,Borrégo - Gambetta,2,23,25,0.08,48.87330497045532,2.4014145880937576,2025-09-13 16:00:00,18.5,0.1,16.9
2025-09-13 16:30:00,2014,Daunou - Louis le Grand,18,14,32,0.5625,48.869113,2.332515,2025-09-13 16:00:00,18.5,0.1,16.9
2025-09-13 16:30:00,20140,Paganini - Davout,5,16,22,0.22727272727272727,48.85135,2.412021,2025-09-13 16:00:00,18.5,0.1,16.9
2025-09-13 16:30:00,20142,Mûriers - Père Lachaise,1,19,20,0.05,48.864130509668044,2.39164982067019,2025-09-13 16:00:00,18.5,0.1,16.9
2025-09-13 16:30:00,20143,Ramponeau - Belleville,8,35,44,0.18181818181818182,48.871031137596,2.379056852114,2025-09-13 16:00:00,18.5,0.1,16.9
2025-09-13 16:30:00,2015,Louis le Grand - Italiens,30,2,33,0.9090909090909091,48.870508937204,2.3340544619393,2025-09-13 16:00:00,18.5,0.1,16.9
2025-09-13 16:30:00,2016,Aboukir - Alexandrie,11,8,21,0.5238095238095238,48.86868344444473,2.3502043269474897,2025-09-13 16:00:00,18.5,0.1,16.9
2025-09-13 16:30:00,2017,Caire - Dussoubs,24,15,40,0.6,48.86785342111862,2.349364310503006,2025-09-13 16:00:00,18.5,0.1,16.9
2025-09-13 16:30:00,2020,Danielle Casanova - Opéra,16,4,20,0.8,48.867643242297,2.3333894088864,2025-09-13 16:00:00,18.5,0.1,16.9
2025-09-13 16:30:00,20202,Dupont de l'Eure - Gambetta,2,28,31,0.06451612903225806,48.8679385,2.4003649,2025-09-13 16:00:00,18.5,0.1,16.9
2025-09-13 16:30:00,20203,Evariste Galois,8,13,21,0.38095238095238093,48.873341356228,2.4133544409574,2025-09-13 16:00:00,18.5,0.1,16.9
2025-09-13 16:30:00,2021,Cléry - Montmartre,13,45,58,0.22413793103448276,48.867458,2.3445211,2025-09-13 16:00:00,18.5,0.1,16.9
2025-09-13 16:30:00,2022,Saint-Fiacre - Poissonière,17,16,35,0.4857142857142857,48.870828911558,2.3459213599563,2025-09-13 16:00:00,18.5,0.1,16.9
2025-09-13 16:30:00,21001,Transvaal - Charles de Gaulle,25,2,27,0.9259259259259259,48.848280403628806,2.2373420120857195,2025-09-13 16:00:00,18.5,0.1,16.9
2025-09-13 16:30:00,21002,Place Denfert-Rochereau,14,4,20,0.7,48.843252536286684,2.245987951755524,2025-09-13 16:00:00,18.5,0.1,16.9
2025-09-13 16:30:00,21003,Jean Jaurès - Jean Baptiste Clément,34,3,39,0.8717948717948718,48.84576261454011,2.2369650006294255,2025-09-13 16:00:00,18.5,0.1,16.9
2025-09-13 16:30:00,21004,Jean Jaurès - Reine,19,10,31,0.6129032258064516,48.84009622558849,2.239872515201569,2025-09-13 16:00:00,18.5,0.1,16.9
2025-09-13 16:30:00,21005,Hôtel de Ville de Boulogne Billancourt,12,14,26,0.46153846153846156,48.83495885166784,2.2416803240776066,2025-09-13 16:00:00,18.5,0.1,16.9
2025-09-13 16:30:00,21006,Marcelin Berthelot,8,18,27,0.2962962962962963,48.8415473058801,2.233161628246308,2025-09-13 16:00:00,18.5,0.1,16.9
2025-09-13 16:30:00,21007,Rond-Point Rhin et Danube,5,47,53,0.09433962264150944,48.840452820991764,2.2280225157737736,2025-09-13 16:00:00,18.5,0.1,16.9
2025-09-13 16:30:00,21008,Victor Hugo - Galliéni,23,11,34,0.6764705882352942,48.838020154411,2.2460845112801,2025-09-13 16:00:00,18.5,0.1,16.9
2025-09-13 16:30:00,21009,Le Corbusier - Jean Jaurès,27,18,46,0.5869565217391305,48.83780830557548,2.2408381104469304,2025-09-13 16:00:00,18.5,0.1,16.9
2025-09-13 16:30:00,2101,Bachaumont - Montmartre,14,15,33,0.42424242424242425,48.86617395079137,2.3449775576591496,2025-09-13 16:00:00,18.5,0.1,16.9
2025-09-13 16:30:00,21011,Silly - Louis Blériot,9,12,23,0.391304347826087,48.83219045374266,2.2340199351310734,2025-09-13 16:00:00,18.5,0.1,16.9
2025-09-13 16:30:00,21015,Nationale - Place Jules Guesde,7,16,23,0.30434782608695654,48.82753962462998,2.2416052222251897,2025-09-13 16:00:00,18.5,0.1,16.9
2025-09-13 16:30:00,21016,Point du Jour - Jean Jaurès,17,23,40,0.425,48.828753141436465,2.245911467014621,2025-09-13 16:00:00,18.5,0.1,16.9
2025-09-13 16:30:00,21017,Place Marcel Sembat,9,47,56,0.16071428571428573,48.83328865030686,2.2441747784614567,2025-09-13 16:00:00,18.5,0.1,16.9
2025-09-13 16:30:00,21019,Edouard Vaillant - Paul-Adolphe Souriau,3,24,28,0.10714285714285714,48.834845858829,2.2479459643364,2025-09-13 16:00:00,18.5,0.1,16.9
2025-09-13 16:30:00,2102,Saint-Marc - Feydeau,4,33,37,0.10810810810810811,48.870326843044,2.3418715826353,2025-09-13 16:00:00,18.5,0.1,16.9
2025-09-13 16:30:00,21021,Enfants du Paradis - Peupliers,16,24,40,0.4,48.833122686454,2.2571459412575,2025-09-13 16:00:00,18.5,0.1,16.9
2025-09-13 16:30:00,21022,Dôme - République,11,14,25,0.44,48.832681,2.250257,2025-09-13 16:00:00,18.5,0.1,16.9
2025-09-13 16:30:00,21023,Ancienne Mairie - André Morizet,8,17,25,0.32,48.838311,2.234077,2025-09-13 16:00:00,18.5,0.1,16.9
2025-09-13 16:30:00,21027,Fief - République,10,12,25,0.4,48.83170888166024,2.255771979689598,2025-09-13 16:00:00,18.5,0.1,16.9
2025-09-13 16:30:00,21028,Pierre Lefaucheux - Traversière,12,22,35,0.34285714285714286,48.82435208303827,2.2417913004755974,2025-09-13 16:00:00,18.5,0.1,16.9
2025-09-13 16:30:00,21029,Cours de l'Ile Seguin - Parc Billancourt,8,21,29,0.27586206896551724,48.82714055843935,2.234234511852265,2025-09-13 16:00:00,18.5,0.1,16.9
2025-09-13 16:30:00,21030,Fessart - Château,18,0,20,0.9,48.84245,2.23989,2025-09-13 16:00:00,18.5,0.1,16.9
2025-09-13 16:30:00,21031,Cimetière de Boulogne-Billancourt,4,36,40,0.1,48.830764,2.252024,2025-09-13 16:00:00,18.5,0.1,16.9
2025-09-13 16:30:00,21032,Sèvres-Gallieni,15,12,27,0.5555555555555556,48.837809408957,2.2281519323587,2025-09-13 16:00:00,18.5,0.1,16.9
2025-09-13 16:30:00,21033,Sèvres - Maréchal Juin,9,8,18,0.5,48.8324305,2.2292812,2025-09-13 16:00:00,18.5,0.1,16.9
2025-09-13 16:30:00,2108,Vivienne - Montmartre,20,16,39,0.5128205128205128,48.871347597383,2.3414588347077,2025-09-13 16:00:00,18.5,0.1,16.9
2025-09-13 16:30:00,2110,Jeûneurs - Mulhouse,8,19,28,0.2857142857142857,48.868997,2.346925,2025-09-13 16:00:00,18.5,0.1,16.9
2025-09-13 16:30:00,21104,Madame de Sanzillon - Mozart,16,6,22,0.7272727272727273,48.90379820774301,2.3187401890754704,2025-09-13 16:00:00,18.5,0.1,16.9
2025-09-13 16:30:00,21105,Morice - Général Leclerc,10,13,25,0.4,48.90245471981591,2.3128929734230046,2025-09-13 16:00:00,18.5,0.1,16.9
2025-09-13 16:30:00,21107,Bertrand Sincholle - Henri Barbusse,10,12,23,0.43478260869565216,48.89925982394349,2.3042294383049016,2025-09-13 16:00:00,18.5,0.1,16.9
2025-09-13 16:30:00,21108,Mairie de Clichy,19,30,51,0.37254901960784315,48.903653634661,2.3059353232384,2025-09-13 16:00:00,18.5,0.1,16.9
2025-09-13 16:30:00,21109,Guichet - Jean Jaurès,7,20,28,0.25,48.905169868129036,2.3023840785026555,2025-09-13 16:00:00,18.5,0.1,16.9
2025-09-13 16:30:00,2111,Chabanais - Petits Champs,18,11,30,0.6,48.86703740186721,2.336716018617153,2025-09-13 16:00:00,18.5,0.1,16.9
2025-09-13 16:30:00,21110,Parc Roger Salengro,20,14,35,0.5714285714285714,48.905303858642,2.31055945158,2025-09-13 16:00:00,18.5,0.1,16.9
2025-09-13 16:30:00,21114,Gustave Eiffel - Parc des Impressionnistes,3,27,30,0.1,48.90390619651018,2.2946908324956894,2025-09-13 16:00:00,18.5,0.1,16.9
2025-09-13 16:30:00,21115,Chancé Milly - Cimetière Communal Sud,5,26,32,0.15625,48.89687189382465,2.303922325372696,2025-09-13 16:00:00,18.5,0.1,16.9
2025-09-13 16:30:00,21118,Neuilly - Petit,8,7,16,0.5,48.898965361341254,2.29627937078476,2025-09-13 16:00:00,18.5,0.1,16.9
2025-09-13 16:30:00,21119,Belfort - Victor Hugo,18,5,24,0.75,48.9018492,2.3172724,2025-09-13 16:00:00,18.5,0.1,16.9
2025-09-13 16:30:00,21120,Docteur Calmette - Martre,4,25,30,0.13333333333333333,48.898969358483,2.3086513252383,2025-09-13 16:00:00,18.5,0.1,16.9
2025-09-13 16:30:00,21203,Place Jules Ferry,8,20,28,0.2857142857142857,48.812107928414775,2.325837314128876,2025-09-13 16:00:00,18.5,0.1,16.9
2025-09-13 16:30:00,21204,Estienne d'Orves - Henri Ginoux,2,29,31,0.06451612903225806,48.815388220397274,2.320886790760933,2025-09-13 16:00:00,18.5,0.1,16.9
2025-09-13 16:30:00,21205,Arthur Auger - Jean Jaurès,8,18,26,0.3076923076923077,48.813736445585235,2.3069277405738835,2025-09-13 16:00:00,18.5,0.1,16.9
2025-09-13 16:30:00,21207,Verdier - République,7,21,29,0.2413793103448276,48.815403766277,2.31739372015,2025-09-13 16:00:00,18.5,0.1,16.9
2025-09-13 16:30:00,21209,Molière - République,4,26,30,0.13333333333333333,48.81111581390707,2.3145738624448158,2025-09-13 16:00:00,18.5,0.1,16.9
2025-09-13 16:30:00,21212,Marne - Germain Dardan,4,18,22,0.18181818181818182,48.81217465201,2.3035024699104,2025-09-13 16:00:00,18.5,0.1,16.9
2025-09-13 16:30:00,21215,Verdier - Jean Jaurès,4,27,33,0.12121212121212122,48.81614048711214,2.3123561963438988,2025-09-13 16:00:00,18.5,0.1,16.9
2025-09-13 16:30:00,21216,Louis Lejeune - Barbès,2,22,25,0.08,48.81807418981508,2.3267009854316716,2025-09-13 16:00:00,18.5,0.1,16.9
2025-09-13 16:30:00,21217,Louis Rolland - République,0,25,26,0.0,48.81710889740748,2.3193106434955717,2025-09-13 16:00:00,18.5,0.1,16.9
2025-09-13 16:30:00,21218,Gabriel Péri - Place de la Libération,4,13,18,0.2222222222222222,48.819828421929,2.3117361743705,2025-09-13 16:00:00,18.5,0.1,16.9
2025-09-13 16:30:00,21219,Amaury Duval - Gabriel Péri,1,35,36,0.027777777777777776,48.81718759671675,2.323841750621796,2025-09-13 16:00:00,18.5,0.1,16.9
2025-09-13 16:30:00,21302,Aristide Briand - Place de la Résistance,23,1,25,0.92,48.82124248401006,2.2511002421379094,2025-09-13 16:00:00,18.5,0.1,16.9
2025-09-13 16:30:00,21305,Place Jacques Madaule,22,3,25,0.88,48.823933787309,2.2606918215752,2025-09-13 16:00:00,18.5,0.1,16.9
2025-09-13 16:30:00,21306,Place Lafayette,46,15,62,0.7419354838709677,48.829654975522,2.2638675570488,2025-09-13 16:00:00,18.5,0.1,16.9
2025-09-13 16:30:00,21307,Victor Cresson - Telles de la Poterie,25,5,31,0.8064516129032258,48.822698842979,2.2686498274964,2025-09-13 16:00:00,18.5,0.1,16.9
2025-09-13 16:30:00,21308,Bara - Henri Farman,26,32,58,0.4482758620689655,48.833218027457846,2.2677567601203923,2025-09-13 16:00:00,18.5,0.1,16.9
2025-09-13 16:30:00,21309,Mairie d'Issy,37,4,41,0.9024390243902439,48.823767792468,2.2723111510277,2025-09-13 16:00:00,18.5,0.1,16.9
2025-09-13 16:30:00,21311,Parvis Corentin Celton,49,6,55,0.8909090909090909,48.827472525227,2.2784319519997,2025-09-13 16:00:00,18.5,0.1,16.9
2025-09-13 16:30:00,21312,Lucie Aubrac - Fort,0,29,30,0.0,48.818144834008976,2.271184623241425,2025-09-13 16:00:00,18.5,0.1,16.9
2025-09-13 16:30:00,21313,Guynemer - Séverine,14,12,26,0.5384615384615384,48.83091743371036,2.2790706530213356,2025-09-13 16:00:00,18.5,0.1,16.9
2025-09-13 16:30:00,21314,Chemin de Bretagne,13,16,29,0.4482758620689655,48.824753068884,2.2588385956052,2025-09-13 16:00:00,18.5,0.1,16.9
2025-09-13 16:30:00,21315,Jules Guesdes - Général de Gaulle,2,22,24,0.08333333333333333,48.81930581291959,2.278934195637703,2025-09-13 16:00:00,18.5,0.1,16.9
2025-09-13 16:30:00,21316,Cimetière d'Issy-les-Moulineaux,3,20,24,0.125,48.817699773925,2.2609312087297,2025-09-13 16:00:00,18.5,0.1,16.9
2025-09-13 16:30:00,21319,Esplanade du Foncet - Camille Desmoulins,19,6,28,0.6785714285714286,48.827090233495,2.2606857866049,2025-09-13 16:00:00,18.5,0.1,16.9
2025-09-13 16:30:00,21320,Président Roosevelt - Rouget de Lisle,29,11,40,0.725,48.83047518749,2.2616135525345,2025-09-13 16:00:00,18.5,0.1,16.9
2025-09-13 16:30:00,21323,Charlot - Stade Gabriel Voisin,21,10,31,0.6774193548387096,48.827228120536,2.268122527474,2025-09-13 16:00:00,18.5,0.1,16.9
2025-09-13 16:30:00,21326,Moulin de Pierre - Abbé Grégoire,2,18,20,0.1,48.822036188382,2.2754641655975,2025-09-13 16:00:00,18.5,0.1,16.9
2025-09-13 16:30:00,21327,Jean Bouin - Gouverneur Général Eboué,30,1,31,0.967741935483871,48.824792734266,2.2651904328524,2025-09-13 16:00:00,18.5,0.1,16.9
2025-09-13 16:30:00,21328,Verger - Colonel Guichard,0,27,29,0.0,48.816376985087,2.2670380088932,2025-09-13 16:00:00,18.5,0.1,16.9
2025-09-13 16:30:00,21329,Gare - Aristide Briand,10,15,29,0.3448275862068966,48.821410564722,2.2555950104387,2025-09-13 16:00:00,18.5,0.1,16.9
2025-09-13 16:30:00,21402,Place Aimé Césaire,1,26,27,0.037037037037037035,48.783194713067815,2.2429127991199493,2025-09-13 16:00:00,18.5,0.1,16.9
2025-09-13 16:30:00,21404,Jean Jaurès - Gare de Clamart,5,15,20,0.25,48.81321981219,2.2716768079163,2025-09-13 16:00:00,18.5,0.1,16.9
2025-09-13 16:30:00,21501,Pont de Suresnes,10,6,18,0.5555555555555556,48.867415092322,2.2258946679617,2025-09-13 16:00:00,18.5,0.1,16.9
2025-09-13 16:30:00,21502,Verdun - Place Henri IV,10,16,26,0.38461538461538464,48.870797375639214,2.2277003154158592,2025-09-13 16:00:00,18.5,0.1,16.9
2025-09-13 16:30:00,21505,Édouard Vaillant - Place Jean Jaurès,2,20,24,0.08333333333333333,48.86265537999924,2.2089037319128613,2025-09-13 16:00:00,18.5,0.1,16.9
2025-09-13 16:30:00,21506,Maurice Payret-Dortail,3,18,22,0.13636363636363635,48.87811957063342,2.2233625128865246,2025-09-13 16:00:00,18.5,0.1,16.9
2025-09-13 16:30:00,21507,Gardenat-Lapostol - Velettes,2,18,20,0.1,48.87387,2.224185,2025-09-13 16:00:00,18.5,0.1,16.9
2025-09-13 16:30:00,21508,Georges Pompidou - Verdun,20,6,26,0.7692307692307693,48.875481,2.232443,2025-09-13 16:00:00,18.5,0.1,16.9
2025-09-13 16:30:00,21509,Gardenat Lapostol - Franklin Roosevelt,5,19,24,0.20833333333333334,48.871839,2.222505,2025-09-13 16:00:00,18.5,0.1,16.9
2025-09-13 16:30:00,21510,Fontaine du Tertre - Calvaire,1,22,24,0.041666666666666664,48.8702539,2.2187778,2025-09-13 16:00:00,18.5,0.1,16.9
2025-09-13 16:30:00,21511,Marcel Monge - Marcel Dassault,26,20,46,0.5652173913043478,48.86096384533371,2.2246733296048142,2025-09-13 16:00:00,18.5,0.1,16.9
