hour_utc,stationcode,name,occ_ratio_hour,bikes_avg,docks_avg,lat,lon,temp_C,precip_mm,wind_mps
2025-09-07 23:00:00,10003,Hauteville - Bonne Nouvelle,0.24313725490196075,4.133333333333334,8.866666666666667,48.87077436024,2.3496496368327,21.8,0.0,9.0
2025-09-07 23:00:00,10004,Metz - Faubourg Saint-Denis,0.3152777777777777,15.133333333333333,30.866666666666667,48.870893,2.353521,21.8,0.0,9.0
2025-09-07 23:00:00,10005,Petites Ecuries - Faubourg Poissonnière,0.6901960784313724,11.733333333333333,5.266666666666667,48.87397217237368,2.348388757504776,21.8,0.0,9.0
2025-09-07 23:00:00,10006,Petites Ecuries - Faubourg Saint-Denis,0.3613445378151261,10.117647058823529,15.882352941176471,48.87287120589831,2.3542150855064397,21.8,0.0,9.0
2025-09-07 23:00:00,10008,Cité Riverin - Château d'Eau,0.7083333333333336,12.75,2.25,48.870702423554306,2.358739863900845,21.8,0.0,9.0
2025-09-07 23:00:00,10009,Mairie du 10ème,0.4013157894736842,7.625,8.375,48.872089449907,2.3575825989246,21.8,0.0,9.0
2025-09-07 23:00:00,1001,Quai de l'Horloge - Pont Neuf,0.1583710407239819,2.6923076923076925,14.307692307692308,48.857058739111,2.3417982839439,21.8,0.0,9.0
2025-09-07 23:00:00,10010,Place Jacques Bonsergent,0.30086580086580084,9.928571428571429,16.285714285714285,48.870948218595,2.3612049221992,21.8,0.0,9.0
2025-09-07 23:00:00,10011,Bourse du Travail,0.33910034602076117,5.764705882352941,1.2352941176470589,48.868976638826,2.3623438552022,21.8,0.0,9.0
2025-09-07 23:00:00,10012,Vinaigriers - Magenta,0.105,2.625,19.375,48.8731167,2.3593052,21.8,0.0,9.0
2025-09-07 23:00:00,10013,Alibert - Jemmapes,0.4875,29.25,28.1875,48.871044051984,2.3661044619878,21.8,0.0,9.0
2025-09-07 23:00:00,10014,Marseille - Beaurepaire,0.3333333333333334,18.333333333333332,29.266666666666666,48.871624306962985,2.3639265082738348,21.8,0.0,9.0
2025-09-07 23:00:00,10015,Lucien Sampaix - Récollets,0.1072463768115942,4.933333333333334,37.06666666666667,48.874330377560476,2.3621229082345963,21.8,0.0,9.0
2025-09-07 23:00:00,10016,Récollets - Square Villemin,0.0,0.0,16.0,48.875034655883944,2.359801238597928,21.8,0.0,9.0
2025-09-07 23:00:00,10017,Gare de l'Est - Fidélité,0.09333333333333332,1.4,7.6,48.874575,2.356796,21.8,0.0,9.0
2025-09-07 23:00:00,10018,Square Alban Satragne,0.04666666666666666,1.4,24.6,48.875388227727,2.3559567333359,21.8,0.0,9.0
2025-09-07 23:00:00,10019,Paradis - Hauteville,0.42150537634408586,13.066666666666666,17.933333333333334,48.874999954666755,2.3522757401923404,21.8,0.0,9.0
2025-09-07 23:00:00,1002,Victoria - Place du Chatelet,0.28342245989304815,6.235294117647059,14.764705882352942,48.857992591527,2.3469167947769,21.8,0.0,9.0
2025-09-07 23:00:00,10020,Chabrol - d'Hauteville,0.5511363636363636,6.0625,3.9375,48.877018388033,2.3513179644942,21.8,0.0,9.0
2025-09-07 23:00:00,10021,Marché Saint-Quentin,0.11999999999999998,1.8,13.2,48.877356057652,2.3545114456374,21.8,0.0,9.0
2025-09-07 23:00:00,10023,Gare de l'Est - Verdun,0.021978021978021976,0.3076923076923077,13.692307692307692,48.876156054271,2.3609149083206,21.8,0.0,9.0
2025-09-07 23:00:00,10025,Jemmapes - Ecluses Saint-Martin,0.23333333333333334,3.5,9.5,48.87748519186726,2.3660067468881607,21.8,0.0,9.0
2025-09-07 23:00:00,10026,Gare de l'Est - Chateau Landon,0.07170795306388528,4.230769230769231,48.92307692307692,48.879305,2.362424,21.8,0.0,9.0
2025-09-07 23:00:00,10027,Dunkerque - Alsace,0.08750000000000001,1.75,14.25,48.879355,2.358379,21.8,0.0,9.0
2025-09-07 23:00:00,10029,Dunkerque - Rocroy,0.11388888888888887,2.7333333333333334,17.266666666666666,48.880726,2.351464,21.8,0.0,9.0
2025-09-07 23:00:00,1003,Saint-Denis - Rivoli,0.29235880398671105,12.571428571428571,28.5,48.859059340842,2.3476943001151,21.8,0.0,9.0
2025-09-07 23:00:00,10031,Louis Blanc - Aqueduc,0.16602316602316605,6.142857142857143,29.857142857142858,48.882030182599,2.363561578095,21.8,0.0,9.0
2025-09-07 23:00:00,10032,Claude Vellefaux - Hôpital Saint-Louis,0.4395833333333333,14.066666666666666,16.933333333333334,48.872859139003,2.3700717069851,21.8,0.0,9.0
2025-09-07 23:00:00,10033,Gare du Nord - Saint-Vincent de Paul,0.04166666666666666,1.0,18.266666666666666,48.880955741648,2.3524305148385,21.8,0.0,9.0
2025-09-07 23:00:00,10034,Louis Blanc - La Chapelle,0.16666666666666663,3.5,16.5,48.884008964514,2.3599335551262,21.8,0.0,9.0
2025-09-07 23:00:00,10036,Aqueduc - Villette,0.23724489795918371,6.642857142857143,14.357142857142858,48.883886063895,2.367198803315,21.8,0.0,9.0
2025-09-07 23:00:00,10037,Quai de Valmy,0.03846153846153846,1.0,24.0,48.88126951579429,2.368186041712761,21.8,0.0,9.0
2025-09-07 23:00:00,10039,Sambre et Meuse - Villette,0.13600000000000004,3.4,15.6,48.874405666217,2.3738072379951,21.8,0.0,9.0
2025-09-07 23:00:00,10041,Gare du Nord - La Chapelle,0.34814814814814826,6.266666666666667,11.733333333333333,48.884178287286,2.3561057075858,21.8,0.0,9.0
2025-09-07 23:00:00,10042,Enghien - Faubourg Poissonnière,0.03030303030303029,1.0,31.0,48.872420063053,2.3483952362828,21.8,0.0,9.0
2025-09-07 23:00:00,1006,Grande Truanderie - Saint-Denis,0.6609848484848486,21.8125,7.1875,48.8626302,2.3498075,21.8,0.0,9.0
2025-09-07 23:00:00,1007,Turbigo - Française,0.140625,2.25,10.75,48.86358858111446,2.3477794602513313,21.8,0.0,9.0
2025-09-07 23:00:00,1008,Les Halles - Saint-Eustache,0.146484375,4.6875,26.3125,48.86362695901683,2.342623919248581,21.8,0.0,9.0
2025-09-07 23:00:00,10105,Mazagran - Bonne Nouvelle,0.2866666666666667,7.166666666666667,15.833333333333334,48.870047123655,2.3511248454452,21.8,0.0,9.0
2025-09-07 23:00:00,10107,Gare du Nord - Hôpital Lariboisière,0.06530612244897958,3.2,41.8,48.881949,2.352339,21.8,0.0,9.0
2025-09-07 23:00:00,10110,Louis Blanc - Jemmapes,0.1889400921658986,5.857142857142857,19.142857142857142,48.879330755297,2.3684485629201,21.8,0.0,9.0
2025-09-07 23:00:00,10113,Parmentier - Hôpital Saint-Louis,0.22790697674418603,9.8,31.2,48.871379874257,2.3698963836667,21.8,0.0,9.0
2025-09-07 23:00:00,10114,Granges aux Belles - Hôpital Saint-Louis,0.078125,4.6875,54.3125,48.874794994841,2.366669436985,21.8,0.0,9.0
2025-09-07 23:00:00,10115,Granges aux Belles,0.18518518518518512,5.0,21.0,48.8761373390584,2.3680844979417,21.8,0.0,9.0
2025-09-07 23:00:00,1012,Jean-Jacques Rousseau - Deux Ecus,0.3515151515151515,7.733333333333333,11.266666666666667,48.86297805972131,2.3414635285735126,21.8,0.0,9.0
2025-09-07 23:00:00,1013,Place du Palais Royal,0.2378109452736318,15.933333333333334,47.13333333333333,48.862382970647,2.3384822532535,21.8,0.0,9.0
2025-09-07 23:00:00,1014,Rivoli - Musée du Louvre,0.1785714285714286,4.285714285714286,18.714285714285715,48.86364636851945,2.33409583568573,21.8,0.0,9.0
2025-09-07 23:00:00,1015,Place André Malraux,0.31351351351351364,11.6,22.4,48.863925158727,2.3356226831675,21.8,0.0,9.0
2025-09-07 23:00:00,10151,Gare du Nord - Faubourg Saint-Denis,0.15952380952380954,4.466666666666667,20.533333333333335,48.879612765504,2.3568402975798,21.8,0.0,9.0
2025-09-07 23:00:00,1016,Thérèse - Opéra,0.3013333333333334,7.533333333333333,16.466666666666665,48.866483514509,2.3344334212238,21.8,0.0,9.0
2025-09-07 23:00:00,10161,Gare de l'Est - Faubourg-Saint-Martin,0.04583333333333333,1.4666666666666666,28.533333333333335,48.875642647477,2.3594588041306,21.8,0.0,9.0
2025-09-07 23:00:00,10162,Alexandre Parodi - Quai de Valmy,0.20512820512820512,4.923076923076923,17.076923076923077,48.879359419425,2.3665961623192,21.8,0.0,9.0
2025-09-07 23:00:00,10163,Gare du Nord - Demarquay,0.03333333333333333,1.0,25.0,48.881154,2.358411,21.8,0.0,9.0
2025-09-07 23:00:00,10164,Claude Vellefaux - Sambre et Meuse,0.23949579831932774,8.142857142857142,24.857142857142858,48.875022,2.370478,21.8,0.0,9.0
2025-09-07 23:00:00,10165,Gare de l'Est - Place du 11 Novembre 1918,0.014062499999999999,0.5625,38.4375,48.876327,2.3585464,21.8,0.0,9.0
2025-09-07 23:00:00,10166,Strasbourg - Saint-Denis,0.25,4.0,10.0,48.869601642433,2.3542908579111,21.8,0.0,9.0
2025-09-07 23:00:00,1017,Saint-Honoré - 29 juillet,0.23666666666666664,4.733333333333333,13.266666666666667,48.86557114282421,2.330567417577153,21.8,0.0,9.0
2025-09-07 23:00:00,1018,Alger - Rivoli,0.33968253968253964,7.133333333333334,9.733333333333333,48.864773553495,2.3294493936128,21.8,0.0,9.0
2025-09-07 23:00:00,1020,Cambon - Rivoli,0.2633333333333333,10.533333333333333,21.466666666666665,48.866143390992,2.3251800647137,21.8,0.0,9.0
2025-09-07 23:00:00,10201,Magenta - Chabrol,0.18055555555555552,4.333333333333333,10.666666666666666,48.876495350882,2.3560990020633,21.8,0.0,9.0
2025-09-07 23:00:00,10202,Bichat - Grange aux Belles,0.19047619047619047,5.714285714285714,23.071428571428573,48.873688,2.365015,21.8,0.0,9.0
2025-09-07 23:00:00,10206,René Boulanger - Lancry,0.13529411764705881,4.6,27.4,48.868769331741,2.3598745346052,21.8,0.0,9.0
2025-09-07 23:00:00,1021,Halles - Bourdonnais,0.20357142857142851,4.071428571428571,13.928571428571429,48.860448992575,2.3460162431002,21.8,0.0,9.0
2025-09-07 23:00:00,1022,Danielle Casanova - Place Vendôme,0.2900900900900901,10.733333333333333,25.266666666666666,48.868266498223,2.3304839059711,21.8,0.0,9.0
2025-09-07 23:00:00,1023,Saint-Honoré - Musée du Louvre,0.025,0.8,29.466666666666665,48.863443132848,2.3348781846405,21.8,0.0,9.0
2025-09-07 23:00:00,1024,Coquillière - Louvre,0.5555555555555556,11.666666666666666,9.333333333333334,48.863795909662,2.3425736278296,21.8,0.0,9.0
2025-09-07 23:00:00,1025,Oratoire - Rivoli,0.1865079365079365,3.357142857142857,12.857142857142858,48.861342760889,2.3400047421455,21.8,0.0,9.0
2025-09-07 23:00:00,1026,Place du Lieutenant Henri Karcher,0.3844444444444445,11.533333333333333,14.466666666666667,48.863490871724466,2.3400671035051346,21.8,0.0,9.0
2025-09-07 23:00:00,11001,Richard Lenoir - Place de la Bastille,0.34486373165618445,18.27777777777778,30.72222222222222,48.8538327,2.3697222,21.8,0.0,9.0
2025-09-07 23:00:00,11002,Roquette - Thiéré,0.43188405797101465,9.933333333333334,11.066666666666666,48.85507930579506,2.3733686318721463,21.8,0.0,9.0
2025-09-07 23:00:00,11003,Keller - La Roquette,0.9577205882352942,32.5625,1.4375,48.8555508,2.3752778,21.8,0.0,9.0
2025-09-07 23:00:00,11004,Charonne - Faubourg Saint-Antoine,0.797794117647059,27.125,2.875,48.852191909696,2.3740932717919,21.8,0.0,9.0
2025-09-07 23:00:00,11006,Ledru-Rollin - Place du Père Chaillet,0.7639639639639639,28.266666666666666,6.733333333333333,48.856433706943704,2.379020587761426,21.8,0.0,9.0
2025-09-07 23:00:00,11007,Jean Macé - Faidherbe,0.6474358974358975,50.5,21.5,48.85337548426,2.3828620836139,21.8,0.0,9.0
2025-09-07 23:00:00,11009,Boulets - Voltaire,0.4561403508771929,17.333333333333332,18.666666666666668,48.85218705621,2.3890301585197,21.8,0.0,9.0
2025-09-07 23:00:00,11010,Boulets - Faubourg Saint-Antoine,0.19689922480620148,8.466666666666667,32.53333333333333,48.849259262115,2.3917546141943,21.8,0.0,9.0
2025-09-07 23:00:00,11011,Richard Lenoir - Voltaire,0.5514285714285714,13.785714285714286,10.214285714285714,48.86164273878,2.3727491497993,21.8,0.0,9.0
2025-09-07 23:00:00,11012,Montreuil - Voltaire,0.44796380090497734,15.23076923076923,16.76923076923077,48.850507011842,2.3930755582745,21.8,0.0,9.0
2025-09-07 23:00:00,11014,Place de la Nation - Taillebourg,0.05623100303951368,2.642857142857143,42.357142857142854,48.8488408,2.3973043,21.8,0.0,9.0
2025-09-07 23:00:00,11016,Philippe-Auguste,0.18333333333333332,8.8,37.2,48.851853488265,2.3932945355773,21.8,0.0,9.0
2025-09-07 23:00:00,11017,Charonne - Bureau,0.31003039513677816,14.571428571428571,28.428571428571427,48.854176,2.396093,21.8,0.0,9.0
2025-09-07 23:00:00,11018,Saint-Maur - République,0.27999999999999997,14.0,35.64705882352941,48.864185861455,2.3783174157143,21.8,0.0,9.0
2025-09-07 23:00:00,11019,Charonne - Philippe-Auguste,0.95625,30.6,1.4,48.855603162026,2.39054639062,21.8,0.0,9.0
2025-09-07 23:00:00,1102,Française - Etienne Marcel,0.1638513513513514,6.0625,29.9375,48.864053304653766,2.347587011754513,21.8,0.0,9.0
2025-09-07 23:00:00,11020,Belfort - Voltaire,0.9270440251572327,49.13333333333333,3.8666666666666667,48.8563358,2.3829901,21.8,0.0,9.0
2025-09-07 23:00:00,11021,Charonne - Pierre Bayle,0.6318840579710144,14.533333333333333,7.466666666666667,48.858445054262,2.3903981223891,21.8,0.0,9.0
2025-09-07 23:00:00,11022,Roquette - Auguste Laurent,0.7410714285714286,11.857142857142858,2.142857142857143,48.858001906023354,2.381797702650783,21.8,0.0,9.0
2025-09-07 23:00:00,11023,Saint-Maur - Roquette,0.38975155279503104,17.928571428571427,27.071428571428573,48.858688774062955,2.383553994571467,21.8,0.0,9.0
2025-09-07 23:00:00,11024,Mairie du 11ème,0.6862745098039216,35.0,14.785714285714286,48.858925,2.3789759,21.8,0.0,9.0
2025-09-07 23:00:00,11025,Froment - Bréguet,0.48401162790697666,20.8125,22.1875,48.8570414504784,2.37289470306807,21.8,0.0,9.0
2025-09-07 23:00:00,11026,Chemin Vert - Saint-Maur,0.9527777777777778,42.875,1.125,48.86112461407359,2.381299026310444,21.8,0.0,9.0
2025-09-07 23:00:00,11027,Saint-Ambroise - Parmentier,0.656140350877193,24.933333333333334,12.8,48.862147844548,2.3772348091006,21.8,0.0,9.0
2025-09-07 23:00:00,11028,Guillaume Bertrand - République,0.6473684210526317,24.6,12.4,48.863825174341,2.380906377155,21.8,0.0,9.0
2025-09-07 23:00:00,11029,Ménilmontant - Oberkampf,0.4984374999999999,19.9375,17.5625,48.866617658681,2.3830134404158,21.8,0.0,9.0
2025-09-07 23:00:00,11030,Oberkampf - République,0.8361111111111109,20.066666666666666,0.9333333333333333,48.86531608707,2.37611478491,21.8,0.0,9.0
2025-09-07 23:00:00,11031,Jacquard - Ternaux,0.6256410256410256,24.4,13.533333333333333,48.8646605,2.373162,21.8,0.0,9.0
2025-09-07 23:00:00,11032,Jean-Pierre Timbaud - Vaucouleurs,0.8221884498480242,38.642857142857146,6.5,48.867937,2.377885,21.8,0.0,9.0
2025-09-07 23:00:00,11033,Bréguet - Sabin,0.7939393939393937,26.2,1.8,48.856931678257,2.3706749462105,21.8,0.0,9.0
2025-09-07 23:00:00,11034,Parmentier - Fontaine au Roi,0.805059523809524,38.642857142857146,7.357142857142857,48.86787670551736,2.372705978671471,21.8,0.0,9.0
2025-09-07 23:00:00,11035,Parmentier - Abel Rabaud,0.3088942307692307,16.0625,30.625,48.86921273836114,2.371688821240712,21.8,0.0,9.0
2025-09-07 23:00:00,11036,Jules Ferry - Faubourg du Temple Paris,0.39999999999999997,23.2,32.8,48.868397,2.3678933,21.8,0.0,9.0
2025-09-07 23:00:00,11037,Faubourg Du Temple - Republique,0.1447368421052631,5.5,30.5,48.867872484749,2.3648982158072,21.8,0.0,9.0
2025-09-07 23:00:00,11038,Temple - Charlot,0.09305555555555553,4.1875,39.8125,48.865709343796,2.3652737250724,21.8,0.0,9.0
2025-09-07 23:00:00,11039,Richard Lenoir - Jean-Pierre Timbaud,0.21666666666666676,7.8,25.2,48.865804276686,2.3693370749669,21.8,0.0,9.0
2025-09-07 23:00:00,11040,Temple - Jean-Pierre Timbaud,0.24629629629629637,8.866666666666667,27.133333333333333,48.86446597201,2.3660597205162,21.8,0.0,9.0
2025-09-07 23:00:00,11041,Square Saint-Ambroise,0.8924418604651162,38.375,2.625,48.860934,2.375841,21.8,0.0,9.0
2025-09-07 23:00:00,11042,Grand Prieuré - Crussol,0.5079365079365079,24.88888888888889,24.11111111111111,48.864660627935,2.3692265531829,21.8,0.0,9.0
2025-09-07 23:00:00,11043,Place Pasdeloup,0.22789115646258504,4.785714285714286,15.785714285714286,48.862654215631,2.3670325062844,21.8,0.0,9.0
2025-09-07 23:00:00,11044,Square du Bataclan,0.603125,12.0625,4.9375,48.8633762,2.3711327,21.8,0.0,9.0
2025-09-07 23:00:00,11046,Place de la République - Voltaire,0.2569659442724458,4.882352941176471,8.117647058823529,48.866830968942,2.3654810339212,21.8,0.0,9.0
2025-09-07 23:00:00,11047,Amelot - Saint-Sébastien,0.6729166666666666,20.1875,8.8125,48.861142162761,2.3677996181077,21.8,0.0,9.0
2025-09-07 23:00:00,11048,Place Mireille Havet,0.9127906976744186,39.25,3.1875,48.850533,2.383756,21.8,0.0,9.0
2025-09-07 23:00:00,11101,Charles Delescluze,0.6530612244897959,32.0,15.0,48.85242200848887,2.380632497370243,21.8,0.0,9.0
2025-09-07 23:00:00,11102,Alexandre Dumas - Voltaire,0.5244932432432432,38.8125,31.1875,48.852888670365,2.3891476408096,21.8,0.0,9.0
2025-09-07 23:00:00,11103,Pelée - Alphonse Baudin,0.6578947368421055,25.0,13.0,48.8600265,2.3710541,21.8,0.0,9.0
2025-09-07 23:00:00,11104,Charonne - Robert et Sonia Delaunay,0.17058823529411765,3.411764705882353,16.58823529411765,48.855907555969,2.3925706744194,21.8,0.0,9.0
2025-09-07 23:00:00,11105,Parmentier - République,0.20800000000000007,10.4,15.6,48.8644954,2.3750124,21.8,0.0,9.0
2025-09-07 23:00:00,11107,Faidherbe - Dahomey,0.6045454545454546,26.6,15.4,48.851358329771806,2.383823134795429,21.8,0.0,9.0
2025-09-07 23:00:00,11109,Pierre Levée - Fontaine Timbaud,0.8823529411764706,20.294117647058822,0.7058823529411765,48.86632723374305,2.3711163550615306,21.8,0.0,9.0
2025-09-07 23:00:00,11110,Roquette - Folie Regnault,0.2632211538461538,13.6875,37.3125,48.859246959155485,2.386553623578705,21.8,0.0,9.0
2025-09-07 23:00:00,11111,Léon Frot - Charonne,0.8315789473684212,15.8,3.2,48.854963800335234,2.387217085372007,21.8,0.0,9.0
2025-09-07 23:00:00,11112,Jules Vallès - Charonne,0.8666666666666666,19.933333333333334,1.0666666666666667,48.854284379935,2.3847674578428,21.8,0.0,9.0
2025-09-07 23:00:00,11113,Richard Lenoir - Republique,0.28940886699507395,16.785714285714285,38.214285714285715,48.8667175,2.3692541,21.8,0.0,9.0
2025-09-07 23:00:00,11114,Ledru-Rollin - Charonne,0.5333333333333333,17.066666666666666,13.933333333333334,48.85345855607243,2.3772463581947094,21.8,0.0,9.0
2025-09-07 23:00:00,11115,Montreuil - Gonnet,0.7857142857142856,18.857142857142858,4.142857142857143,48.850500564921,2.3890856287864,21.8,0.0,9.0
2025-09-07 23:00:00,1116,Ventadour - Opéra,0.4567901234567902,12.333333333333334,10.666666666666666,48.866810653323,2.3343884482519,21.8,0.0,9.0
2025-09-07 23:00:00,1117,Pont Neuf - Rivoli,0.24999999999999994,6.75,20.25,48.860089892617,2.344057559967,21.8,0.0,9.0
2025-09-07 23:00:00,1119,Cossonnerie - Sébastopol,0.2786458333333333,6.6875,14.3125,48.86132665908402,2.349419631063938,21.8,0.0,9.0
2025-09-07 23:00:00,1120,Lavandieres Sainte Opportune - Rivoli,0.08796296296296297,2.375,23.375,48.859279702476,2.3466217517853,21.8,0.0,9.0
2025-09-07 23:00:00,11201,Faubourg St-Antoine - Place de la Nation,0.11666666666666667,1.8666666666666667,11.133333333333333,48.8487726,2.393606,21.8,0.0,9.0
2025-09-07 23:00:00,12001,Bastille - Biscornet,0.3720430107526882,23.066666666666666,31.933333333333334,48.851355779579,2.369220033288,21.8,0.0,9.0
2025-09-07 23:00:00,12002,Lacuée - Lyon,0.23333333333333334,3.7333333333333334,10.333333333333334,48.849268481958,2.3704585433006,21.8,0.0,9.0
2025-09-07 23:00:00,12005,Crozatier - Faubourg Saint-Antoine,0.5997023809523808,25.1875,15.8125,48.850440013405,2.378901366211,21.8,0.0,9.0
2025-09-07 23:00:00,12006,Gare de Lyon - Van Gogh,0.07967479674796749,3.2666666666666666,37.733333333333334,48.843839785643,2.3704450240357,21.8,0.0,9.0
2025-09-07 23:00:00,12007,Gare de Lyon - Chalon,0.026984126984126975,1.2142857142857142,43.785714285714285,48.845666194202,2.3741452395916,21.8,0.0,9.0
2025-09-07 23:00:00,12008,Hector Malot - Daumesnil,0.05158730158730159,2.7857142857142856,47.214285714285715,48.84693552991762,2.3770876228809357,21.8,0.0,9.0
2025-09-07 23:00:00,12009,Charenton - Diderot,0.20740740740740737,3.7333333333333334,12.466666666666667,48.846171461187,2.3793068155646,21.8,0.0,9.0
2025-09-07 23:00:00,1201,Perrault - Place du Louvre,0.16428571428571426,4.6,22.4,48.860273568996,2.3412468419093,21.8,0.0,9.0
2025-09-07 23:00:00,12010,Daumesnil - Picpus,1.011204481792717,21.235294117647058,0.7647058823529411,48.8374688,2.401765,21.8,0.0,9.0
2025-09-07 23:00:00,12011,Charenton - Place du Col Bourgoin,0.7387755102040817,25.857142857142858,7.142857142857143,48.844867319554,2.3825789350545,21.8,0.0,9.0
2025-09-07 23:00:00,12013,Montgallet - Reuilly,0.847619047619048,12.714285714285714,1.2857142857142858,48.844291,2.3896481,21.8,0.0,9.0
2025-09-07 23:00:00,12015,Place de la Nation - Picpus,0.23888888888888893,8.6,27.4,48.846821681548,2.4001130461693,21.8,0.0,9.0
2025-09-07 23:00:00,12016,Saint-Mande - Picpus,0.2933333333333332,10.266666666666667,23.733333333333334,48.845127728278,2.4015686296482,21.8,0.0,9.0
2025-09-07 23:00:00,12017,Saint-Mandé - Docteur Arnold Netter,0.4364779874213837,23.133333333333333,27.866666666666667,48.84462585769668,2.404946386814118,21.8,0.0,9.0
2025-09-07 23:00:00,12018,Saint-Mandé - Fabre d'Eglantine,0.180672268907563,6.142857142857143,26.142857142857142,48.8453579,2.3965022,21.8,0.0,9.0
2025-09-07 23:00:00,12019,Gare de Reuilly - Picpus,0.5547619047619047,15.533333333333333,11.466666666666667,48.84267354116789,2.3972943797707558,21.8,0.0,9.0
2025-09-07 23:00:00,12020,Cours de Vincennes - Soult,0.1525925925925926,6.866666666666666,38.13333333333333,48.846918761569,2.4105220288038,21.8,0.0,9.0
2025-09-07 23:00:00,12022,Sahel - Général Michel Bizot,0.4780141843971631,22.466666666666665,23.533333333333335,48.840872964793355,2.4044444784522057,21.8,0.0,9.0
2025-09-07 23:00:00,12024,Gare de Bercy,0.7125,24.9375,9.0625,48.839794573906,2.3826066032052,21.8,0.0,9.0
2025-09-07 23:00:00,12026,Place Ginette Hamelin,0.44193061840120657,22.53846153846154,26.76923076923077,48.837853,2.382064,21.8,0.0,9.0
2025-09-07 23:00:00,12027,Montgallet - Charenton,0.91796875,14.6875,1.3125,48.842647778701,2.3861649278137,21.8,0.0,9.0
2025-09-07 23:00:00,12028,Vivaldi - Antoine-Julien Hénard,0.5608465608465607,15.142857142857142,10.857142857142858,48.841923663276546,2.389728979467376,21.8,0.0,9.0
2025-09-07 23:00:00,12031,Gabriel Lamé,0.8277777777777777,29.8,6.2,48.8351212784276,2.385534569621086,21.8,0.0,9.0
2025-09-07 23:00:00,12032,Porte Dorée,0.09722222222222222,3.5,30.5,48.8354337,2.4077132,21.8,0.0,9.0
2025-09-07 23:00:00,12033,François Truffaut - Saint Emilion,0.37445887445887444,24.714285714285715,39.285714285714285,48.83372354344807,2.386601903271428,21.8,0.0,9.0
2025-09-07 23:00:00,12034,Pirogues de Bercy - Libourne,0.6517006802721088,31.933333333333334,16.066666666666666,48.832308,2.38637,21.8,0.0,9.0
2025-09-07 23:00:00,12035,Madagascar - Meuniers,0.5872340425531914,27.6,16.4,48.83460464474706,2.3970650508999825,21.8,0.0,9.0
2025-09-07 23:00:00,12036,Reuilly - Place Felix Eboue,0.33333333333333337,14.0,25.0,48.84030274499962,2.394630398715453,21.8,0.0,9.0
2025-09-07 23:00:00,12037,Reuilly - Daumesnil,0.3259259259259259,11.733333333333333,22.533333333333335,48.8395385,2.3972516,21.8,0.0,9.0
2025-09-07 23:00:00,12038,Picpus - Louis Braille,0.41379310344827586,24.0,32.0,48.839988788912,2.4005256685521,21.8,0.0,9.0
2025-09-07 23:00:00,12039,Général Michel Bizot - Claude Decaen,0.5904605263157896,22.4375,13.5625,48.83481262982544,2.400927788127704,21.8,0.0,9.0
2025-09-07 23:00:00,12040,Porte de Charenton,0.0417910447761194,2.8,62.2,48.831240105856,2.3989107459784,21.8,0.0,9.0
2025-09-07 23:00:00,12041,Bois de Vincennes.,0.3617647058823528,21.705882352941178,35.35294117647059,48.8338064,2.4132221,21.8,0.0,9.0
2025-09-07 23:00:00,12043,Daumesnil - Hébrard,0.6733333333333333,26.933333333333334,13.066666666666666,48.8429,2.38474,21.8,0.0,9.0
2025-09-07 23:00:00,12101,Charenton - Prague,0.18205128205128202,4.733333333333333,17.266666666666666,48.848175129981,2.3763584494312,21.8,0.0,9.0
2025-09-07 23:00:00,12102,Bercy - Traversiére,0.04523809523809524,1.3571428571428572,23.428571428571427,48.846192642574,2.3703800886869,21.8,0.0,9.0
2025-09-07 23:00:00,12105,Bercy - Villot,0.11408199643493756,3.764705882352941,27.235294117647058,48.841795009027,2.3767850184816,21.8,0.0,9.0
2025-09-07 23:00:00,12106,Gare de Lyon - Roland Barthes,0.06862745098039216,4.666666666666667,63.06666666666667,48.84395729494058,2.3790882155299187,21.8,0.0,9.0
2025-09-07 23:00:00,12107,Diderot - Pierre Bourdan,0.46031746031746035,9.666666666666666,11.333333333333334,48.847648620797,2.3902582749724,21.8,0.0,9.0
2025-09-07 23:00:00,12108,Bercy.,0.3323232323232324,21.933333333333334,41.666666666666664,48.839966914994,2.3788625746965,21.8,0.0,9.0
2025-09-07 23:00:00,12109,Mairie du 12ème,0.9611111111111111,28.833333333333332,0.16666666666666666,48.840855311763,2.3875549435616,21.8,0.0,9.0
2025-09-07 23:00:00,12111,Claude Decaen - Cannebière,0.18730158730158736,8.428571428571429,35.857142857142854,48.83761417037952,2.397253782195704,21.8,0.0,9.0
2025-09-07 23:00:00,12113,Cardinal Lavigerie,0.7260869565217392,33.4,12.6,48.832934193699835,2.402636749399156,21.8,0.0,9.0
2025-09-07 23:00:00,12114,Victor Hugo - Jeanne Jugan,0.42857142857142866,12.0,15.2,48.843949064031825,2.415081394834419,21.8,0.0,9.0
2025-09-07 23:00:00,12115,Porte de Vincennes,0.46666666666666656,15.4,16.6,48.846454,2.415514,21.8,0.0,9.0
2025-09-07 23:00:00,12119,Dom-Pérignon - Gravelle,0.17600000000000002,8.8,39.2,48.825481574435,2.409880310297,21.8,0.0,9.0
2025-09-07 23:00:00,12120,Lac Daumesnil - Saint-Maurice,0.057333333333333354,2.8666666666666667,47.13333333333333,48.82774555743318,2.4183654785156246,21.8,0.0,9.0
2025-09-07 23:00:00,12122,Bois de Vincennes - Polygone,0.06274509803921569,3.2,43.8,48.83544491617421,2.431421081436563,21.8,0.0,9.0
2025-09-07 23:00:00,12123,Château de Vincennes,0.11675824175824176,6.071428571428571,43.92857142857143,48.84423193255657,2.439209537709179,21.8,0.0,9.0
2025-09-07 23:00:00,12125,Pyramide - Parc Floral,0.22000000000000008,11.0,35.0,48.837442,2.440452,21.8,0.0,9.0
2025-09-07 23:00:00,12126,Gravelle - Route du Bac,0.4439775910364147,22.642857142857142,25.357142857142858,48.824407,2.418455,21.8,0.0,9.0
2025-09-07 23:00:00,12127,Tremblay - Lac des Minimes,0.9583333333333336,46.0,5.0,48.834131261494,2.4547516554594,21.8,0.0,9.0
2025-09-07 23:00:00,12128,Pyramide - Ecole du Breuil,0.5966386554621848,20.285714285714285,13.714285714285714,48.82237977153955,2.4586871266365056,21.8,0.0,9.0
2025-09-07 23:00:00,12129,Bois de Vincennes - Porte Jaune,0.04952380952380953,1.7333333333333334,32.266666666666666,48.838751246689455,2.4605489149689674,21.8,0.0,9.0
2025-09-07 23:00:00,12150,Bastille - Quai de la Rapée,0.04691358024691357,1.2666666666666666,23.0,48.84682410855,2.3669364675879,21.8,0.0,9.0
2025-09-07 23:00:00,12151,Gare de Lyon - Place Louis Armand,0.049999999999999996,3.0,54.0,48.845515089794,2.3726498446286,21.8,0.0,9.0
2025-09-07 23:00:00,12153,Terroirs de France - Lheureux,0.10424242424242423,5.733333333333333,48.266666666666666,48.83212027074841,2.388618104159832,21.8,0.0,9.0
2025-09-07 23:00:00,12154,Square Georges Melies,0.29666666666666663,11.866666666666667,26.4,48.84070239213081,2.409667745232582,21.8,0.0,9.0
2025-09-07 23:00:00,12155,Rottembourg - Général Michel Bizot,0.6511627906976745,28.0,14.0,48.83787825992554,2.4044052511453633,21.8,0.0,9.0
2025-09-07 23:00:00,12156,Niger - Soult,0.3472222222222223,8.333333333333334,14.666666666666666,48.84369906369085,2.410361237220498,21.8,0.0,9.0
2025-09-07 23:00:00,12157,Fabre d'Eglantine - Place de la Nation,0.02843137254901961,1.9333333333333333,65.06666666666666,48.8471116,2.3956204,21.8,0.0,9.0
2025-09-07 23:00:00,12161,Diderot - Reuilly,0.26136363636363635,11.5,32.5,48.847208456061,2.3861273378134,21.8,0.0,9.0
2025-09-07 23:00:00,12163,Hippodrome Paris-Vincennes,0.38095238095238104,16.0,25.0,48.82048387758518,2.446271181106568,21.8,0.0,9.0
2025-09-07 23:00:00,12164,Stade Pershing,0.1538461538461538,4.0,21.25,48.829107826857,2.4583535268903,21.8,0.0,9.0
2025-09-07 23:00:00,12165,Champs de Manoeuvre - Cartoucherie,0.5428571428571428,19.0,14.0,48.835261,2.447974,21.8,0.0,9.0
2025-09-07 23:00:00,12166,Parc Floral du Bel Air,0.12000000000000005,3.0,20.0,48.839285711865735,2.438560165464878,21.8,0.0,9.0
2025-09-07 23:00:00,12201,Dugommier,0.6025157232704401,31.933333333333334,19.8,48.838811048815,2.3896577954292,21.8,0.0,9.0
2025-09-07 23:00:00,12202,Charenton - Wattignies,0.9233333333333336,36.93333333333333,1.3333333333333333,48.836919119234,2.3916775206425,21.8,0.0,9.0
2025-09-07 23:00:00,12203,Nicolaï - Charenton,0.687878787878788,30.266666666666666,10.733333333333333,48.835478791995,2.392894725661,21.8,0.0,9.0
2025-09-07 23:00:00,12204,Prague - Théophile Roussel,0.6156862745098037,20.933333333333334,8.2,48.850330563516,2.3758223011125,21.8,0.0,9.0
2025-09-07 23:00:00,13001,Port-Royal - Hôpital du Val-de-Grâce,0.862962962962963,15.533333333333333,0.4666666666666667,48.837668272811,2.3448138346607,21.8,0.0,9.0
2025-09-07 23:00:00,13002,Arago - Glacière,0.8703703703703706,23.5,0.5,48.83486054775774,2.3445770524322067,21.8,0.0,9.0
2025-09-07 23:00:00,13005,Cordelières - Arago,0.7241847826086957,33.3125,11.6875,48.83548071896613,2.348572461702221,21.8,0.0,9.0
2025-09-07 23:00:00,13006,Duméril - Jeanne d'Arc,0.8649999999999999,34.6,5.4,48.838151608087,2.3571084495564,21.8,0.0,9.0
2025-09-07 23:00:00,13007,Le Brun - Gobelins,0.20982142857142858,10.071428571428571,23.928571428571427,48.835092787824,2.3534681351338,21.8,0.0,9.0
2025-09-07 23:00:00,13008,Place d'Italie - Soeur Rosalie,0.10512820512820514,5.466666666666667,42.53333333333333,48.831908520394,2.3546943448098,21.8,0.0,9.0
2025-09-07 23:00:00,13009,Auguste Blanqui - Corvisart,0.03846153846153845,1.0,24.0,48.8300989,2.3502726,21.8,0.0,9.0
2025-09-07 23:00:00,13010,Place d'Italie - Vincent Auriol,0.26071428571428573,10.428571428571429,28.571428571428573,48.831481874467,2.3567550292319,21.8,0.0,9.0
2025-09-07 23:00:00,13011,Hôpital - Campo-Formio,0.17532467532467533,1.9285714285714286,6.071428571428571,48.835405,2.358218,21.8,0.0,9.0
2025-09-07 23:00:00,13013,Saint-Marcel - Hôpital,0.8214285714285716,17.25,2.5,48.839504424583,2.3609894170229,21.8,0.0,9.0
2025-09-07 23:00:00,13015,Chevaleret - Louise Weiss,0.7599999999999999,26.6,6.4,48.832586513351,2.37121138812,21.8,0.0,9.0
2025-09-07 23:00:00,13016,Primo Levi - Frigos,0.7521008403361343,25.571428571428573,6.428571428571429,48.83094844846017,2.37965351592796,21.8,0.0,9.0
2025-09-07 23:00:00,13017,Nationale - Vincent Auriol,0.10101010101010101,3.3333333333333335,29.666666666666668,48.83252708397293,2.362354410392119,21.8,0.0,9.0
2025-09-07 23:00:00,13018,Bruant - Vincent Auriol,0.3866666666666667,9.666666666666666,11.6,48.834848452929,2.3668264996271,21.8,0.0,9.0
2025-09-07 23:00:00,13019,Fernand Braudel - Vincent Auriol,0.6706349206349207,24.142857142857142,9.857142857142858,48.83637852318147,2.3723404482007027,21.8,0.0,9.0
2025-09-07 23:00:00,13020,Paul Klee - Place Augusta Holmes,0.08527131782945736,3.6666666666666665,38.333333333333336,48.838946417408025,2.3704235663952966,21.8,0.0,9.0
2025-09-07 23:00:00,13022,Butte aux Cailles - Esperance,0.32037037037037036,11.533333333333333,21.466666666666665,48.82758774190948,2.3492151126265526,21.8,0.0,9.0
2025-09-07 23:00:00,13023,Bobillot - Moulin des Prés,0.17016806722689073,4.764705882352941,21.235294117647058,48.828657346203,2.353020646317,21.8,0.0,9.0
2025-09-07 23:00:00,13024,Bobillot - Tolbiac,0.9959595959595958,32.86666666666667,0.13333333333333333,48.8255961335041,2.350204177200794,21.8,0.0,9.0
2025-09-07 23:00:00,13026,Place Jean Delay,0.30204081632653057,10.571428571428571,24.428571428571427,48.823316,2.354336,21.8,0.0,9.0
2025-09-07 23:00:00,13027,Mazagran - Pierre de Coubertin,0.7466666666666666,11.2,3.8,48.816218640260445,2.344226874411106,21.8,0.0,9.0
2025-09-07 23:00:00,13028,Gouthière - Poterne des Peupliers,0.7291666666666666,24.0625,7.9375,48.820507,2.351342,21.8,0.0,9.0
2025-09-07 23:00:00,13030,Italie - Tolbiac,0.4444444444444444,9.333333333333334,9.666666666666666,48.82557229464416,2.3576171323657036,21.8,0.0,9.0
2025-09-07 23:00:00,13032,Italie - Jardin Joan Miro,0.13589743589743591,3.533333333333333,21.466666666666665,48.81990914045756,2.3592948541045193,21.8,0.0,9.0
2025-09-07 23:00:00,13033,Porte d'Italie,0.11794871794871796,1.5333333333333334,11.466666666666667,48.817161987718954,2.360236309468746,21.8,0.0,9.0
2025-09-07 23:00:00,13035,Choisy - Tolbiac,0.16,3.2,13.8,48.82591155587,2.3602393269539,21.8,0.0,9.0
2025-09-07 23:00:00,13036,Olympiades,0.1875,6.75,26.25,48.826764665199,2.3650860786438,21.8,0.0,9.0
2025-09-07 23:00:00,13037,Ivry - Baudricourt,0.3294117647058824,6.588235294117647,12.411764705882353,48.824695995415006,2.363106073577468,21.8,0.0,9.0
2025-09-07 23:00:00,13039,Ivry - Simone Weil,0.40370370370370373,7.266666666666667,10.733333333333333,48.823283932030755,2.3659095168113713,21.8,0.0,9.0
2025-09-07 23:00:00,13041,Porte d'Ivry,0.11466666666666665,5.733333333333333,43.266666666666666,48.821768747596,2.3688706755638,21.8,0.0,9.0
2025-09-07 23:00:00,13043,Dunois - Clisson,0.5539215686274509,28.25,20.75,48.832294,2.3674523,21.8,0.0,9.0
2025-09-07 23:00:00,13044,Place Jeanne d'Arc,0.5337301587301587,19.214285714285715,15.785714285714286,48.829575,2.369126,21.8,0.0,9.0
2025-09-07 23:00:00,13045,Jean Colly - Tolbiac,0.5018518518518519,18.066666666666666,9.933333333333334,48.827817291597846,2.3705490678548813,21.8,0.0,9.0
2025-09-07 23:00:00,13046,Eugène Oudiné - Dessous Des Berges,0.8439393939393941,37.13333333333333,6.866666666666666,48.8256423,2.3750226,21.8,0.0,9.0
2025-09-07 23:00:00,13047,Boutroux - Porte de Vitry,0.723809523809524,35.46666666666667,13.533333333333333,48.822632,2.377738,21.8,0.0,9.0
2025-09-07 23:00:00,13048,Wurtz - Tolbiac,0.933673469387755,26.142857142857142,0.8571428571428571,48.82631195621,2.344585955143,21.8,0.0,9.0
2025-09-07 23:00:00,13049,Vincent Auriol - Louise Weiss,0.2727272727272726,6.0,16.0,48.834001935501,2.3703888058662,21.8,0.0,9.0
2025-09-07 23:00:00,13050,Quai Panhard et Levassor,0.18713450292397663,10.666666666666666,45.6,48.828374828097,2.3842737458056,21.8,0.0,9.0
2025-09-07 23:00:00,13051,Halle Freyssinet - Parvis Alan Turing,0.46486486486486484,17.2,19.8,48.832846814471,2.3711421713233,21.8,0.0,9.0
2025-09-07 23:00:00,13052,Leredde - Tolbiac,0.5439393939393937,23.933333333333334,18.066666666666666,48.82887629664,2.3744382709265,21.8,0.0,9.0
2025-09-07 23:00:00,13053,Chevaleret - Tolbiac,0.2603174603174603,5.466666666666667,14.533333333333333,48.82941,2.375934,21.8,0.0,9.0
2025-09-07 23:00:00,13054,Pau Casals - Neuve Tolbiac,0.5416666666666666,42.25,33.75,48.8311602,2.3774395,21.8,0.0,9.0
2025-09-07 23:00:00,13055,M.- A. Lagroua Weill-Hallé -  F. Dolto,0.5944444444444444,35.666666666666664,24.333333333333332,48.828595283857425,2.380220606266108,21.8,0.0,9.0
2025-09-07 23:00:00,13101,Croulebarde - Corvisart,0.5568627450980391,18.933333333333334,14.066666666666666,48.830981659316855,2.3481646925210953,21.8,0.0,9.0
2025-09-07 23:00:00,13102,Pitié-Salpêtrière,0.19607843137254904,10.0,41.0,48.83748810318667,2.365213818848133,21.8,0.0,9.0
2025-09-07 23:00:00,13103,Hôpital Pitié Salpêtrière,0.04933333333333335,2.466666666666667,45.53333333333333,48.8377016,2.3604946,21.8,0.0,9.0
2025-09-07 23:00:00,13104,Gare d'Austerlitz - Quai Saint-Bernard,0.0,0.0,23.533333333333335,48.84369030864,2.3657163977623,21.8,0.0,9.0
2025-09-07 23:00:00,13106,Bobillot - Paulin Mery,0.08967391304347823,2.0625,17.9375,48.829899841747,2.3543356766749,21.8,0.0,9.0
2025-09-07 23:00:00,13109,Brillat-Savarin - Küss,0.4065934065934066,8.538461538461538,10.461538461538462,48.822203,2.350422,21.8,0.0,9.0
2025-09-07 23:00:00,13110,Moulin de la Pointe,0.21515151515151507,4.733333333333333,17.266666666666666,48.82092946051445,2.3563179373741145,21.8,0.0,9.0
2025-09-07 23:00:00,13113,Vistule - Choisy,0.25946969696969685,8.5625,24.4375,48.82365543660611,2.3615723848342896,21.8,0.0,9.0
2025-09-07 23:00:00,13114,Nationale - Marcel Duchamp,0.30124223602484473,6.928571428571429,15.071428571428571,48.82463749337136,2.3678014799952507,21.8,0.0,9.0
2025-09-07 23:00:00,13116,Place du Docteur Yersin,0.03733333333333333,1.8666666666666667,48.13333333333333,48.82010494991975,2.3725583776831627,21.8,0.0,9.0
2025-09-07 23:00:00,13117,Stade Georges Carpentier,0.10000000000000002,4.0,36.0,48.820482438381,2.3668321967125,21.8,0.0,9.0
2025-09-07 23:00:00,13118,Regnault - Patay,0.5354497354497354,33.733333333333334,27.533333333333335,48.82435782216384,2.377065159380436,21.8,0.0,9.0
2025-09-07 23:00:00,13120,Pierre Joseph Desault,0.9548872180451129,18.142857142857142,0.8571428571428571,48.82110230800372,2.378775402903557,21.8,0.0,9.0
2025-09-07 23:00:00,13121,Bruneseau - Quai d'Ivry,0.47536231884057967,21.866666666666667,22.133333333333333,48.824945637583,2.3885661363602,21.8,0.0,9.0
2025-09-07 23:00:00,13123,BNF - Bibliothèque Nationale de France,0.4102564102564102,17.23076923076923,22.76923076923077,48.8350268238,2.3760157451034,21.8,0.0,9.0
2025-09-07 23:00:00,13125,Gare d'Austerlitz - Pont Charles de Gaulle,0.017777777777777778,1.3333333333333333,72.66666666666667,48.842319830109,2.3670300096273,21.8,0.0,9.0
2025-09-07 23:00:00,13126,Place Nationale - Château-des-Rentiers,0.4814814814814815,8.666666666666666,8.333333333333334,48.829268,2.365212,21.8,0.0,9.0
2025-09-07 23:00:00,13128,Quai de la Gare - Pont de Bercy,0.5142857142857141,15.428571428571429,12.714285714285714,48.83730787972,2.3740861260598,21.8,0.0,9.0
2025-09-07 23:00:00,13202,Place Farhat Hached,0.7219387755102041,20.214285714285715,5.785714285714286,48.825487045602,2.3816306985827,21.8,0.0,9.0
2025-09-07 23:00:00,13203,Square de Choisy - Eastman,0.06666666666666667,1.6,22.4,48.828543456283,2.3583075090494,21.8,0.0,9.0
2025-09-07 23:00:00,13204,Tolbiac - Boussingault,0.9375,38.4375,1.5625,48.826177754027,2.3420378552202,21.8,0.0,9.0
2025-09-07 23:00:00,13205,Choisy - Pointe d'Ivry,0.21875000000000003,5.25,15.875,48.822154170359,2.3633708034878,21.8,0.0,9.0
2025-09-07 23:00:00,13515,Auguste Blanqui - Glacière,0.2510416666666667,15.0625,43.9375,48.831151602964,2.343822196126,21.8,0.0,9.0
2025-09-07 23:00:00,13516,Glacière - Soeur Catherine Marie,0.25000000000000006,10.0,29.0,48.829522989420596,2.343570403754711,21.8,0.0,9.0
2025-09-07 23:00:00,14001,Edgar Quinet - Gaité,0.537037037037037,14.5,9.0,48.841160928966,2.324595451355,21.8,0.0,9.0
2025-09-07 23:00:00,14002,Edgar Quinet - Raspail,0.6956521739130435,32.0,12.0,48.83940266673835,2.32971478253603,21.8,0.0,9.0
2025-09-07 23:00:00,14003,Schoelcher - Raspail,0.6279999999999999,31.4,16.6,48.83681733526843,2.3312794080411474,21.8,0.0,9.0
2025-09-07 23:00:00,14004,Port Royal - Hôpital Cochin,0.33110367892976594,7.615384615384615,14.384615384615385,48.838608030238,2.3406994164846,21.8,0.0,9.0
2025-09-07 23:00:00,14005,René Coty - Place Denfert-Rochereau,0.34629629629629627,12.466666666666667,22.533333333333335,48.833056477316,2.3329411447048,21.8,0.0,9.0
2025-09-07 23:00:00,14006,Saint-Jacques - Tombe Issoire,0.2173913043478261,5.0,16.0,48.833206330538864,2.3369108140468597,21.8,0.0,9.0
2025-09-07 23:00:00,14007,Ferrus - Saint-Jacques,0.19411764705882356,6.6,27.4,48.8313878,2.3408563,21.8,0.0,9.0
2025-09-07 23:00:00,14008,Mouton Duvernet - Général Leclerc,0.5523809523809523,15.466666666666667,10.533333333333333,48.831632518293,2.3293121159077,21.8,0.0,9.0
2025-09-07 23:00:00,14009,Tombe Issoire - René Coty,0.44259259259259276,15.933333333333334,19.066666666666666,48.830512876709,2.3343613743782,21.8,0.0,9.0
2025-09-07 23:00:00,14010,Jean Moulin - Place Victor et Hélène Basch,0.10881801125703564,4.461538461538462,34.53846153846154,48.82764910241,2.3261967301369,21.8,0.0,9.0
2025-09-07 23:00:00,14011,Place des Droits de l'Enfant,0.6923076923076922,27.0,12.0,48.8274804,2.3319217,21.8,0.0,9.0
2025-09-07 23:00:00,14012,Sibelle - Alésia,0.2787162162162162,10.3125,26.6875,48.826701758539215,2.3384983465075493,21.8,0.0,9.0
2025-09-07 23:00:00,14013,Liard - Amiral Mouchez,0.43333333333333335,12.133333333333333,14.866666666666667,48.8214169,2.342167,21.8,0.0,9.0
2025-09-07 23:00:00,14014,Jourdan - Stade Charléty,0.16666666666666663,10.0,50.0,48.819428333369,2.3433353751898,21.8,0.0,9.0
2025-09-07 23:00:00,14016,René Coty - Parc Montsouris,0.3454545454545454,19.0,35.0,48.82479134498032,2.336124926805496,21.8,0.0,9.0
2025-09-07 23:00:00,14018,Porte d'Orléans,0.15364583333333331,7.375,39.625,48.8227639,2.3249313,21.8,0.0,9.0
2025-09-07 23:00:00,14019,Sarrette - Général Leclerc,0.48128342245989303,10.588235294117647,11.411764705882353,48.825030852925,2.3264128693982,21.8,0.0,9.0
2025-09-07 23:00:00,14020,Cimetière de Montrouge,0.15517241379310348,9.0,49.0,48.821466904768,2.3215785772007,21.8,0.0,9.0
2025-09-07 23:00:00,14021,Place de la Porte de Châtillon,0.1807909604519774,10.666666666666666,47.333333333333336,48.8242469,2.3186306,21.8,0.0,9.0
2025-09-07 23:00:00,14022,Didot - Mariniers,0.2076190476190476,7.266666666666667,27.733333333333334,48.82650543613106,2.313136198271666,21.8,0.0,9.0
2025-09-07 23:00:00,14023,Adolphe Pinard - Victor Hugo,0.24175824175824176,12.571428571428571,39.42857142857143,48.8236825874564,2.3077843710780144,21.8,0.0,9.0
2025-09-07 23:00:00,14025,Jacquier - Didot,0.2733333333333333,8.2,21.8,48.82953336292279,2.318179272115231,21.8,0.0,9.0
2025-09-07 23:00:00,14026,Plantes - Moulin Vert,0.23076923076923073,10.384615384615385,33.61538461538461,48.83005755305626,2.3232302069664006,21.8,0.0,9.0
2025-09-07 23:00:00,14027,Gergovie - Alésia,0.4,21.6,30.4,48.83088717455243,2.318882101207347,21.8,0.0,9.0
2025-09-07 23:00:00,14030,Pernety - Raymond Losserand,0.4639423076923077,14.846153846153847,17.153846153846153,48.834254627953,2.317609339387,21.8,0.0,9.0
2025-09-07 23:00:00,14031,Didot - Place de Moro-Giafferi,0.7333333333333332,16.133333333333333,4.866666666666666,48.8337,2.3215,21.8,0.0,9.0
2025-09-07 23:00:00,14032,Mairie du 14ème,0.54375,17.4,11.6,48.83254578123,2.3254923149943,21.8,0.0,9.0
2025-09-07 23:00:00,14034,Ouest - Château,0.08405797101449274,1.9333333333333333,19.066666666666666,48.83617286014242,2.319392143923804,21.8,0.0,9.0
2025-09-07 23:00:00,14035,Maine - Jean Zay,0.014999999999999998,0.75,44.1875,48.837925263898,2.3225428909063,21.8,0.0,9.0
2025-09-07 23:00:00,14036,Boulard - Daguerre,0.15851851851851853,7.133333333333334,35.86666666666667,48.83446472680611,2.3293386027216907,21.8,0.0,9.0
2025-09-07 23:00:00,14101,Gare Montparnasse - Edgar Quinet,0.12121212121212119,4.0,26.866666666666667,48.841487851079,2.3233232282801,21.8,0.0,9.0
2025-09-07 23:00:00,14103,Maine - Liancourt,0.0345679012345679,0.9333333333333333,26.066666666666666,48.835064363954,2.323731449974,21.8,0.0,9.0
2025-09-07 23:00:00,14104,Boyer-Barret - Raymond Losserand,0.17391304347826084,4.0,18.0,48.83329880233322,2.3173383995890617,21.8,0.0,9.0
2025-09-07 23:00:00,14106,Marc Sangnier - Porte de Vanves,0.06031746031746031,1.2666666666666666,19.733333333333334,48.825218683556734,2.3107116669416428,21.8,0.0,9.0
2025-09-07 23:00:00,14108,Le Brix et Mesmin - Jourdan,0.13988095238095236,2.9375,17.3125,48.82234096593411,2.327861653302471,21.8,0.0,9.0
2025-09-07 23:00:00,14110,Abbé Carton - Plantes,0.4657142857142858,11.642857142857142,13.357142857142858,48.827673823166,2.3209181427956,21.8,0.0,9.0
2025-09-07 23:00:00,14111,Cassini - Denfert-Rochereau,0.31250000000000006,7.8125,16.1875,48.837525839067,2.3360354080796,21.8,0.0,9.0
2025-09-07 23:00:00,14112,Méchain - Faubourg Saint-Jacques,0.20416666666666666,3.2666666666666666,11.733333333333333,48.83586772099485,2.33798034198275,21.8,0.0,9.0
2025-09-07 23:00:00,14113,Santé - Arago,0.42982456140350883,16.333333333333332,19.666666666666668,48.83507657562064,2.3415737262044938,21.8,0.0,9.0
2025-09-07 23:00:00,14116,Romain Rolland,0.38352941176470584,9.588235294117647,15.411764705882353,48.820215229662765,2.3234144234418346,21.8,0.0,9.0
2025-09-07 23:00:00,14122,Colonel Monteil - Brune,0.021052631578947368,0.4,18.6,48.82650293311,2.3092747998272,21.8,0.0,9.0
2025-09-07 23:00:00,14124,David Weill - Parc Montsouris,0.4545454545454545,10.0,12.0,48.821092374256104,2.333725690841675,21.8,0.0,9.0
2025-09-07 23:00:00,14125,Dareau - Broussais,0.4888888888888888,11.733333333333333,12.266666666666667,48.8307758,2.3361804,21.8,0.0,9.0
2025-09-07 23:00:00,14127,Odessa - Départ,0.02564102564102564,1.0,36.0,48.842885590081,2.3244281485677,21.8,0.0,9.0
2025-09-07 23:00:00,14128,Gergovie - Vercingétorix,0.1402298850574713,4.066666666666666,24.933333333333334,48.83453413883994,2.313154547426182,21.8,0.0,9.0
2025-09-07 23:00:00,14130,Jonquoy - Didot,0.5230769230769231,15.692307692307692,14.307692307692308,48.82890454823947,2.31648076325655,21.8,0.0,9.0
2025-09-07 23:00:00,14131,Jourdan - Monticelli,0.37555555555555564,11.266666666666667,18.0,48.822032,2.329095,21.8,0.0,9.0
2025-09-07 23:00:00,14132,Bézout - Général Leclerc,0.14285714285714285,4.285714285714286,25.714285714285715,48.82884804502439,2.3285973072052,21.8,0.0,9.0
2025-09-07 23:00:00,14133,Froidevaux - Boulard,0.718095238095238,25.133333333333333,9.866666666666667,48.835147319625,2.3294411972165,21.8,0.0,9.0
2025-09-07 23:00:00,14135,Jourdan - Cité Universitaire,0.2197802197802198,8.571428571428571,29.428571428571427,48.819897343156676,2.3397007964124366,21.8,0.0,9.0
2025-09-07 23:00:00,14136,Auguste Cain - Jean Moulin,0.7466666666666666,29.866666666666667,9.133333333333333,48.82577028927573,2.3210415244102482,21.8,0.0,9.0
2025-09-07 23:00:00,14137,Maurice d'Ocagne - General Maudhuy,0.27708333333333335,8.3125,21.6875,48.82414282524159,2.3158789426088333,21.8,0.0,9.0
2025-09-07 23:00:00,14138,Porte de Vanves,0.13958333333333334,4.466666666666667,26.533333333333335,48.828012849445,2.3056878894567,21.8,0.0,9.0
2025-09-07 23:00:00,14139,Pierre Larousse - Raymond Losserand,0.14358974358974358,4.3076923076923075,24.692307692307693,48.83059564231877,2.3119183257222176,21.8,0.0,9.0
2025-09-07 23:00:00,14201,Decrès - Alésia,0.27111111111111114,8.133333333333333,19.866666666666667,48.832200060759,2.3139070151575,21.8,0.0,9.0
2025-09-07 23:00:00,15001,Gare Montparnasse - Arrivée,0.2034883720930232,8.75,33.375,48.843827994315,2.3225811123848,21.8,0.0,9.0
2025-09-07 23:00:00,15002,Maine - Antoine Bourdelle,0.05098039215686275,0.8666666666666667,16.133333333333333,48.84308531746595,2.320263946784738,21.8,0.0,9.0
2025-09-07 23:00:00,15003,Gare Montparnasse - Vaugirard,0.0,0.0,65.0,48.8418071798797,2.31951002690117,21.8,0.0,9.0
2025-09-07 23:00:00,15004,Vaugirard - Pasteur,0.008403361344537815,0.17647058823529413,19.823529411764707,48.84040868803496,2.3154367133975033,21.8,0.0,9.0
2025-09-07 23:00:00,15005,Place Jacques et Thérèse Tréfouël,0.11046511627906974,4.75,37.25,48.842726498317,2.3125657439232,21.8,0.0,9.0
2025-09-07 23:00:00,15006,Cherche-Midi - Hôpital Necker,0.08388157894736842,3.1875,33.125,48.84461063309956,2.317914068698883,21.8,0.0,9.0
2025-09-07 23:00:00,15008,Sèvres - Lecourbe,0.22258064516129025,13.8,46.2,48.8447677,2.3110086,21.8,0.0,9.0
2025-09-07 23:00:00,15009,Suffren - Pérignon,0.37111801242236014,17.071428571428573,26.928571428571427,48.84717561492764,2.307052147596786,21.8,0.0,9.0
2025-09-07 23:00:00,15010,Square Cambronne,0.3633474576271186,21.4375,7.5625,48.84756654526,2.3025691509247,21.8,0.0,9.0
2025-09-07 23:00:00,15011,Cambronne - Villa Croix Nivert,0.8202764976958526,50.857142857142854,10.142857142857142,48.845847561366,2.3017574474216,21.8,0.0,9.0
2025-09-07 23:00:00,15012,Cambronne - Mademoiselle,0.681592039800995,45.666666666666664,19.333333333333332,48.843277330035214,2.30230766886348,21.8,0.0,9.0
2025-09-07 23:00:00,15013,Volontaires - Lecourbe,0.9875930521091812,30.615384615384617,0.38461538461538464,48.84351378799,2.3065522313118,21.8,0.0,9.0
2025-09-07 23:00:00,15014,Volontaires - Vaugirard,0.6078431372549019,20.666666666666668,11.333333333333334,48.84132050184004,2.30808901725357,21.8,0.0,9.0
2025-09-07 23:00:00,15017,Place Falguière,0.6202898550724637,14.266666666666667,7.733333333333333,48.83629973941847,2.3104464635252953,21.8,0.0,9.0
2025-09-07 23:00:00,15018,Dutot - Place Alleray,0.27499999999999997,15.4,40.6,48.836826091766,2.3071701095578,21.8,0.0,9.0
2025-09-07 23:00:00,15019,Paul Barruel - Vaugirard,0.3282051282051282,12.8,23.2,48.84014918546239,2.3044332861900334,21.8,0.0,9.0
2025-09-07 23:00:00,15020,Mairie du 15ème,0.5375,17.2,11.8,48.8417762,2.2986539,21.8,0.0,9.0
2025-09-07 23:00:00,15021,Joseph Liouville - Croix Nivert,0.30288461538461536,19.384615384615383,42.61538461538461,48.844835471244416,2.297508493065834,21.8,0.0,9.0
2025-09-07 23:00:00,15022,Emile Zola - Fondary,0.7278911564625853,30.571428571428573,10.428571428571429,48.847051143113745,2.2953405976295476,21.8,0.0,9.0
2025-09-07 23:00:00,15023,La Motte-Picquet - Grenelle,0.4509803921568627,15.333333333333334,16.666666666666668,48.84858321339195,2.299347817897797,21.8,0.0,9.0
2025-09-07 23:00:00,15024,Suffren - La Motte-Piquet,0.8202898550724637,18.866666666666667,4.133333333333334,48.850881230919,2.3012199997902,21.8,0.0,9.0
2025-09-07 23:00:00,15025,Dupleix - du Guesclin,0.48803191489361697,22.9375,24.0625,48.85147910413369,2.296709530055523,21.8,0.0,9.0
2025-09-07 23:00:00,15026,Bir Hakeim,0.5627705627705629,18.571428571428573,9.428571428571429,48.853844054334,2.289705348222,21.8,0.0,9.0
2025-09-07 23:00:00,15027,Duhamel - André Gide,0.14666666666666664,2.933333333333333,17.066666666666666,48.8365662244334,2.312707121097412,21.8,0.0,9.0
2025-09-07 23:00:00,15028,Grenelle - Dr Finlay,0.5281690140845071,37.5,28.5,48.851315406715976,2.2919502854347233,21.8,0.0,9.0
2025-09-07 23:00:00,15029,Emeriau - Place de Brazzaville,0.6784313725490194,34.6,15.4,48.850785261674964,2.2871585190296173,21.8,0.0,9.0
2025-09-07 23:00:00,15030,Emeriau - Beaugrenelle,0.6872586872586871,50.857142857142854,14.571428571428571,48.84791249714942,2.2843059897422795,21.8,0.0,9.0
2025-09-07 23:00:00,15031,Théâtre - Lourmel,0.7522012578616353,39.86666666666667,12.6,48.8482070397636,2.2898658737540245,21.8,0.0,9.0
2025-09-07 23:00:00,15032,Félix Faure - Lourmel,0.471264367816092,27.333333333333332,27.666666666666668,48.83868901709515,2.2818081825971603,21.8,0.0,9.0
2025-09-07 23:00:00,15033,Place Violet,0.9600000000000001,28.8,0.5333333333333333,48.84487893836502,2.2905756533145905,21.8,0.0,9.0
2025-09-07 23:00:00,15034,Lakanal - Commerce,0.660377358490566,35.0,17.333333333333332,48.84442462786544,2.294059172272682,21.8,0.0,9.0
2025-09-07 23:00:00,15035,Place Etienne Pernet,0.5828488372093023,25.0625,16.9375,48.84243457133779,2.2921819612383847,21.8,0.0,9.0
2025-09-07 23:00:00,15038,Place Adolphe Cherioux - Vaugirard,0.6339285714285712,39.9375,19.8125,48.83959442800459,2.3010657727718353,21.8,0.0,9.0
2025-09-07 23:00:00,15039,Abbé Groult - Convention,0.9388888888888888,11.266666666666667,0.7333333333333333,48.83596927866069,2.302064039509349,21.8,0.0,9.0
2025-09-07 23:00:00,15040,Saint-Amand - Labrouste,0.6962962962962964,25.066666666666666,6.933333333333334,48.834097274832295,2.3087677359581,21.8,0.0,9.0
2025-09-07 23:00:00,15041,Franquet - Labrouste,0.4054054054054053,15.0,22.0,48.83287705011431,2.306762784719467,21.8,0.0,9.0
2025-09-07 23:00:00,15042,Henry Farman,0.0625,1.0,14.0,48.83372430280548,2.2713854536414146,21.8,0.0,9.0
2025-09-07 23:00:00,15043,Brancion - Lefebvre,0.6193181818181818,6.8125,4.1875,48.82900222785569,2.301431038163409,21.8,0.0,9.0
2025-09-07 23:00:00,15044,Dantzig - Lefebvre,0.052525252525252523,1.7333333333333334,31.266666666666666,48.83013921586756,2.295934036374092,21.8,0.0,9.0
2025-09-07 23:00:00,15045,Porte de la Plaine,0.11238095238095232,3.933333333333333,30.066666666666666,48.82805169605981,2.2924277186393742,21.8,0.0,9.0
2025-09-07 23:00:00,15046,Parc Georges Brassens - Brancion,0.3310344827586207,9.6,19.4,48.83227829269761,2.3022570088505745,21.8,0.0,9.0
2025-09-07 23:00:00,15047,Morillons - Dantzig,0.2307692307692308,12.0,40.0,48.83310149953933,2.299380004405976,21.8,0.0,9.0
2025-09-07 23:00:00,15050,Dominique Pado - Croix Nivert,0.9060606060606058,19.933333333333334,2.066666666666667,48.83648798164934,2.2897250577807426,21.8,0.0,9.0
2025-09-07 23:00:00,15052,Convention - Vaugirard,0.7574404761904763,36.357142857142854,10.642857142857142,48.83767682233156,2.295586926020252,21.8,0.0,9.0
2025-09-07 23:00:00,15053,Lecourbe - Convention,0.3159420289855072,14.533333333333333,31.466666666666665,48.83923319241899,2.2915197908878326,21.8,0.0,9.0
2025-09-07 23:00:00,15054,Lecourbe - Jean Maridor,1.0,19.0,0.0,48.83796366147599,2.2877392172813416,21.8,0.0,9.0
2025-09-07 23:00:00,15055,Vasco de Gama,0.8478835978835979,45.785714285714285,5.214285714285714,48.83671783466264,2.283664085650799,21.8,0.0,9.0
2025-09-07 23:00:00,15056,Place Balard,0.6753246753246754,14.857142857142858,6.142857142857143,48.836395736424,2.2784192115068,21.8,0.0,9.0
2025-09-07 23:00:00,15057,Lucien Bossoutrot - Général Martial Vallin,0.39010989010989,15.214285714285714,21.785714285714285,48.836956046311,2.2741072252393,21.8,0.0,9.0
2025-09-07 23:00:00,15058,Place du Moulin de Javel,0.21629629629629638,9.733333333333333,34.266666666666666,48.84021670922,2.2716060653329,21.8,0.0,9.0
2025-09-07 23:00:00,15060,Place de la Montagne du Goulet,0.3482142857142858,7.3125,13.6875,48.8443415,2.2773844,21.8,0.0,9.0
2025-09-07 23:00:00,15061,Square Desnouettes,0.8579545454545454,18.875,2.125,48.83476837934194,2.284142297394666,21.8,0.0,9.0
2025-09-07 23:00:00,15062,Convention - Lourmel,0.4777777777777778,17.2,18.8,48.842055041656,2.2859910875559,21.8,0.0,9.0
2025-09-07 23:00:00,15063,Convention - Saint-Charles,0.3967391304347826,9.125,13.875,48.843156111116,2.2831090539694,21.8,0.0,9.0
2025-09-07 23:00:00,15064,Javel - André Citroën,0.2285714285714286,10.285714285714286,34.714285714285715,48.846276485475,2.2786368057132,21.8,0.0,9.0
2025-09-07 23:00:00,15067,Desaix - Edgar Faure,0.8571428571428569,10.285714285714286,0.7142857142857143,48.852804604940296,2.293077029857222,21.8,0.0,9.0
2025-09-07 23:00:00,15068,Général Martial Valin - Pont du Garigliano,0.17083333333333334,2.7333333333333334,13.266666666666667,48.83823094269141,2.270506024360657,21.8,0.0,9.0
2025-09-07 23:00:00,15069,Félix Faure - Convention,0.7743506493506495,34.07142857142857,9.928571428571429,48.841249336041,2.2883866008495,21.8,0.0,9.0
2025-09-07 23:00:00,15070,Balard - Montagne de la Fage,0.7444444444444444,26.8,8.2,48.838507403334,2.2782871127129,21.8,0.0,9.0
2025-09-07 23:00:00,15071,Suffren - Champ de Mars,0.8881987577639752,20.428571428571427,1.5714285714285714,48.8547194,2.2952168,21.8,0.0,9.0
2025-09-07 23:00:00,15072,Place Fernand Forest,0.2792207792207792,9.214285714285714,21.785714285714285,48.849269143836,2.281863167882,21.8,0.0,9.0
2025-09-07 23:00:00,15103,Cauchy - Cévennes,0.7037037037037036,35.888888888888886,14.11111111111111,48.843372571022,2.2751328349113,21.8,0.0,9.0
2025-09-07 23:00:00,15104,Hôpital Européen Georges Pompidou,0.203125,13.0,49.0,48.837695319163,2.2753742337227,21.8,0.0,9.0
2025-09-07 23:00:00,15105,Fédération - Suffren,0.9022222222222224,22.555555555555557,2.3333333333333335,48.852828153442,2.2978776320815,21.8,0.0,9.0
2025-09-07 23:00:00,15106,Grenelle - Violet,0.7504761904761903,26.266666666666666,8.733333333333333,48.84993035512154,2.294612042605877,21.8,0.0,9.0
2025-09-07 23:00:00,15107,Palais des Sports,0.7629870129870128,16.785714285714285,4.214285714285714,48.833468517426,2.2858720645308,21.8,0.0,9.0
2025-09-07 23:00:00,15108,Lourmel - Marie Skobtsov,0.7897727272727271,17.375,3.9375,48.844974,2.287283,21.8,0.0,9.0
2025-09-07 23:00:00,15109,Cevennes - Bergers,0.6091954022988506,17.666666666666668,9.333333333333334,48.84240765130395,2.281037718057633,21.8,0.0,9.0
2025-09-07 23:00:00,15110,Place Robert Guillemard,0.7622549019607842,18.294117647058822,4.705882352941177,48.836191728066666,2.2811267160086417,21.8,0.0,9.0
2025-09-07 23:00:00,15111,Olivier de Serres - Leriche,0.7493333333333335,18.733333333333334,5.266666666666667,48.83460221715206,2.2957482933998112,21.8,0.0,9.0
2025-09-07 23:00:00,15112,Vigée-Lebrun - Anselme Payen,0.16666666666666669,4.0,19.0,48.838683941628375,2.3110422492027287,21.8,0.0,9.0
2025-09-07 23:00:00,15113,Arsonval - Falguière,0.20800000000000007,5.2,18.0,48.84040040365445,2.313117867297474,21.8,0.0,9.0
2025-09-07 23:00:00,15114,Pasteur - Cotentin,0.03838383838383838,1.2666666666666666,8.733333333333333,48.8389284,2.316356,21.8,0.0,9.0
2025-09-07 23:00:00,15120,Colonel Pierre Avia,0.3609195402298851,10.466666666666667,17.533333333333335,48.8296843300915,2.275342586850291,21.8,0.0,9.0
2025-09-07 23:00:00,15122,Place Charles Vallin,0.9025641025641028,23.466666666666665,2.533333333333333,48.835523812041,2.3025986552238,21.8,0.0,9.0
2025-09-07 23:00:00,15123,Commerce - Letellier,0.5333333333333332,23.466666666666665,18.8,48.84797660373612,2.2966245196598805,21.8,0.0,9.0
2025-09-07 23:00:00,15125,Parc Suzanne Lenglen,0.06666666666666668,3.466666666666667,48.53333333333333,48.833250690537874,2.2765403240919113,21.8,0.0,9.0
2025-09-07 23:00:00,15127,Place Charles Michels,0.5675675675675674,21.0,15.0,48.846401,2.28502,21.8,0.0,9.0
2025-09-07 23:00:00,15128,Cadix - Hameau,0.5927927927927927,21.933333333333334,12.066666666666666,48.8340107632249,2.289516180753708,21.8,0.0,9.0
2025-09-07 23:00:00,15129,Hôpital Necker,0.3166666666666667,12.666666666666666,24.6,48.846043490118454,2.313245013356209,21.8,0.0,9.0
2025-09-07 23:00:00,15131,Charles Lecocq - Lecourbe,0.5569444444444446,26.733333333333334,21.266666666666666,48.84044,2.294867,21.8,0.0,9.0
2025-09-07 23:00:00,15132,Bargue -  Dutot,0.7023809523809526,14.75,4.25,48.837884,2.308876,21.8,0.0,9.0
2025-09-07 23:00:00,15133,Saint Lambert - Blomet,0.9467592592592593,25.5625,1.4375,48.83659148147257,2.2930556908249855,21.8,0.0,9.0
2025-09-07 23:00:00,15201,Place Amédée Gordini - Lefebvre,0.2180451127819549,8.285714285714286,28.714285714285715,48.83061737745,2.2920634208276,21.8,0.0,9.0
2025-09-07 23:00:00,15202,Bracion - Périphérique,0.15555555555555556,4.666666666666667,25.333333333333332,48.826103771275,2.3004549373748,21.8,0.0,9.0
2025-09-07 23:00:00,15203,Porte de Versailles,0.6593406593406594,18.46153846153846,7.538461538461538,48.832324016657,2.2875617349045,21.8,0.0,9.0
2025-09-07 23:00:00,15204,Square Bela Bartok,0.8671875000000001,20.8125,3.1875,48.850984480382,2.2844360220351,21.8,0.0,9.0
2025-09-07 23:00:00,15311,Quai du Président Roosevelt - Pont Aval,0.5999999999999999,18.0,12.0,48.834388367639,2.2656820714474,21.8,0.0,9.0
2025-09-07 23:00:00,16002,Pergolèse - Malakoff,0.3251879699248121,12.357142857142858,25.642857142857142,48.87521088779225,2.2842781618237495,21.8,0.0,9.0
2025-09-07 23:00:00,16003,André Maurois - Joseph et Marie Hackin,0.2896551724137931,8.4,21.6,48.8778983,2.2789591,21.8,0.0,9.0
2025-09-07 23:00:00,16005,Raymond Poincaré - Place Victor Hugo,0.029333333333333333,0.7333333333333333,23.266666666666666,48.87030612437,2.2850745414202,21.8,0.0,9.0
2025-09-07 23:00:00,16006,Lauriston - Copernic,0.31578947368421056,6.0,13.0,48.86926,2.289918,21.8,0.0,9.0
2025-09-07 23:00:00,16007,Longchamp - Place d'Iéna,0.4333333333333333,4.333333333333333,5.666666666666667,48.864917233434,2.2926748171449,21.8,0.0,9.0
2025-09-07 23:00:00,16008,Galilée - Kléber,0.30528846153846156,9.76923076923077,21.23076923076923,48.867411865714,2.2907813801148,21.8,0.0,9.0
2025-09-07 23:00:00,16009,Saint-Didier - Raymond Poincaré,0.3372549019607843,5.733333333333333,10.266666666666667,48.86642312020962,2.285863497192411,21.8,0.0,9.0
2025-09-07 23:00:00,16010,Belles Feuilles - Place de Mexico,0.24414715719063548,5.615384615384615,16.384615384615383,48.865804746474,2.2829206287861,21.8,0.0,9.0
2025-09-07 23:00:00,16011,Victor Hugo - La Pompe,0.2731707317073171,11.2,27.8,48.86795222470859,2.28146318346262,21.8,0.0,9.0
2025-09-07 23:00:00,16012,Flandrin - Longchamp,0.07142857142857141,3.0,39.0,48.86877849178477,2.274354539176829,21.8,0.0,9.0
2025-09-07 23:00:00,16013,Mairie du 16ème,0.7238095238095241,25.333333333333332,5.666666666666667,48.863936848471994,2.2765953093767166,21.8,0.0,9.0
2025-09-07 23:00:00,16014,Eylau - Trocadéro,0.14166666666666666,3.4,18.6,48.863354122371,2.2864209115505,21.8,0.0,9.0
2025-09-07 23:00:00,16015,Bassano -  Iéna,0.43809523809523815,6.571428571428571,8.428571428571429,48.868144510482075,2.296149600985935,21.8,0.0,9.0
2025-09-07 23:00:00,16017,Siam - La Pompe,0.8942307692307693,14.307692307692308,0.07692307692307693,48.861720329027264,2.275346568555312,21.8,0.0,9.0
2025-09-07 23:00:00,16018,Flandrin - Henri Martin,0.11111111111111115,2.0,15.0,48.8643275,2.2724174,21.8,0.0,9.0
2025-09-07 23:00:00,16019,Porte de la Muette,0.2425925925925926,8.733333333333333,27.266666666666666,48.86302317841182,2.2687188170157406,21.8,0.0,9.0
2025-09-07 23:00:00,16020,Place de la Porte de Passy,0.45370370370370383,16.333333333333332,18.666666666666668,48.857341095470794,2.2644165538827115,21.8,0.0,9.0
2025-09-07 23:00:00,16021,François Ponsard - La Muette,0.4376811594202898,10.066666666666666,12.933333333333334,48.8583666,2.2744515,21.8,0.0,9.0
2025-09-07 23:00:00,16022,Jean Bologne - Passy,0.16776315789473684,3.1875,15.8125,48.857566889784465,2.280027395306772,21.8,0.0,9.0
2025-09-07 23:00:00,16023,Passy - Place du Costa Rica,0.7898989898989899,26.066666666666666,2.933333333333333,48.8584893,2.2839655,21.8,0.0,9.0
2025-09-07 23:00:00,16024,Ranelagh - Maison de la Radio,0.8303030303030302,18.266666666666666,1.7333333333333334,48.85293603169479,2.280449643731117,21.8,0.0,9.0
2025-09-07 23:00:00,16025,Jean de la Fontaine - Boulainvilliers,0.29319852941176466,19.9375,45.0625,48.85264791461651,2.2758664190769196,21.8,0.0,9.0
2025-09-07 23:00:00,16026,Ranelagh - Mozart,0.15072463768115937,3.466666666666667,18.533333333333335,48.8554439,2.2704418,21.8,0.0,9.0
2025-09-07 23:00:00,16027,Mozart - Jasmin,0.3940092165898617,24.428571428571427,36.57142857142857,48.85286124871689,2.268483570651513,21.8,0.0,9.0
2025-09-07 23:00:00,16029,Maison de Radio - France,0.5942249240121581,27.928571428571427,17.071428571428573,48.85132886434057,2.277785539627075,21.8,0.0,9.0
2025-09-07 23:00:00,16031,Vignes - Boulainvilliers,0.2993197278911564,6.285714285714286,13.714285714285714,48.856399483950504,2.275240458548069,21.8,0.0,9.0
2025-09-07 23:00:00,16032,Eglise d'Auteuil,0.46349206349206346,9.733333333333333,9.266666666666667,48.84749841771691,2.26848387135299,21.8,0.0,9.0
2025-09-07 23:00:00,16033,Marché d'Auteuil,0.505859375,16.1875,14.8125,48.84842761367387,2.265253821160005,21.8,0.0,9.0
2025-09-07 23:00:00,16034,Porte d'Auteuil,0.5681818181818182,18.75,13.25,48.8479394142243,2.2608396783471107,21.8,0.0,9.0
2025-09-07 23:00:00,16036,Porte Molitor,0.41777777777777797,25.066666666666666,32.93333333333333,48.84524763511433,2.2569015249609947,21.8,0.0,9.0
2025-09-07 23:00:00,16039,Exelmans - Versailles,0.5162064825930373,25.294117647058822,22.705882352941178,48.84097491091973,2.264390252530575,21.8,0.0,9.0
2025-09-07 23:00:00,16040,Exelmans - Michel-Ange,0.5939393939393941,19.6,10.4,48.84309486651855,2.2597770800669053,21.8,0.0,9.0
2025-09-07 23:00:00,16041,Versailles - Claude Terrasse,0.3233695652173913,14.875,27.125,48.840219338074,2.263834191153,21.8,0.0,9.0
2025-09-07 23:00:00,16042,Murat - Porte de Saint-Cloud,0.44385964912280707,16.866666666666667,20.133333333333333,48.83750862621299,2.2577651962637906,21.8,0.0,9.0
2025-09-07 23:00:00,16043,Place de Passy,0.8625000000000004,12.9375,1.0625,48.85780291711202,2.277500546942199,21.8,0.0,9.0
2025-09-07 23:00:00,16044,Porte de Saint Cloud - Parc des Princes,0.5875,18.8,10.2,48.838662757066,2.2525164484978,21.8,0.0,9.0
2025-09-07 23:00:00,16101,Malakoff - Place de la Porte Maillot,0.1714285714285714,4.8,23.2,48.876733496638,2.2834577411413,21.8,0.0,9.0
2025-09-07 23:00:00,16102,Pergolèse - Marbeau,0.43209876543209885,11.666666666666666,15.333333333333334,48.873568706869,2.2815125225299,21.8,0.0,9.0
2025-09-07 23:00:00,16103,Traktir - Foch,0.3515151515151516,7.733333333333333,14.266666666666667,48.872755334614,2.2915497802487,21.8,0.0,9.0
2025-09-07 23:00:00,16104,Paul Valery - Victor Hugo,0.35047619047619066,12.266666666666667,22.733333333333334,48.87137406080164,2.2887128591537476,21.8,0.0,9.0
2025-09-07 23:00:00,16105,Crevaux - Bugeaud,0.4838709677419357,15.0,15.0,48.87080942867,2.2811490076919,21.8,0.0,9.0
2025-09-07 23:00:00,16107,Benjamin Godard - Victor Hugo,0.588235294117647,20.58823529411765,12.411764705882353,48.865983,2.275725,21.8,0.0,9.0
2025-09-07 23:00:00,16108,Sablons - Georges Mandel,0.46428571428571414,17.642857142857142,17.357142857142858,48.863875,2.28189,21.8,0.0,9.0
2025-09-07 23:00:00,16110,Octave Feuillet - Albéric Magnard,0.12063492063492062,2.533333333333333,17.466666666666665,48.86106902949534,2.2730283066630363,21.8,0.0,9.0
2025-09-07 23:00:00,16111,Faustin Hélie - Desbordes-Valmore,0.37979797979797975,12.533333333333333,19.466666666666665,48.859403,2.276522,21.8,0.0,9.0
2025-09-07 23:00:00,16112,Chernoviz - Raynouard,0.16216216216216223,6.0,31.0,48.8569864146289,2.282173218142987,21.8,0.0,9.0
2025-09-07 23:00:00,16115,Raffet - Montmorency,0.338095238095238,14.2,26.8,48.85258670812,2.2629252456151954,21.8,0.0,9.0
2025-09-07 23:00:00,16116,George Sand - Jean de La Fontaine,0.7356321839080461,21.333333333333332,7.666666666666667,48.84986918764119,2.268257387525699,21.8,0.0,9.0
2025-09-07 23:00:00,16118,Michel-Ange - Parent de Rosan,0.5769230769230768,15.0,10.0,48.840579923690115,2.2584119439125065,21.8,0.0,9.0
2025-09-07 23:00:00,16121,Jardin d'Acclimatation,0.03030303030303029,1.0,29.0,48.878772242510465,2.270772233605385,21.8,0.0,9.0
2025-09-07 23:00:00,16122,Route de la Muette - Porte de Neuilly,0.08,4.0,45.0,48.8798926,2.2587671,21.8,0.0,9.0
2025-09-07 23:00:00,16123,Mahatma Gandhi,0.03846153846153845,1.0,23.0,48.876356,2.264205,21.8,0.0,9.0
2025-09-07 23:00:00,16124,Route de Sèvres - Porte de Bagatelle,0.09797979797979799,6.466666666666667,55.53333333333333,48.87525984132485,2.249415814876557,21.8,0.0,9.0
2025-09-07 23:00:00,16129,Ceinture du Lac Inferieure - Saint-Cloud,0.023809523809523815,1.0,38.0,48.86218070933143,2.2617871686816216,21.8,0.0,9.0
2025-09-07 23:00:00,16136,Théophile Gautier - François Millet,0.9538461538461539,28.615384615384617,1.3846153846153846,48.85034821320644,2.273029983043671,21.8,0.0,9.0
2025-09-07 23:00:00,16138,Saint-Cloud - Hippodrome,0.03333333333333333,1.0,26.0,48.85772148887421,2.2549109905958176,21.8,0.0,9.0
2025-09-07 23:00:00,16139,Suresnes - Muette à Neuilly,0.13333333333333333,4.0,24.0,48.868570404348,2.266000919044,21.8,0.0,9.0
2025-09-07 23:00:00,16140,Hippodrome de Longchamp,0.1511111111111111,4.533333333333333,24.466666666666665,48.86413226532,2.239905372262,21.8,0.0,9.0
2025-09-07 23:00:00,16201,Porte Dauphine,0.019230769230769232,1.25,62.75,48.871139344351,2.2749781616017,21.8,0.0,9.0
2025-09-07 23:00:00,17001,Guy Môquet - Saint-Ouen,0.5383647798742138,28.533333333333335,21.0,48.892777719023975,2.3270335793495183,21.8,0.0,9.0
2025-09-07 23:00:00,17003,Jacques Kellner - Saint-Ouen,0.5206349206349206,23.428571428571427,19.571428571428573,48.895809485802886,2.327897409164145,21.8,0.0,9.0
2025-09-07 23:00:00,17004,Legendre - Clichy,0.2865384615384615,11.461538461538462,28.53846153846154,48.88896161855884,2.322528975094376,21.8,0.0,9.0
2025-09-07 23:00:00,17005,Brochant - Clichy,0.4490566037735849,23.8,28.2,48.89032998912038,2.319730559929781,21.8,0.0,9.0
2025-09-07 23:00:00,17006,Guy Môquet - Compoint,0.34188034188034183,12.307692307692308,23.692307692307693,48.89213559044868,2.32321947813034,21.8,0.0,9.0
2025-09-07 23:00:00,17007,Navier - Epinettes,0.42839506172839503,23.133333333333333,27.866666666666667,48.89587780769155,2.3226776719093327,21.8,0.0,9.0
2025-09-07 23:00:00,17008,Porte Pouchet-Bessières,0.3913043478260869,9.0,13.0,48.8978765,2.3230632,21.8,0.0,9.0
2025-09-07 23:00:00,17010,Jonquière - Docteur Paul Brousse,0.32469135802469135,17.533333333333335,34.0,48.894799816683985,2.318705212173216,21.8,0.0,9.0
2025-09-07 23:00:00,17011,Fragonard - Porte de Clichy,0.486904761904762,27.266666666666666,26.733333333333334,48.894155633419,2.3143893107772,21.8,0.0,9.0
2025-09-07 23:00:00,17013,Legendre - Dulong,0.40683229813664584,9.357142857142858,12.642857142857142,48.885325169402904,2.316423766314984,21.8,0.0,9.0
2025-09-07 23:00:00,17015,Place de Lévis,0.13333333333333336,6.4,40.6,48.883546851533254,2.3131933808326726,21.8,0.0,9.0
2025-09-07 23:00:00,17016,Brochant - Square des Batignolles,0.11182795698924733,3.466666666666667,25.533333333333335,48.88818698581028,2.316861143151153,21.8,0.0,9.0
2025-09-07 23:00:00,17017,Gare de Pont-Cardinet,0.2802768166089966,9.529411764705882,23.470588235294116,48.88713901475306,2.314494143994255,21.8,0.0,9.0
2025-09-07 23:00:00,17018,Parc Monceau,0.05902777777777779,1.0625,16.9375,48.881077914129,2.3095492646098,21.8,0.0,9.0
2025-09-07 23:00:00,17019,Phalsbourg - Villiers,0.2526315789473684,4.8,12.2,48.88242307900951,2.3090453445911407,21.8,0.0,9.0
2025-09-07 23:00:00,17020,Jouffroy d'Abbans - Malesherbes,0.38024691358024687,10.266666666666667,15.733333333333333,48.8850134,2.3070717,21.8,0.0,9.0
2025-09-07 23:00:00,17021,Jouffroy d'Abbans - Villiers,0.21960784313725487,7.466666666666667,24.533333333333335,48.884215547037,2.3056533560157,21.8,0.0,9.0
2025-09-07 23:00:00,17022,Pereire - Place de Wagram,0.5521739130434784,25.4,18.6,48.887070607581215,2.304111124531457,21.8,0.0,9.0
2025-09-07 23:00:00,17023,Porte d'Asnières,0.7185185185185186,25.866666666666667,8.133333333333333,48.89035817610495,2.3036286234855656,21.8,0.0,9.0
2025-09-07 23:00:00,17024,Villiers - Batignolles,0.3074534161490683,7.071428571428571,15.928571428571429,48.881252538461,2.3165384307504,21.8,0.0,9.0
2025-09-07 23:00:00,17025,Chazelles - Courcelles,0.15809523809523807,5.533333333333333,27.466666666666665,48.879406604954,2.3034455627202988,21.8,0.0,9.0
2025-09-07 23:00:00,17026,Jouffroy d'Abbans - Wagram,0.5416666666666667,21.666666666666668,14.333333333333334,48.881973298352,2.301132157445,21.8,0.0,9.0
2025-09-07 23:00:00,17027,Place du Maréchal Juin - Péreire,0.5025575447570332,23.11764705882353,17.88235294117647,48.885263,2.298286,21.8,0.0,9.0
2025-09-07 23:00:00,17028,Reims - Raymond Pitet,0.14594594594594595,5.4,29.6,48.8888,2.296319,21.8,0.0,9.0
2025-09-07 23:00:00,17029,Pierre Demours - Laugier,0.46666666666666684,17.266666666666666,18.733333333333334,48.8813072,2.294846,21.8,0.0,9.0
2025-09-07 23:00:00,17030,Pereire - Rennequin,0.4724637681159421,10.866666666666667,9.133333333333333,48.88364782887555,2.2952447086572647,21.8,0.0,9.0
2025-09-07 23:00:00,17032,Jean Oestreicher - Porte de Champerret,0.17777777777777773,3.7333333333333334,17.266666666666666,48.88655580065981,2.288640439510346,21.8,0.0,9.0
2025-09-07 23:00:00,17033,Carnot - Général Lanrezac,0.17083333333333334,5.125,23.125,48.875443870736,2.2938242935036,21.8,0.0,9.0
2025-09-07 23:00:00,17036,Place Tristan Bernard,0.611904761904762,17.133333333333333,10.866666666666667,48.8794936,2.2915423,21.8,0.0,9.0
2025-09-07 23:00:00,17037,Bayen - Pereire,0.7636363636363637,16.8,3.2,48.881804409079656,2.2921088710427284,21.8,0.0,9.0
2025-09-07 23:00:00,17038,Grande Armée - Brunel,0.5332661290322582,33.0625,27.9375,48.876116,2.288124,21.8,0.0,9.0
2025-09-07 23:00:00,17039,Place Saint-Ferdinand,0.21754385964912284,8.266666666666667,26.733333333333334,48.87815529789739,2.288518047864942,21.8,0.0,9.0
2025-09-07 23:00:00,17040,Pereire - Ternes,0.2513020833333333,12.0625,34.9375,48.87973954830735,2.288012132048607,21.8,0.0,9.0
2025-09-07 23:00:00,17041,Guersant - Gouvion-Saint-Cyr,0.46527777777777785,16.75,18.25,48.88287775178599,2.287667370814871,21.8,0.0,9.0
2025-09-07 23:00:00,17043,Belidor - Gouvion-Saint-Cyr,0.2683760683760683,10.466666666666667,28.533333333333335,48.88022154052015,2.2854680567979813,21.8,0.0,9.0
2025-09-07 23:00:00,17044,Porte de Saint-Ouen - Bessières,0.8507936507936509,35.733333333333334,4.266666666666667,48.89792240854517,2.32851451022192,21.8,0.0,9.0
2025-09-07 23:00:00,17045,Place des Ternes.,0.27445652173913043,12.625,29.375,48.878438631226516,2.297727763652802,21.8,0.0,9.0
2025-09-07 23:00:00,17046,Mac-Mahon - Brey,0.3171428571428571,7.928571428571429,14.071428571428571,48.877532084130166,2.294512536052928,21.8,0.0,9.0
2025-09-07 23:00:00,17047,Courcelles - Pierre Demours,0.3666666666666668,9.533333333333333,15.466666666666667,48.883769733273496,2.29858466343129,21.8,0.0,9.0
2025-09-07 23:00:00,17048,De Toqueville - Terrasse,0.07333333333333332,2.2,24.8,48.882428,2.314002,21.8,0.0,9.0
2025-09-07 23:00:00,17050,Batignolles - Abel Truchet,0.1738095238095238,4.866666666666666,20.133333333333333,48.883103904582,2.3238347490884,21.8,0.0,9.0
2025-09-07 23:00:00,17102,Alfred Roll - Berthier,0.6173469387755101,17.285714285714285,10.714285714285714,48.887808570529,2.3000952981763,21.8,0.0,9.0
2025-09-07 23:00:00,17104,Jardin Marguerite Long,0.2585227272727272,5.6875,15.3125,48.8816985773914,2.2836575657129288,21.8,0.0,9.0
2025-09-07 23:00:00,17105,Place Madeleine Daniélou,0.07875457875457875,3.3076923076923075,37.69230769230769,48.883498,2.282015,21.8,0.0,9.0
2025-09-07 23:00:00,17106,Berthier - Porte de Clichy,0.15364583333333337,3.6875,19.375,48.894222687781,2.3125872006816,21.8,0.0,9.0
2025-09-07 23:00:00,17107,Berthier - Place Stuart Merril,0.25765765765765763,9.533333333333333,27.466666666666665,48.885927922355044,2.2933450341224675,21.8,0.0,9.0
2025-09-07 23:00:00,17108,Bessières - Porte de Clichy,0.329004329004329,10.857142857142858,22.142857142857142,48.89611762451474,2.31790903955698,21.8,0.0,9.0
2025-09-07 23:00:00,17110,Legendre - Nollet,0.571111111111111,17.133333333333333,12.866666666666667,48.887742186754224,2.320293079881375,21.8,0.0,9.0
2025-09-07 23:00:00,17111,Lemercier - Cardinet,0.2694444444444445,6.466666666666667,16.533333333333335,48.890097168851746,2.317377626895905,21.8,0.0,9.0
2025-09-07 23:00:00,17116,Reims - Porte d'Asnières,0.20604395604395603,5.357142857142857,19.642857142857142,48.891834448210986,2.300144659954865,21.8,0.0,9.0
2025-09-07 23:00:00,17117,Pereire - Saussure,0.22708333333333333,7.266666666666667,23.733333333333334,48.888229075478,2.3101296275854,21.8,0.0,9.0
2025-09-07 23:00:00,17119,Toqueville - Cardinet,0.4545454545454544,15.0,17.0,48.88490187110713,2.3109393194317818,21.8,0.0,9.0
2025-09-07 23:00:00,17121,Square des Epinettes,0.3607142857142857,7.214285714285714,11.785714285714286,48.89383909781389,2.325953990221024,21.8,0.0,9.0
2025-09-07 23:00:00,17122,Bridaine - Lamandé,0.5931034482758621,17.2,9.8,48.8862074,2.3206239,21.8,0.0,9.0
2025-09-07 23:00:00,17123,Mstislav Rostropovitch - Berthier,0.18055555555555558,3.25,14.75,48.892120821173975,2.309234105050564,21.8,0.0,9.0
2025-09-07 23:00:00,17124,Porte de Saint-Ouen - Henri Huchard,0.19230769230769237,5.0,21.0,48.898708366365064,2.3295360803604126,21.8,0.0,9.0
2025-09-07 23:00:00,17125,Marie-Georges Picquart - Pereire,0.6,19.2,11.8,48.88863669349711,2.3111706599593163,21.8,0.0,9.0
2025-09-07 23:00:00,17126,Hélène et François Missoffe - Emile Borel,0.40401785714285715,12.928571428571429,19.071428571428573,48.89990653843488,2.321543991674844,21.8,0.0,9.0
2025-09-07 23:00:00,17127,Porte de Clichy - Place des Nations Unies,0.7339285714285715,29.357142857142858,9.642857142857142,48.896737263309504,2.310542999196392,21.8,0.0,9.0
2025-09-07 23:00:00,17201,Porte Maillot - Perreire,0.08758169934640522,4.466666666666667,46.53333333333333,48.878021154637,2.2842371277102,21.8,0.0,9.0
2025-09-07 23:00:00,17202,Mariotte - Batignolles,0.7533333333333334,15.066666666666666,3.933333333333333,48.884571659595,2.321469503475,21.8,0.0,9.0
2025-09-07 23:00:00,17203,Place de la Porte de Champeret,0.09285714285714283,2.6,25.4,48.886062068226,2.2917001576821,21.8,0.0,9.0
2025-09-07 23:00:00,17204,Paul Bodin - Clichy,0.28686868686868683,9.466666666666667,20.533333333333335,48.892594758409,2.3171403311203,21.8,0.0,9.0
2025-09-07 23:00:00,18003,Cimetière de Montmartre,0.35880398671096353,15.428571428571429,23.571428571428573,48.886472466142,2.3328901827335,21.8,0.0,9.0
2025-09-07 23:00:00,18004,Place des Abbesses,0.2833333333333333,3.4,6.6,48.884542726149725,2.3386867716908455,21.8,0.0,9.0
2025-09-07 23:00:00,18005,Tardieu - Chappe,0.12418300653594774,2.235294117647059,12.764705882352942,48.884146759782,2.341845408082,21.8,0.0,9.0
2025-09-07 23:00:00,18006,Square Louise Michel,0.06481481481481484,2.3333333333333335,32.666666666666664,48.884687354509,2.3441386967897,21.8,0.0,9.0
2025-09-07 23:00:00,18007,Goutte d'or - Barbès,0.5323529411764706,10.647058823529411,7.352941176470588,48.885124323627,2.3496962338686,21.8,0.0,9.0
2025-09-07 23:00:00,18008,Square Léon,0.2686868686868687,8.866666666666667,22.133333333333333,48.88667396788626,2.353205569088459,21.8,0.0,9.0
2025-09-07 23:00:00,18009,Jean-François Lépine - Stephenson,0.3776223776223777,8.307692307692308,11.692307692307692,48.88611466796807,2.356855627529275,21.8,0.0,9.0
2025-09-07 23:00:00,18010,Riquet - Marx Dormoy,0.8373015873015872,30.142857142857142,1.8571428571428572,48.89021003702,2.3601756244898,21.8,0.0,9.0
2025-09-07 23:00:00,18011,Pajol - Place Herbert,0.6085470085470085,23.733333333333334,13.266666666666667,48.8927825,2.3635598,21.8,0.0,9.0
2025-09-07 23:00:00,18012,Stephenson - Doudeauville,0.39409722222222227,14.1875,19.8125,48.888537048944826,2.3561610281467438,21.8,0.0,9.0
2025-09-07 23:00:00,18014,Léon - Doudeauville,0.8051282051282053,10.466666666666667,1.5333333333333334,48.888324218452,2.3535733726386,21.8,0.0,9.0
2025-09-07 23:00:00,18015,Custine - Ramey,0.36585365853658547,15.0,25.0,48.888735896947,2.3469526693225,21.8,0.0,9.0
2025-09-07 23:00:00,18016,Francoeur - Caulaincourt,0.4000000000000001,13.6,15.4,48.8899944409612,2.342529706656933,21.8,0.0,9.0
2025-09-07 23:00:00,18017,Caulaincourt - Place Constantin Pecqueur,0.3636363636363636,16.0,25.0,48.889677905028,2.3381787144261,21.8,0.0,9.0
2025-09-07 23:00:00,18018,Carpeaux - Place Jacques Froment,0.49824561403508766,9.466666666666667,6.533333333333333,48.8906542,2.3309428,21.8,0.0,9.0
2025-09-07 23:00:00,18019,Square Raymond Souplex,0.514102564102564,26.733333333333334,24.266666666666666,48.89183721478911,2.335426103165901,21.8,0.0,9.0
2025-09-07 23:00:00,18020,Francoeur - Marcadet,0.46764705882352947,9.352941176470589,5.647058823529412,48.89104123261663,2.340014585442034,21.8,0.0,9.0
2025-09-07 23:00:00,18021,Marcadet - Ramey,0.335042735042735,13.066666666666666,23.933333333333334,48.890875,2.3449019,21.8,0.0,9.0
2025-09-07 23:00:00,18022,Marcadet - Barbès,0.33277027027027034,12.3125,15.75,48.890451120965,2.3490573929687,21.8,0.0,9.0
2025-09-07 23:00:00,18023,Ordener - Poissonniers,0.37142857142857155,13.0,18.0,48.891213890844654,2.351288666219873,21.8,0.0,9.0
2025-09-07 23:00:00,18024,Clignancourt - Ordener,0.38214285714285723,13.375,21.625,48.891457726153774,2.348636478060487,21.8,0.0,9.0
2025-09-07 23:00:00,18025,Mairie du 18ème,0.4867647058823529,19.470588235294116,17.529411764705884,48.892939296937605,2.3445510864257812,21.8,0.0,9.0
2025-09-07 23:00:00,18026,Ruisseau - Ordener,0.7371428571428573,25.8,4.2,48.89299462568024,2.340144887566567,21.8,0.0,9.0
2025-09-07 23:00:00,18028,Championnet - Vauvenargues,0.4731934731934731,15.615384615384615,14.384615384615385,48.89401874744574,2.3319872841238976,21.8,0.0,9.0
2025-09-07 23:00:00,18029,Emile Blemont - Poteau,0.2615384615384616,10.2,28.8,48.8943782,2.3415122,21.8,0.0,9.0
2025-09-07 23:00:00,18030,Joseph Dijon - Ornano,0.7195945945945948,26.625,8.375,48.89374453351521,2.3476678133010864,21.8,0.0,9.0
2025-09-07 23:00:00,18032,Porte de Clignancourt.,0.4910714285714286,27.5,28.5,48.897488,2.343996,21.8,0.0,9.0
2025-09-07 23:00:00,18033,Belliard - Damrémont,0.4372549019607845,14.866666666666667,13.133333333333333,48.89669238777841,2.338023450388167,21.8,0.0,9.0
2025-09-07 23:00:00,18034,Leibniz - Jean Dollfus,0.25833333333333336,8.266666666666667,23.733333333333334,48.896328348515986,2.333390423834684,21.8,0.0,9.0
2025-09-07 23:00:00,18035,René Binet - Porte de Montmartre,0.3952702702702702,14.625,12.0625,48.89905109950848,2.3365534096956253,21.8,0.0,9.0
2025-09-07 23:00:00,18039,Jardins d'Eole,0.5866666666666666,11.733333333333333,6.266666666666667,48.8869703,2.3668488,21.8,0.0,9.0
2025-09-07 23:00:00,18041,Rochechouart - Martyrs,0.11428571428571428,2.2857142857142856,5.714285714285714,48.882193779572,2.3405495658517,21.8,0.0,9.0
2025-09-07 23:00:00,18042,Place Pigalle,0.5089285714285715,10.6875,7.3125,48.8827555,2.3361566,21.8,0.0,9.0
2025-09-07 23:00:00,18043,Clichy - Place Blanche,0.2233333333333333,4.466666666666667,13.533333333333333,48.883601088297,2.3332237824798,21.8,0.0,9.0
2025-09-07 23:00:00,18044,Clichy - Douai,0.10625,3.4,18.6,48.883687771522,2.328063700029,21.8,0.0,9.0
2025-09-07 23:00:00,18045,Pierre Ginier - Clichy,0.1953125,3.125,5.875,48.8867667,2.326228,21.8,0.0,9.0
2025-09-07 23:00:00,18046,Etienne Jodelle - Saint Ouen,0.43838383838383826,14.466666666666667,12.333333333333334,48.88794016394694,2.326124420314341,21.8,0.0,9.0
2025-09-07 23:00:00,18049,Porte d'Aubervilliers,0.13863636363636364,7.625,44.375,48.89859661942376,2.3689722642302513,21.8,0.0,9.0
2025-09-07 23:00:00,18101,Championnet.,0.3484848484848485,7.666666666666667,13.333333333333334,48.8953643,2.3498166,21.8,0.0,9.0
2025-09-07 23:00:00,18107,Chartres - La Charbonnière,0.14705882352941174,5.0,28.0,48.8847601,2.3534657,21.8,0.0,9.0
2025-09-07 23:00:00,18109,Pajol - Riquet,0.39716312056737596,18.666666666666668,25.333333333333332,48.88960028134536,2.3628534749150276,21.8,0.0,9.0
2025-09-07 23:00:00,18110,Departement - Pajol,0.7244582043343655,13.764705882352942,5.235294117647059,48.886674849730184,2.3613611608743668,21.8,0.0,9.0
2025-09-07 23:00:00,18111,Félix Ziem - Armand Gauthier,0.34285714285714286,8.571428571428571,16.428571428571427,48.88949630486821,2.333393658804396,21.8,0.0,9.0
2025-09-07 23:00:00,18112,Arthur Ranc - Hôpital Bichat,0.1641025641025641,4.266666666666667,20.733333333333334,48.8978712500682,2.333521842956543,21.8,0.0,9.0
2025-09-07 23:00:00,18113,Lepic - Armée d'Orient,0.03611111111111111,0.8666666666666667,23.133333333333333,48.887536403814,2.3343077301979,21.8,0.0,9.0
2025-09-07 23:00:00,18114,Véron - Lepic,0.22608695652173913,5.2,16.8,48.885261233953,2.3345598578453,21.8,0.0,9.0
2025-09-07 23:00:00,18134,Ney - Porte de Clignancourt,0.6666666666666666,16.666666666666668,7.333333333333333,48.8978867,2.3458001,21.8,0.0,9.0
2025-09-07 23:00:00,18135,Ney - Porte de Montmartre,0.13611111111111113,3.2666666666666666,20.733333333333334,48.897918,2.3364872,21.8,0.0,9.0
2025-09-07 23:00:00,18137,Poissonniers - Nord,0.37380952380952365,10.466666666666667,17.533333333333335,48.892511213520656,2.3522228747606277,21.8,0.0,9.0
2025-09-07 23:00:00,18138,Station Paris Basketball - Ney - Charles Hermite,0.12666666666666665,2.533333333333333,16.466666666666665,48.898748039775,2.3645754531026,21.8,0.0,9.0
2025-09-07 23:00:00,18139,Poissonniers - Championnet,0.40848214285714296,11.4375,16.5625,48.89543299733937,2.3530178144574165,21.8,0.0,9.0
2025-09-07 23:00:00,18140,Porte de Clignancourt - Ney,0.14333333333333328,5.733333333333333,33.266666666666666,48.899641123987095,2.344321422278881,21.8,0.0,9.0
2025-09-07 23:00:00,18141,Clignancourt - Sofia,0.694078947368421,13.1875,1.8125,48.88511992309783,2.34719488842051,21.8,0.0,9.0
2025-09-07 23:00:00,18142,Jessaint - Marx Dormoy,0.3600000000000001,10.8,17.2,48.88484543106364,2.358930408954621,21.8,0.0,9.0
2025-09-07 23:00:00,18201,Tristan Tzara -  Tchaïkovski,0.39583333333333326,13.0625,17.9375,48.89490221746837,2.3648490384221077,21.8,0.0,9.0
2025-09-07 23:00:00,18202,Diane Arbus,0.1019736842105263,3.875,34.125,48.898800717199,2.3524022474885,21.8,0.0,9.0
2025-09-07 23:00:00,18204,Porte de la Chapelle - Boulevard Ney,0.052564102564102565,2.7333333333333334,46.266666666666666,48.900097357789,2.3586005020149,21.8,0.0,9.0
2025-09-07 23:00:00,18205,Mauroy - Cheminots,0.6208333333333333,19.866666666666667,11.133333333333333,48.897715198403,2.357895075822,21.8,0.0,9.0
2025-09-07 23:00:00,18206,Albert Kahn - Duhesme,0.387719298245614,14.733333333333333,22.266666666666666,48.895623001056,2.345815078896,21.8,0.0,9.0
2025-09-07 23:00:00,19001,Crimée - Ourcq,0.14166666666666666,7.933333333333334,47.06666666666667,48.894104140316,2.3729460884673,21.8,0.0,9.0
2025-09-07 23:00:00,19002,Centquatre,0.20634920634920634,8.666666666666666,28.333333333333332,48.889333538455,2.3707854375243,21.8,0.0,9.0
2025-09-07 23:00:00,19003,Quai de la Seine,0.17499999999999996,4.2,16.8,48.884492238407525,2.3703941702842717,21.8,0.0,9.0
2025-09-07 23:00:00,19005,Flandre - Riquet,0.7555555555555558,15.866666666666667,2.1333333333333333,48.888013281448,2.3737595955229,21.8,0.0,9.0
2025-09-07 23:00:00,19007,Flandre - Ourcq,0.6288888888888887,18.866666666666667,10.133333333333333,48.89260159189023,2.3790915682911873,21.8,0.0,9.0
2025-09-07 23:00:00,19008,Flandre - Alphonse Karr,0.2974358974358974,7.733333333333333,16.266666666666666,48.89465,2.381868,21.8,0.0,9.0
2025-09-07 23:00:00,19009,Cité des Sciences et de l'Industrie,0.23491379310344823,6.8125,22.9375,48.89659571178903,2.384599149227142,21.8,0.0,9.0
2025-09-07 23:00:00,19010,Emile Reynaud - Porte de la Villette,0.6787878787878786,14.933333333333334,5.066666666666666,48.90098953630053,2.3887022584676743,21.8,0.0,9.0
2025-09-07 23:00:00,19012,Lally-Tollendal - Armand Carrel,0.32857142857142857,9.2,17.8,48.88270066221072,2.374717555940151,21.8,0.0,9.0
2025-09-07 23:00:00,19013,Laumière - Petit,0.22837370242214539,7.764705882352941,24.235294117647058,48.88467368538326,2.380039058625698,21.8,0.0,9.0
2025-09-07 23:00:00,19014,Lorraine - Jean Jaurès,0.3298245614035087,6.266666666666667,9.733333333333333,48.8863865,2.3825772,21.8,0.0,9.0
2025-09-07 23:00:00,19015,Thionville - Ourcq,0.16145833333333331,3.875,19.125,48.88917613743794,2.3833653330802917,21.8,0.0,9.0
2025-09-07 23:00:00,19016,Hautpoul - Jean Jaurès,0.125,4.0,27.0,48.886393679436,2.3865414544355,21.8,0.0,9.0
2025-09-07 23:00:00,19018,Cité de la Musique,0.16111111111111112,9.666666666666666,46.0,48.888796556487,2.3925811931922,21.8,0.0,9.0
2025-09-07 23:00:00,19019,Petit - Manin,0.2303030303030302,5.066666666666666,13.933333333333334,48.886506875343,2.3938155401308,21.8,0.0,9.0
2025-09-07 23:00:00,19021,Mairie du 19ème,0.09629629629629628,2.6,20.4,48.88256264247959,2.3812624812126164,21.8,0.0,9.0
2025-09-07 23:00:00,19022,Marché Secrétan,0.24615384615384622,6.4,17.6,48.88125496379482,2.373463287949562,21.8,0.0,9.0
2025-09-07 23:00:00,19023,Manin - Simon Bolivar,0.12499999999999997,3.25,17.75,48.876499654127,2.3794073625991,21.8,0.0,9.0
2025-09-07 23:00:00,19024,Botzaris - Parc des Buttes Chaumont,0.05000000000000001,1.0,19.0,48.877951,2.381464,21.8,0.0,9.0
2025-09-07 23:00:00,19025,Botzaris - Crimée,0.15555555555555553,3.2666666666666666,13.733333333333333,48.87959698690176,2.3887913337477067,21.8,0.0,9.0
2025-09-07 23:00:00,19026,Place de Rhin et Danube,0.13025210084033614,2.2142857142857144,11.785714285714286,48.88192765861766,2.392586767673493,21.8,0.0,9.0
2025-09-07 23:00:00,19029,Seine - Flandre,0.052631578947368404,1.0,18.0,48.886785741479684,2.3746193200349808,21.8,0.0,9.0
2025-09-07 23:00:00,19030,Melun - Jean Jaurès,0.25714285714285723,7.2,18.8,48.8837796723475,2.376477420330048,21.8,0.0,9.0
2025-09-07 23:00:00,19031,Manin - Crimée,0.2536231884057971,5.833333333333333,15.166666666666666,48.8831217743719,2.3863670602440834,21.8,0.0,9.0
2025-09-07 23:00:00,19032,Villette - Belleville,0.06398809523809523,3.0714285714285716,43.642857142857146,48.8726877314,2.376461327076,21.8,0.0,9.0
2025-09-07 23:00:00,19033,Cambrai - Benjamin Constant,0.3255813953488372,14.0,27.0,48.89594736851349,2.381133802246315,21.8,0.0,9.0
2025-09-07 23:00:00,19036,Hôpital Robert Debré,0.2859848484848485,9.4375,22.5625,48.88005222200894,2.4008650346327003,21.8,0.0,9.0
2025-09-07 23:00:00,19037,Belleville - Porte des Lilas,0.08541666666666667,2.7333333333333334,23.266666666666666,48.87660391892763,2.404769691129476,21.8,0.0,9.0
2025-09-07 23:00:00,19038,Lassus - Delouvain,0.04,0.8,17.2,48.8755044846,2.3890327325519,21.8,0.0,9.0
2025-09-07 23:00:00,19039,Edouard Pailleron - Simon Bolivar,0.08088235294117647,1.9411764705882353,19.058823529411764,48.87979886049996,2.374839261174202,21.8,0.0,9.0
2025-09-07 23:00:00,19040,Belleville - Télégraphe,0.1524390243902439,6.25,34.75,48.8756045,2.3995549,21.8,0.0,9.0
2025-09-07 23:00:00,19041,Belleville - Pyrénées,0.10952380952380952,4.6,36.666666666666664,48.8741908,2.3860039,21.8,0.0,9.0
2025-09-07 23:00:00,19043,Delphine Seyrig - Général Leclerc,0.06163522012578616,3.2666666666666666,47.733333333333334,48.893923963057865,2.39790290594101,21.8,0.0,9.0
2025-09-07 23:00:00,19044,Grands Moulins de Pantin,0.04933333333333335,2.466666666666667,45.53333333333333,48.89738369720229,2.3959985375404362,21.8,0.0,9.0
2025-09-07 23:00:00,19045,Macdonald - Césaria Evora,0.09914712153518124,6.642857142857143,58.357142857142854,48.89883,2.37933,21.8,0.0,9.0
2025-09-07 23:00:00,19046,Porte de Pantin.,0.07676767676767676,2.533333333333333,26.466666666666665,48.889199725577,2.3950181901455,21.8,0.0,9.0
2025-09-07 23:00:00,19101,Square Simon Bolivar,0.16666666666666663,4.0,19.0,48.875089888322,2.3826304078102,21.8,0.0,9.0
2025-09-07 23:00:00,19103,Manin - Carrières d'Amérique,0.12666666666666665,2.533333333333333,15.466666666666667,48.884672142095,2.3919698596001,21.8,0.0,9.0
2025-09-07 23:00:00,19105,Ambroise Rendu - Porte Brunet,0.0784313725490196,1.3333333333333333,15.666666666666666,48.883667,2.395733,21.8,0.0,9.0
2025-09-07 23:00:00,19108,Gaston Tessier - Rosa Parks RER,0.09266409266409267,3.4285714285714284,31.714285714285715,48.8963765,2.3743692,21.8,0.0,9.0
2025-09-07 23:00:00,19109,Tanger - Place du Maroc,0.21362229102167177,4.0588235294117645,13.941176470588236,48.8862524447104,2.3689296841621403,21.8,0.0,9.0
2025-09-07 23:00:00,19110,Square Claude Bernard,0.1822222222222222,5.466666666666667,23.533333333333335,48.89876016219984,2.375325746834278,21.8,0.0,9.0
2025-09-07 23:00:00,19111,Cesaria Evora - Rosa Parks,0.0923076923076923,3.6,34.4,48.89717672825043,2.3745173960924144,21.8,0.0,9.0
2025-09-07 23:00:00,19113,Pré Saint-Gervais - Lilas,0.2738095238095238,7.666666666666667,20.333333333333332,48.877870626988,2.3959073424339,21.8,0.0,9.0
2025-09-07 23:00:00,19114,Manin - Secrétan,0.25357142857142856,5.071428571428571,13.928571428571429,48.8791665,2.3787959,21.8,0.0,9.0
2025-09-07 23:00:00,19115,Porte de la Villette,0.082010582010582,2.2142857142857144,22.0,48.89835196548483,2.386150136590004,21.8,0.0,9.0
2025-09-07 23:00:00,19117,Euryale Dehaynin - Loire,0.05833333333333333,1.75,26.25,48.886248917304805,2.3774591088294987,21.8,0.0,9.0
2025-09-07 23:00:00,19120,Carducci - Place Hannah Arendt,0.12098765432098767,3.2666666666666666,21.733333333333334,48.877436681515796,2.3860743641853337,21.8,0.0,9.0
2025-09-07 23:00:00,19121,Belleville -  Pré Saint-Gervais,0.39880952380952384,8.375,11.625,48.875565910073,2.3930460959673,21.8,0.0,9.0
2025-09-07 23:00:00,19123,Metz - Marne,0.03838383838383838,1.2666666666666666,29.733333333333334,48.891163,2.3865705,21.8,0.0,9.0
2025-09-07 23:00:00,19124,Alexander Fleming - Belvédère,0.41244239631336393,12.785714285714286,17.214285714285715,48.88179064200294,2.4030599377642674,21.8,0.0,9.0
2025-09-07 23:00:00,19125,Place de l'Édit de Nantes,0.21190476190476196,6.357142857142857,23.642857142857142,48.88879,2.3785,21.8,0.0,9.0
2025-09-07 23:00:00,19127,Aubervilliers - Curial,0.09855072463768112,2.2666666666666666,18.733333333333334,48.89088305227546,2.3688579350709915,21.8,0.0,9.0
2025-09-07 23:00:00,19128,Quai de l'Oise - Aisne,0.26190476190476186,7.857142857142857,21.142857142857142,48.8906231,2.3833701,21.8,0.0,9.0
2025-09-07 23:00:00,19130,Place Paul Delouvrier,0.272108843537415,11.428571428571429,29.571428571428573,48.89197621431365,2.3851288855075836,21.8,0.0,9.0
2025-09-07 23:00:00,19201,Petit - Georges Thill,0.24534161490683232,5.642857142857143,16.357142857142858,48.88603131999171,2.3895753175020222,21.8,0.0,9.0
2025-09-07 23:00:00,19202,Marseillaise - Grenade,0.06825396825396825,3.0714285714285716,40.92857142857143,48.889371092747,2.3979396821544,21.8,0.0,9.0
2025-09-07 23:00:00,19203,Pailleron - Bouret,0.08395061728395062,2.2666666666666666,24.733333333333334,48.880516995482,2.3763902374411,21.8,0.0,9.0
2025-09-07 23:00:00,19204,Rampal - Belleville,0.31666666666666665,6.333333333333333,11.666666666666666,48.873114661405,2.3798409114805,21.8,0.0,9.0
2025-09-07 23:00:00,19205,Simon Bolivar - Henri Turot,0.17663043478260865,4.0625,18.9375,48.877475489801,2.3739709492211,21.8,0.0,9.0
2025-09-07 23:00:00,20001,Place de la Nation - Charonne,0.5277777777777778,19.0,17.0,48.848364667777,2.3997623859813,21.8,0.0,9.0
2025-09-07 23:00:00,20003,Pyrénées - Cours de Vincennes,0.20634920634920634,4.333333333333333,14.8,48.847796779935,2.4061721563339,21.8,0.0,9.0
2025-09-07 23:00:00,20004,Commandant l'Herminier - Gallieni,0.7058823529411763,12.0,4.266666666666667,48.847040552603,2.4160453677177,21.8,0.0,9.0
2025-09-07 23:00:00,20005,Reynaldo Hahn - Lagny,0.6105263157894739,11.6,5.4,48.849266043601794,2.412330328844772,21.8,0.0,9.0
2025-09-07 23:00:00,20006,Pyrénées - Plaine,0.5520833333333333,6.625,5.375,48.85026702458,2.4062821269035,21.8,0.0,9.0
2025-09-07 23:00:00,20007,Buzenval - Avron,0.3885714285714285,19.428571428571427,29.571428571428573,48.851617204999,2.4015135973077,21.8,0.0,9.0
2025-09-07 23:00:00,20008,Pyrénées - Avron,0.22083333333333333,7.066666666666666,19.933333333333334,48.853246898211985,2.405871044529538,21.8,0.0,9.0
2025-09-07 23:00:00,20009,Docteurs Déjérine - Pte de Montreuil,0.2833333333333333,5.666666666666667,14.333333333333334,48.85398448133697,2.41208288897222,21.8,0.0,9.0
2025-09-07 23:00:00,2001,Greneta - Sebastopol,0.4967741935483871,15.4,13.6,48.865242333228,2.3516669869423,21.8,0.0,9.0
2025-09-07 23:00:00,20010,Sorbier - Gasnier-Guy,0.29215686274509806,9.933333333333334,24.066666666666666,48.865217631011,2.3936596512794,21.8,0.0,9.0
2025-09-07 23:00:00,20011,Pyrénées - Dagorno,0.6892857142857143,13.785714285714286,6.214285714285714,48.855425770695085,2.4051643162965775,21.8,0.0,9.0
2025-09-07 23:00:00,20012,Buzenval - Vignoles,0.828054298642534,14.076923076923077,2.923076923076923,48.853858171688,2.4000040814281,21.8,0.0,9.0
2025-09-07 23:00:00,20013,Alexandre Dumas - Place de la Réunion,0.32888888888888884,14.8,29.2,48.85533710742046,2.3997703687646292,21.8,0.0,9.0
2025-09-07 23:00:00,20014,Charonne - Alexandre Dumas,0.5714285714285713,20.0,15.0,48.856077415056,2.3948693275452,21.8,0.0,9.0
2025-09-07 23:00:00,20016,Pyrénées - Maraîchers,0.20454545454545447,6.75,25.25,48.85714001395299,2.4043509364128113,21.8,0.0,9.0
2025-09-07 23:00:00,20017,Saint-Blaise - Mouraud,0.6412037037037037,17.3125,9.6875,48.85696177597818,2.40869477391243,21.8,0.0,9.0
2025-09-07 23:00:00,20019,Place du Maquis du Vercors,0.023655913978494616,0.7333333333333333,29.266666666666666,48.877321579493575,2.4083782732486725,21.8,0.0,9.0
2025-09-07 23:00:00,2002,Etienne Marcel - Montorgueil,0.18622448979591835,5.214285714285714,15.785714285714286,48.86450567259199,2.3461959511041637,21.8,0.0,9.0
2025-09-07 23:00:00,20020,Pyrénées - Charles Renouvier,0.6286472148541112,18.23076923076923,7.769230769230769,48.86095933229224,2.400421852042113,21.8,0.0,9.0
2025-09-07 23:00:00,20021,Indre - Prairies,0.08906882591093118,3.3846153846153846,32.69230769230769,48.86254398506782,2.403290458023548,21.8,0.0,9.0
2025-09-07 23:00:00,20022,Porte de Bagnolet,0.5838383838383838,19.266666666666666,12.733333333333333,48.864707139122984,2.408344637349607,21.8,0.0,9.0
2025-09-07 23:00:00,20023,Pelleport - Belgrand,0.7155555555555556,10.733333333333333,4.266666666666667,48.86500081847653,2.403980836377493,21.8,0.0,9.0
2025-09-07 23:00:00,20024,Gambetta - Père Lachaise,0.20000000000000007,5.8,22.466666666666665,48.864295696165875,2.398228667282044,21.8,0.0,9.0
2025-09-07 23:00:00,20027,Porte de Ménilmontant,0.24285714285714285,3.642857142857143,11.357142857142858,48.8691543609174,2.40932246879487,21.8,0.0,9.0
2025-09-07 23:00:00,20029,Frères Flavien - Porte des Lilas,0.24728260869565216,5.6875,17.3125,48.8780992764359,2.41104629853209,21.8,0.0,9.0
2025-09-07 23:00:00,2003,Saint-Denis - Réaumur,0.1625,5.2,22.8,48.8661116315789,2.3507790675507594,21.8,0.0,9.0
2025-09-07 23:00:00,20030,Ménilmontant - Père Lachaise,0.648780487804878,26.6,10.4,48.863287291502,2.3869940266013,21.8,0.0,9.0
2025-09-07 23:00:00,20032,Square des Amandiers,0.3873626373626374,10.071428571428571,14.928571428571429,48.86615630668046,2.3891324177384377,21.8,0.0,9.0
2025-09-07 23:00:00,20033,Etienne Dolet - Place Maurice Chevalier,0.08244680851063828,3.875,42.375,48.86798303359366,2.3851405311143026,21.8,0.0,9.0
2025-09-07 23:00:00,20034,Sorbier - Ménilmontant,0.3273809523809524,7.857142857142857,16.142857142857142,48.868542395661,2.3897721245885,21.8,0.0,9.0
2025-09-07 23:00:00,20035,Pyrénées - Ménilmontant,0.21025641025641026,5.466666666666667,19.533333333333335,48.8693268535238,2.395084574818611,21.8,0.0,9.0
2025-09-07 23:00:00,20036,Ménilmontant - Pelleport,0.166015625,5.3125,25.6875,48.870682633845,2.3989596023316,21.8,0.0,9.0
2025-09-07 23:00:00,20037,Gambetta - Saint Fargeau,0.32352941176470595,7.764705882352941,16.235294117647058,48.871244610447015,2.4039056897163396,21.8,0.0,9.0
2025-09-07 23:00:00,20039,Belleville - Couronnes,0.20625,10.3125,37.6875,48.868831082877,2.3809862136841,21.8,0.0,9.0
2025-09-07 23:00:00,2004,Square Pierre Lazareff,0.5580357142857143,8.928571428571429,4.071428571428571,48.867141720746,2.3483933508396,21.8,0.0,9.0
2025-09-07 23:00:00,20040,Parc de Belleville - Julien Lacroix,0.056213017751479286,1.4615384615384615,23.53846153846154,48.8703459,2.3842214,21.8,0.0,9.0
2025-09-07 23:00:00,20042,Pyrénées - Emmery,0.1875,7.5,32.5,48.87202880542,2.3918598091484,21.8,0.0,9.0
2025-09-07 23:00:00,20043,Charonne - Avron,0.3981481481481481,10.75,16.25,48.851602665222,2.3984030470379,21.8,0.0,9.0
2025-09-07 23:00:00,20044,Davout - Volga,0.1547619047619048,4.333333333333333,22.666666666666668,48.852919679957296,2.410522909779111,21.8,0.0,9.0
2025-09-07 23:00:00,20045,Louis Ganne - Davout,0.17058823529411765,5.117647058823529,23.88235294117647,48.86338720692607,2.409725748002529,21.8,0.0,9.0
2025-09-07 23:00:00,20047,Cours de Vincennes - Davout,0.32942708333333326,15.8125,30.6875,48.847238029966,2.4107042336225,21.8,0.0,9.0
2025-09-07 23:00:00,20048,Bagnolet - Place Saint-Blaise,0.15561224489795913,4.357142857142857,22.571428571428573,48.85973,2.40334,21.8,0.0,9.0
2025-09-07 23:00:00,2005,Montmartre - Etienne Marcel,0.2708333333333333,4.333333333333333,8.666666666666666,48.86502194581,2.3450684401448,21.8,0.0,9.0
2025-09-07 23:00:00,2006,Place des Victoires,0.19166666666666662,4.6,17.4,48.8660354,2.3420333,21.8,0.0,9.0
2025-09-07 23:00:00,2008,Mairie du 2ème,0.18809523809523815,5.266666666666667,20.733333333333334,48.8672190355135,2.3404625437747044,21.8,0.0,9.0
2025-09-07 23:00:00,2009,Filles Saint-Thomas - Place de la Bourse,0.13387423935091278,7.764705882352941,50.23529411764706,48.868899890853,2.3397543845203,21.8,0.0,9.0
2025-09-07 23:00:00,2010,Uzès - Montmartre,0.19396551724137934,5.625,21.375,48.870790980240706,2.3431010171771054,21.8,0.0,9.0
2025-09-07 23:00:00,20103,Le Vau - Maurice Bertaux,0.12000000000000005,3.0,21.0,48.86803439043193,2.411030612453627,21.8,0.0,9.0
2025-09-07 23:00:00,20104,Louis Lumière.,0.04545454545454545,1.0,20.0,48.86216198070008,2.41112578185621,21.8,0.0,9.0
2025-09-07 23:00:00,20105,Benoît Frachon - République,0.13333333333333333,4.0,25.266666666666666,48.85230729014318,2.415605485439301,21.8,0.0,9.0
2025-09-07 23:00:00,20106,Mairie du 20ème,0.10185185185185183,2.75,24.25,48.865302324275,2.3990669846535,21.8,0.0,9.0
2025-09-07 23:00:00,20108,Jardin de l'Hospice Debrousse,0.29076086956521735,6.6875,16.3125,48.861451061938,2.40568600595,21.8,0.0,9.0
2025-09-07 23:00:00,20110,Gambetta - Tourelles,0.10333333333333336,2.066666666666667,17.933333333333334,48.875337902264,2.4059921130538,21.8,0.0,9.0
2025-09-07 23:00:00,20111,Villiers de l'Isle Adam - Pyrénées,0.33333333333333337,6.666666666666667,13.333333333333334,48.867362,2.396222,21.8,0.0,9.0
2025-09-07 23:00:00,20113,Piat - Parc de Belleville,0.2976190476190476,6.25,13.75,48.87195626635528,2.384981390278095,21.8,0.0,9.0
2025-09-07 23:00:00,20115,Louis Lumière - Porte de Bagnolet,0.0576923076923077,1.1538461538461537,18.846153846153847,48.86431136000005,2.4105210229754443,21.8,0.0,9.0
2025-09-07 23:00:00,20116,Haies - Réunion,0.29220779220779214,6.428571428571429,15.571428571428571,48.85386896766491,2.402426162238911,21.8,0.0,9.0
2025-09-07 23:00:00,20117,Saint-Fargeau - Mortier,0.12903225806451607,4.0,27.0,48.87266656122256,2.407912909984589,21.8,0.0,9.0
2025-09-07 23:00:00,20118,Orteaux - Mouraud,0.5684523809523809,13.642857142857142,8.357142857142858,48.85558642847872,2.408762907764669,21.8,0.0,9.0
